time,ay,ax,az,gy,gx,gz,roll,pitch,yaw,cmd_fx,cmd_fy,cmd_fz,cmd_tx,cmd_ty,cmd_tz,pwm_1,pwm_2,pwm_3,pwm_4,pwm_5,pwm_6
1748733325.0965316,0.0,0.0,0.0,0.0,0.0,0.0,0.0,0.0,0.0,0,0,0,0,0,0,1500,1500,1500,1500,1500,1500
1748733325.1758502,-0.01,0.04,-0.06,0.002181661564992912,-0.002181661564992912,-0.001090830782496456,0.0042736564427933625,0.5598157752705449,0.6684099524242798,0,0,0,0,0,0,1500,1500,1500,1500,1500,1500
1748733325.2761872,-0.01,0.04,-0.06,0.002181661564992912,-0.002181661564992912,-0.001090830782496456,0.0042736564427933625,0.5598157752705449,0.6684099524242798,0,0,0,0,0,0,1500,1500,1500,1500,1500,1500
1748733325.3770506,0.0,0.0,-0.07,0.0,-0.001090830782496456,-0.001090830782496456,0.0042736564427933625,0.5598157752705449,0.6684099524242798,0,0,0,0,0,0,1500,1500,1500,1500,1500,1500
1748733325.460135,0.0,0.0,-0.07,0.0,-0.001090830782496456,-0.001090830782496456,0.0042736564427933625,0.5598157752705449,0.6684099524242798,0,0,0,0,0,0,1500,1500,1500,1500,1500,1500
1748733325.559945,0.01,-0.01,-0.06,-0.001090830782496456,-0.001090830782496456,0.001090830782496456,0.0042736564427933625,0.5598157752705449,0.6684099524242798,0,0,0,0,0,0,1500,1500,1500,1500,1500,1500
1748733325.660945,0.0,0.0,-0.03,0.002181661564992912,0.002181661564992912,0.001090830782496456,0.0042736564427933625,0.5598157752705449,0.6684099524242798,0,0,0,0,0,0,1500,1500,1500,1500,1500,1500
1748733325.759766,0.0,0.0,-0.03,0.002181661564992912,0.002181661564992912,0.001090830782496456,0.0042736564427933625,0.5598157752705449,0.6684099524242798,0,0,0,0,0,0,1500,1500,1500,1500,1500,1500
1748733325.8608954,-0.01,0.03,-0.03,0.001090830782496456,0.003272492347489368,0.0,0.0042736564427933625,0.5598157752705449,0.6684099524242798,0,0,0,0,0,0,1500,1500,1500,1500,1500,1500
1748733325.9441147,-0.01,0.03,-0.03,0.001090830782496456,0.003272492347489368,0.0,0.0042736564427933625,0.5598157752705449,0.6684099524242798,0,0,0,0,0,0,1500,1500,1500,1500,1500,1500
1748733326.0439723,0.01,0.02,-0.04,-0.002181661564992912,0.006544984694978736,0.0,0.0042736564427933625,0.5598157752705449,0.6684099524242798,0,0,0,0,0,0,1500,1500,1500,1500,1500,1500
1748733326.1432974,0.0,0.0,-0.05,0.0,-0.002181661564992912,0.001090830782496456,0.0042736564427933625,0.5598157752705449,0.6684099524242798,0,0,0,0,0,0,1500,1500,1500,1500,1500,1500
1748733326.2271867,0.0,0.0,-0.05,0.0,-0.002181661564992912,0.001090830782496456,0.0042736564427933625,0.5598157752705449,0.6684099524242798,0,0,0,0,0,0,1500,1500,1500,1500,1500,1500
1748733326.3262732,0.0,0.0,-0.06,-0.001090830782496456,-0.002181661564992912,0.0,0.0042736564427933625,0.5598157752705449,0.6684099524242798,0,0,0,0,0,0,1500,1500,1500,1500,1500,1500
1748733326.4117434,0.0,0.0,-0.06,-0.001090830782496456,-0.002181661564992912,0.0,0.0042736564427933625,0.5598157752705449,0.6684099524242798,0,0,0,0,0,0,1500,1500,1500,1500,1500,1500
1748733326.511355,-0.31,0.22,-0.32,-0.008726646259971648,0.004363323129985824,0.0272707695624114,0.0042576976728273845,0.5595797068256634,0.6686542913540041,0,0,0,0,0,0,1500,1500,1500,1500,1500,1500
1748733326.6041114,-0.09,0.08,-0.5700000000000001,-0.00545415391248228,0.003272492347489368,0.007635815477475192,0.003993246312308894,0.5595063524788666,0.6683059540240611,0,0,0,0,0,0,1500,1500,1500,1500,1500,1500
1748733326.693437,-0.09,0.08,-0.5700000000000001,-0.00545415391248228,0.003272492347489368,0.007635815477475192,0.003993246312308894,0.5595063524788666,0.6683059540240611,0,0,0,0,0,0,1500,1500,1500,1500,1500,1500
1748733326.7938359,0.06,-1.11,0.25,0.006544984694978736,-0.02399827721492203,0.0,0.003958284682848799,0.5588703047713856,0.6685056125893669,0,0,0,0,0,0,1500,1500,1500,1500,1500,1500
1748733326.8946185,0.06,-1.11,0.25,0.006544984694978736,-0.02399827721492203,0.0,0.003958284682848799,0.5588703047713856,0.6685056125893669,0,0,0,0,0,0,1500,1500,1500,1500,1500,1500
1748733326.9942055,-0.86,0.63,-0.27,0.00545415391248228,-0.002181661564992912,-0.011999138607461015,0.003632663824230172,0.5592174250383599,0.6682958467151849,0,0,0,0,0,0,1500,1500,1500,1500,1500,1500
1748733327.0934923,-0.61,0.3,0.1,0.002181661564992912,-0.020725784867432664,0.006544984694978736,0.0037929706024844444,0.559066903547847,0.6686064224698978,0,0,0,0,0,0,1500,1500,1500,1500,1500,1500
1748733327.1764963,-0.61,0.3,0.1,0.002181661564992912,-0.020725784867432664,0.006544984694978736,0.0037929706024844444,0.559066903547847,0.6686064224698978,0,0,0,0,0,0,1500,1500,1500,1500,1500,1500
1748733327.2774167,0.8200000000000001,-0.64,-0.35000000000000003,-0.004363323129985824,0.01090830782496456,-0.002181661564992912,0.0035692375004286758,0.5591703932401106,0.668706222224331,0,0,0,0,0,0,1500,1500,1500,1500,1500,1500
1748733327.3761384,0.8200000000000001,-0.64,-0.35000000000000003,-0.004363323129985824,0.01090830782496456,-0.002181661564992912,0.0035692375004286758,0.5591703932401106,0.668706222224331,0,0,0,0,0,0,1500,1500,1500,1500,1500,1500
1748733327.4618332,-0.85,1.0,-0.49,0.009817477042468103,-0.015271630954950384,0.01090830782496456,0.0030671154530249258,0.558644884382505,0.6685000702913038,0,0,0,0,0,0,1500,1500,1500,1500,1500,1500
1748733327.56058,1.44,0.05,0.37,0.007635815477475192,0.009817477042468103,-0.02945243112740431,0.0026080887818582966,0.5580859956699191,0.6680419714011469,0,0,0,0,0,0,1500,1500,1500,1500,1500,1500
1748733327.6613393,1.44,0.05,0.37,0.007635815477475192,0.009817477042468103,-0.02945243112740431,0.0026080887818582966,0.5580859956699191,0.6680419714011469,0,0,0,0,0,0,1500,1500,1500,1500,1500,1500
1748733327.7614067,-0.06,-0.27,-0.66,0.002181661564992912,0.008726646259971648,-0.02181661564992912,0.002125192109053596,0.5579604877601937,0.6678809249970431,0,0,0,0,0,0,1500,1500,1500,1500,1500,1500
1748733327.8609946,-0.06,-0.27,-0.66,0.002181661564992912,0.008726646259971648,-0.02181661564992912,0.002125192109053596,0.5579604877601937,0.6678809249970431,0,0,0,0,0,0,1500,1500,1500,1500,1500,1500
1748733327.9440908,0.29,-0.29,0.09,-0.008726646259971648,0.014180800172453928,-0.004363323129985824,0.0019759976320421163,0.557605877840454,0.6678075336743796,0,0,0,0,0,0,1500,1500,1500,1500,1500,1500
1748733328.0402167,-0.32,0.17,-0.64,0.003272492347489368,0.013089969389957472,-0.019634954084936207,0.0019570563827521186,0.5579929309199483,0.6676927636414779,0,0,0,0,0,0,1500,1500,1500,1500,1500,1500
1748733328.144171,-0.32,0.17,-0.64,0.003272492347489368,0.013089969389957472,-0.019634954084936207,0.0019570563827521186,0.5579929309199483,0.6676927636414779,0,0,0,0,0,0,1500,1500,1500,1500,1500,1500
1748733328.2277749,1.06,-0.08,0.23,-0.002181661564992912,-0.020725784867432664,0.02181661564992912,0.002055720683398493,0.5574762985078351,0.668211788874807,0,0,0,0,0,0,1500,1500,1500,1500,1500,1500
1748733328.3280177,1.06,-0.08,0.23,-0.002181661564992912,-0.020725784867432664,0.02181661564992912,0.002055720683398493,0.5574762985078351,0.668211788874807,0,0,0,0,0,0,1500,1500,1500,1500,1500,1500
1748733328.4114137,-1.04,0.11,-0.17,0.007635815477475192,0.017453292519943295,-0.0272707695624114,0.0021596112396168534,0.5569133496070514,0.6683196115012555,0,0,0,0,0,0,1500,1500,1500,1500,1500,1500
1748733328.5109782,-1.04,0.11,-0.17,0.007635815477475192,0.017453292519943295,-0.0272707695624114,0.0021596112396168534,0.5569133496070514,0.6683196115012555,0,0,0,0,0,0,1500,1500,1500,1500,1500,1500
1748733328.6107268,1.25,-0.26,0.23,0.007635815477475192,-0.013089969389957472,-0.00545415391248228,0.002284602276553684,0.556914429159185,0.6687601013705669,0,0,0,0,0,0,1500,1500,1500,1500,1500,1500
1748733328.6946158,-0.08,0.29,-0.09,0.00545415391248228,-0.01090830782496456,0.007635815477475192,0.0021110958612121054,0.5569933876389102,0.6689832731432237,0,0,0,0,0,0,1500,1500,1500,1500,1500,1500
1748733328.7946227,-0.08,0.29,-0.09,0.00545415391248228,-0.01090830782496456,0.007635815477475192,0.0021110958612121054,0.5569933876389102,0.6689832731432237,0,0,0,0,0,0,1500,1500,1500,1500,1500,1500
1748733328.8935895,-1.1300000000000001,-0.31,-0.81,-0.001090830782496456,0.001090830782496456,-0.020725784867432664,0.0022416532573516193,0.5569480360677945,0.6690126043776241,0,0,0,0,0,0,1500,1500,1500,1500,1500,1500
1748733328.9784045,-1.1300000000000001,-0.31,-0.81,-0.001090830782496456,0.001090830782496456,-0.020725784867432664,0.0022416532573516193,0.5569480360677945,0.6690126043776241,0,0,0,0,0,0,1500,1500,1500,1500,1500,1500
1748733329.0775223,0.45,-0.61,-0.53,-0.001090830782496456,-0.006544984694978736,-0.003272492347489368,0.001887354093705016,0.55709695411894,0.6690833348263548,0,0,0,0,0,0,1500,1500,1500,1500,1500,1500
1748733329.1771808,-0.59,-0.38,0.03,-0.016362461737446838,0.006544984694978736,0.028361600344907856,0.0017478445264609089,0.5569160792077505,0.6696746377336881,0,0,0,0,0,0,1500,1500,1500,1500,1500,1500
1748733329.2784584,-0.59,-0.38,0.03,-0.016362461737446838,0.006544984694978736,0.028361600344907856,0.0017478445264609089,0.5569160792077505,0.6696746377336881,0,0,0,0,0,0,1500,1500,1500,1500,1500,1500
1748733329.3773584,1.25,-0.17,0.42,0.007635815477475192,-0.003272492347489368,-0.013089969389957472,0.0016172946399979804,0.5569614825390043,0.6696453362110157,0,0,0,0,0,0,1500,1500,1500,1500,1500,1500
1748733329.4611197,1.25,-0.17,0.42,0.007635815477475192,-0.003272492347489368,-0.013089969389957472,0.0016172946399979804,0.5569614825390043,0.6696453362110157,0,0,0,0,0,0,1500,1500,1500,1500,1500,1500
1748733329.5636327,-0.75,0.22,-0.8,0.001090830782496456,0.020725784867432664,-0.015271630954950384,0.0015927653853906923,0.5566083920151637,0.6700127444982436,0,0,0,0,0,0,1500,1500,1500,1500,1500,1500
1748733329.661604,-0.4,0.8200000000000001,-0.14,-0.006544984694978736,-0.002181661564992912,0.0272707695624114,0.0014293416339324625,0.5561831680400808,0.6704734461596359,0,0,0,0,0,0,1500,1500,1500,1500,1500,1500
1748733329.7613611,-0.4,0.8200000000000001,-0.14,-0.006544984694978736,-0.002181661564992912,0.0272707695624114,0.0014293416339324625,0.5561831680400808,0.6704734461596359,0,0,0,0,0,0,1500,1500,1500,1500,1500,1500
1748733329.8610814,1.04,0.61,0.48,-0.011999138607461015,-0.002181661564992912,0.014180800172453928,0.001210283831692894,0.5561320494122368,0.6706606694717536,0,0,0,0,0,0,1500,1500,1500,1500,1500,1500
1748733329.944596,1.04,0.61,0.48,-0.011999138607461015,-0.002181661564992912,0.014180800172453928,0.001210283831692894,0.5561320494122368,0.6706606694717536,0,0,0,0,0,0,1500,1500,1500,1500,1500,1500
1748733330.0444453,0.56,-0.24,0.33,-0.019634954084936207,-0.008726646259971648,0.026179938779914945,0.0009969825449086629,0.5560340802368194,0.6704364958110653,0,0,0,0,0,0,1500,1500,1500,1500,1500,1500
1748733330.145163,-0.17,0.04,-0.44,-0.01090830782496456,0.01090830782496456,0.007635815477475192,0.0006929844954808448,0.5561590340904246,0.6706307749792271,0,0,0,0,0,0,1500,1500,1500,1500,1500,1500
1748733330.2433653,-0.17,0.04,-0.44,-0.01090830782496456,0.01090830782496456,0.007635815477475192,0.0006929844954808448,0.5561590340904246,0.6706307749792271,0,0,0,0,0,0,1500,1500,1500,1500,1500,1500
1748733330.3443274,-0.32,0.26,0.04,0.003272492347489368,-0.007635815477475192,0.001090830782496456,0.000628771793970509,0.5561128375797374,0.6710417109824296,0,0,0,0,0,0,1500,1500,1500,1500,1500,1500
1748733330.4276347,-0.32,0.26,0.04,0.003272492347489368,-0.007635815477475192,0.001090830782496456,0.000628771793970509,0.5561128375797374,0.6710417109824296,0,0,0,0,0,0,1500,1500,1500,1500,1500,1500
1748733330.527363,0.73,-0.02,-0.36,0.004363323129985824,0.002181661564992912,-0.019634954084936207,0.0002660301594962859,0.555660636222443,0.6707447520035301,0,0,0,0,0,0,1500,1500,1500,1500,1500,1500
1748733330.627959,-0.33,0.09,-0.41000000000000003,0.020725784867432664,-0.003272492347489368,-0.018544123302439753,0.0005211017883734193,0.5556167780004276,0.6712145313558276,0,0,0,0,0,0,1500,1500,1500,1500,1500,1500
1748733330.7107785,-0.33,0.09,-0.41000000000000003,0.020725784867432664,-0.003272492347489368,-0.018544123302439753,0.0005211017883734193,0.5556167780004276,0.6712145313558276,0,0,0,0,0,0,1500,1500,1500,1500,1500,1500
1748733330.812975,-1.49,0.1,-0.51,-0.001090830782496456,0.015271630954950384,-0.014180800172453928,0.00048636078270430146,0.5557684758740502,0.6713446890159444,0,0,0,0,0,0,1500,1500,1500,1500,1500,1500
1748733330.910394,-1.49,0.1,-0.51,-0.001090830782496456,0.015271630954950384,-0.014180800172453928,0.00048636078270430146,0.5557684758740502,0.6713446890159444,0,0,0,0,0,0,1500,1500,1500,1500,1500,1500
1748733331.0113237,0.21,-0.05,0.1,-0.006544984694978736,-0.015271630954950384,0.014180800172453928,0.00028664968811296167,0.5554385510340202,0.6711487391492464,0,0,0,0,0,0,1500,1500,1500,1500,1500,1500
1748733331.1118455,-1.28,0.8,0.02,0.009817477042468103,-0.0272707695624114,0.006544984694978736,9.170238067811003e-05,0.5549539371921575,0.6710399960499348,0,0,0,0,0,0,1500,1500,1500,1500,1500,1500
1748733331.193966,-1.28,0.8,0.02,0.009817477042468103,-0.0272707695624114,0.006544984694978736,9.170238067811003e-05,0.5549539371921575,0.6710399960499348,0,0,0,0,0,0,1500,1500,1500,1500,1500,1500
1748733331.2931774,-0.07,-0.33,-0.63,0.003272492347489368,-0.002181661564992912,0.007635815477475192,0.00015380236685468742,0.5545902962693634,0.6716897392715311,0,0,0,0,0,0,1500,1500,1500,1500,1500,1500
1748733331.3943145,-0.07,-0.33,-0.63,0.003272492347489368,-0.002181661564992912,0.007635815477475192,0.00015380236685468742,0.5545902962693634,0.6716897392715311,0,0,0,0,0,0,1500,1500,1500,1500,1500,1500
1748733331.477466,0.38,-0.87,0.75,-0.009817477042468103,0.009817477042468103,0.008726646259971648,7.117728185110932e-05,0.5544469643009295,0.6714949852937504,0,0,0,0,0,0,1500,1500,1500,1500,1500,1500
1748733331.5773168,1.6,-0.05,0.4,-0.014180800172453928,-0.004363323129985824,0.04145156973486533,1.0514387677423099e-05,0.5541890250954005,0.6712058730599338,0,0,0,0,0,0,1500,1500,1500,1500,1500,1500
1748733331.6650877,1.6,-0.05,0.4,-0.014180800172453928,-0.004363323129985824,0.04145156973486533,1.0514387677423099e-05,0.5541890250954005,0.6712058730599338,0,0,0,0,0,0,1500,1500,1500,1500,1500,1500
1748733331.7610815,-0.66,0.36,-0.28,-0.011999138607461015,0.00545415391248228,0.001090830782496456,-0.0001884119603558803,0.5539165582221307,0.671797588669665,0,0,0,0,0,0,1500,1500,1500,1500,1500,1500
1748733331.861284,-0.66,0.36,-0.28,-0.011999138607461015,0.00545415391248228,0.001090830782496456,-0.0001884119603558803,0.5539165582221307,0.671797588669665,0,0,0,0,0,0,1500,1500,1500,1500,1500,1500
1748733331.9444282,-0.96,-0.18,0.16,-0.004363323129985824,-0.006544984694978736,0.014180800172453928,-1.6555680101227234e-05,0.5537295491121959,0.6720723146962645,0,0,0,0,0,0,1500,1500,1500,1500,1500,1500
1748733332.0392933,0.52,-0.15,-0.09,-0.003272492347489368,-0.002181661564992912,0.017453292519943295,-0.00010136768547952055,0.5539054060981656,0.6720793254783571,0,0,0,0,0,0,1500,1500,1500,1500,1500,1500
1748733332.1445417,0.52,-0.15,-0.09,-0.003272492347489368,-0.002181661564992912,0.017453292519943295,-0.00010136768547952055,0.5539054060981656,0.6720793254783571,0,0,0,0,0,0,1500,1500,1500,1500,1500,1500
1748733332.2277207,0.35000000000000003,-0.31,0.1,-0.002181661564992912,-0.001090830782496456,-0.02181661564992912,-0.00010356497627242554,0.5537407087830569,0.6717906030477726,0,0,0,0,0,0,1500,1500,1500,1500,1500,1500
1748733332.3274593,0.35000000000000003,-0.31,0.1,-0.002181661564992912,-0.001090830782496456,-0.02181661564992912,-0.00010356497627242554,0.5537407087830569,0.6717906030477726,0,0,0,0,0,0,1500,1500,1500,1500,1500,1500
1748733332.412755,-0.07,0.07,-0.08,0.001090830782496456,-0.00545415391248228,-0.004363323129985824,-4.738377965736894e-05,0.5541531538123424,0.6719926557596465,0,0,0,0,0,0,1500,1500,1500,1500,1500,1500
1748733332.5114806,-0.07,0.07,-0.08,0.001090830782496456,-0.00545415391248228,-0.004363323129985824,-4.738377965736894e-05,0.5541531538123424,0.6719926557596465,0,0,0,0,0,0,1500,1500,1500,1500,1500,1500
1748733332.6101968,-0.38,-0.08,-0.09,-0.01090830782496456,0.00545415391248228,0.00545415391248228,0.0006978196298515954,0.5543508675814363,0.6724987368961699,0,0,0,0,0,0,1500,1500,1500,1500,1500,1500
1748733332.6946392,-0.56,-0.4,-0.16,-0.004363323129985824,-0.017453292519943295,0.008726646259971648,0.00036290534274654275,0.5544160998579849,0.6721232314361837,0,0,0,0,0,0,1500,1500,1500,1500,1500,1500
1748733332.794469,-0.56,-0.4,-0.16,-0.004363323129985824,-0.017453292519943295,0.008726646259971648,0.00036290534274654275,0.5544160998579849,0.6721232314361837,0,0,0,0,0,0,1500,1500,1500,1500,1500,1500
1748733332.8939989,0.75,-0.19,0.22,-0.006544984694978736,-0.01090830782496456,0.015271630954950384,0.0005218805129738419,0.5542660537878135,0.6724336084170803,0,0,0,0,0,0,1500,1500,1500,1500,1500,1500
1748733332.9775534,0.75,-0.19,0.22,-0.006544984694978736,-0.01090830782496456,0.015271630954950384,0.0005218805129738419,0.5542660537878135,0.6724336084170803,0,0,0,0,0,0,1500,1500,1500,1500,1500,1500
1748733333.0771027,0.27,-0.08,-0.22,-0.00545415391248228,0.00545415391248228,0.002181661564992912,0.00034830639986857455,0.5543459428443023,0.672657407055744,0,0,0,0,0,0,1500,1500,1500,1500,1500,1500
1748733333.1635952,-0.58,0.07,-0.08,0.006544984694978736,-0.011999138607461015,-0.011999138607461015,0.00026354329040240393,0.5545218756862771,0.6726644928223837,0,0,0,0,0,0,1500,1500,1500,1500,1500,1500
1748733333.2612956,-0.58,0.07,-0.08,0.006544984694978736,-0.011999138607461015,-0.011999138607461015,0.00026354329040240393,0.5545218756862771,0.6726644928223837,0,0,0,0,0,0,1500,1500,1500,1500,1500,1500
1748733333.3610246,-0.01,0.39,0.29,-0.003272492347489368,-0.020725784867432664,0.0,0.0002942046409280796,0.5540981918596033,0.672743965857295,0,0,0,0,0,0,1500,1500,1500,1500,1500,1500
1748733333.44325,-0.01,0.39,0.29,-0.003272492347489368,-0.020725784867432664,0.0,0.0002942046409280796,0.5540981918596033,0.672743965857295,0,0,0,0,0,0,1500,1500,1500,1500,1500,1500
1748733333.5434864,0.18,0.06,0.15,-0.003272492347489368,-0.007635815477475192,0.01090830782496456,0.0007421209794227367,0.5537525079850488,0.6733936231040625,0,0,0,0,0,0,1500,1500,1500,1500,1500,1500
1748733333.6433349,-0.14,-0.13,0.17,-0.004363323129985824,0.003272492347489368,0.002181661564992912,0.0005229006483002049,0.5537022108717932,0.6735814402556929,0,0,0,0,0,0,1500,1500,1500,1500,1500,1500
1748733333.7284734,-0.14,-0.13,0.17,-0.004363323129985824,0.003272492347489368,0.002181661564992912,0.0005229006483002049,0.5537022108717932,0.6735814402556929,0,0,0,0,0,0,1500,1500,1500,1500,1500,1500
1748733333.8272507,-0.7000000000000001,-0.59,-0.08,0.0,-0.006544984694978736,-0.007635815477475192,0.00045119757599250887,0.5538410792050572,0.6735529394453075,0,0,0,0,0,0,1500,1500,1500,1500,1500,1500
1748733333.9282057,-0.7000000000000001,-0.59,-0.08,0.0,-0.006544984694978736,-0.007635815477475192,0.00045119757599250887,0.5538410792050572,0.6735529394453075,0,0,0,0,0,0,1500,1500,1500,1500,1500,1500
1748733334.02746,0.43,-0.11,0.25,-0.00545415391248228,-0.008726646259971648,0.011999138607461015,0.00042341588359272396,0.553808185262192,0.6741229420697037,0,0,0,0,0,0,1500,1500,1500,1500,1500,1500
1748733334.128074,0.43,-0.11,0.25,-0.00545415391248228,-0.008726646259971648,0.011999138607461015,0.00042341588359272396,0.553808185262192,0.6741229420697037,0,0,0,0,0,0,1500,1500,1500,1500,1500,1500
1748733334.210249,-0.36,0.32,0.12,-0.004363323129985824,0.003272492347489368,0.0,0.00030372752843551323,0.5530308739641683,0.6741297496879938,0,0,0,0,0,0,1500,1500,1500,1500,1500,1500
1748733334.310516,0.16,-0.28,-0.22,-0.002181661564992912,0.004363323129985824,-0.018544123302439753,-1.1074935226278311e-05,0.5528746177522283,0.674158670015634,0,0,0,0,0,0,1500,1500,1500,1500,1500,1500
1748733334.4111965,0.16,-0.28,-0.22,-0.002181661564992912,0.004363323129985824,-0.018544123302439753,-1.1074935226278311e-05,0.5528746177522283,0.674158670015634,0,0,0,0,0,0,1500,1500,1500,1500,1500,1500
1748733334.5101361,-0.19,-0.31,-0.26,-0.015271630954950384,0.003272492347489368,-0.00545415391248228,-4.59758521337016e-05,0.5524055631211396,0.674649530194949,0,0,0,0,0,0,1500,1500,1500,1500,1500,1500
1748733334.604829,0.22,0.22,0.38,-0.007635815477475192,0.006544984694978736,0.006544984694978736,0.0002254167703692102,0.5525963146589424,0.6748734358806072,0,0,0,0,0,0,1500,1500,1500,1500,1500,1500
1748733334.6941314,0.22,0.22,0.38,-0.007635815477475192,0.006544984694978736,0.006544984694978736,0.0002254167703692102,0.5525963146589424,0.6748734358806072,0,0,0,0,0,0,1500,1500,1500,1500,1500,1500
1748733334.79385,0.25,0.25,-0.5700000000000001,-0.001090830782496456,0.004363323129985824,0.0,0.00044886705705498664,0.5524920475594267,0.6747723693714048,0,0,0,0,0,0,1500,1500,1500,1500,1500,1500
1748733334.8941982,0.25,0.25,-0.5700000000000001,-0.001090830782496456,0.004363323129985824,0.0,0.00044886705705498664,0.5524920475594267,0.6747723693714048,0,0,0,0,0,0,1500,1500,1500,1500,1500,1500
1748733334.9767053,-0.37,0.13,-0.38,-0.008726646259971648,0.01090830782496456,-0.004363323129985824,0.0007772396423385593,0.5530950198081239,0.6751989810484627,0,0,0,0,0,0,1500,1500,1500,1500,1500,1500
1748733335.0787673,-0.37,0.13,-0.38,-0.008726646259971648,0.01090830782496456,-0.004363323129985824,0.0007772396423385593,0.5530950198081239,0.6751989810484627,0,0,0,0,0,0,1500,1500,1500,1500,1500,1500
1748733335.1773891,0.0,-0.08,0.06,0.004363323129985824,-0.001090830782496456,-0.007635815477475192,0.0012038185988941111,0.5539111179383794,0.6752867277818638,0,0,0,0,0,0,1500,1500,1500,1500,1500,1500
1748733335.2782688,0.09,-0.07,0.14,-0.002181661564992912,-0.011999138607461015,-0.022907446432425576,0.0011580207459697695,0.5537808456925974,0.6752504917260552,0,0,0,0,0,0,1500,1500,1500,1500,1500,1500
1748733335.3778074,0.09,-0.07,0.14,-0.002181661564992912,-0.011999138607461015,-0.022907446432425576,0.0011580207459697695,0.5537808456925974,0.6752504917260552,0,0,0,0,0,0,1500,1500,1500,1500,1500,1500
1748733335.4599068,0.53,-0.28,0.34,0.001090830782496456,-0.014180800172453928,0.001090830782496456,0.000851758876637294,0.5537419964423417,0.6751564531181201,0,0,0,0,0,0,1500,1500,1500,1500,1500,1500
1748733335.5611517,0.53,-0.28,0.34,0.001090830782496456,-0.014180800172453928,0.001090830782496456,0.000851758876637294,0.5537419964423417,0.6751564531181201,0,0,0,0,0,0,1500,1500,1500,1500,1500,1500
1748733335.6611354,0.43,-0.4,0.42,0.006544984694978736,-0.014180800172453928,-0.003272492347489368,0.00104729137715834,0.5536048183129552,0.6756256261621156,0,0,0,0,0,0,1500,1500,1500,1500,1500,1500
1748733335.759969,0.52,0.53,-0.35000000000000003,0.001090830782496456,-0.013089969389957472,-0.01090830782496456,0.00086248176656996,0.5534029920139405,0.6756831643947985,0,0,0,0,0,0,1500,1500,1500,1500,1500,1500
1748733335.8607938,0.52,0.53,-0.35000000000000003,0.001090830782496456,-0.013089969389957472,-0.01090830782496456,0.00086248176656996,0.5534029920139405,0.6756831643947985,0,0,0,0,0,0,1500,1500,1500,1500,1500,1500
1748733335.9439595,-0.1,-0.06,-0.66,0.002181661564992912,-0.003272492347489368,-0.009817477042468103,0.0006149956123283987,0.553457457411027,0.6755897318248075,0,0,0,0,0,0,1500,1500,1500,1500,1500,1500
1748733336.0429308,-0.1,-0.06,-0.66,0.002181661564992912,-0.003272492347489368,-0.009817477042468103,0.0006149956123283987,0.553457457411027,0.6755897318248075,0,0,0,0,0,0,1500,1500,1500,1500,1500,1500
1748733336.144055,-0.01,0.21,0.0,-0.006544984694978736,0.006544984694978736,-0.01090830782496456,0.0004873197020618483,0.5536681022251428,0.6758501547757744,0,0,0,0,0,0,1500,1500,1500,1500,1500,1500
1748733336.2281294,0.05,0.42,-0.27,0.004363323129985824,0.002181661564992912,0.009817477042468103,0.000524336197016038,0.5536810746380022,0.6760090194118384,0,0,0,0,0,0,1500,1500,1500,1500,1500,1500
1748733336.3278308,0.05,0.42,-0.27,0.004363323129985824,0.002181661564992912,0.009817477042468103,0.000524336197016038,0.5536810746380022,0.6760090194118384,0,0,0,0,0,0,1500,1500,1500,1500,1500,1500
1748733336.4283438,-1.37,0.33,-0.05,-0.004363323129985824,0.007635815477475192,0.011999138607461015,0.00046091340931935285,0.553316336343914,0.676218177112663,0,0,0,0,0,0,1500,1500,1500,1500,1500,1500
1748733336.5267706,0.12,-0.01,-0.41000000000000003,-0.00545415391248228,0.002181661564992912,0.014180800172453928,0.0005020179994252505,0.5531750962290252,0.6764640081165917,0,0,0,0,0,0,1500,1500,1500,1500,1500,1500
1748733336.628107,0.12,-0.01,-0.41000000000000003,-0.00545415391248228,0.002181661564992912,0.014180800172453928,0.0005020179994252505,0.5531750962290252,0.6764640081165917,0,0,0,0,0,0,1500,1500,1500,1500,1500,1500
1748733336.7105067,0.48,0.37,-0.21,-0.015271630954950384,-0.001090830782496456,0.019634954084936207,9.375951752464625e-05,0.5530780681069258,0.6766229494422163,0,0,0,0,0,0,1500,1500,1500,1500,1500,1500
1748733336.8109167,0.48,0.37,-0.21,-0.015271630954950384,-0.001090830782496456,0.019634954084936207,9.375951752464625e-05,0.5530780681069258,0.6766229494422163,0,0,0,0,0,0,1500,1500,1500,1500,1500,1500
1748733336.9108849,-0.51,0.29,-0.5700000000000001,0.006544984694978736,0.009817477042468103,0.004363323129985824,-0.00012082209300824602,0.5532998727288394,0.676601461645983,0,0,0,0,0,0,1500,1500,1500,1500,1500,1500
1748733337.0079675,-0.24,0.44,-0.5700000000000001,0.006544984694978736,-0.003272492347489368,-0.020725784867432664,9.375951752464625e-05,0.5530780681069258,0.6766229494422163,0,0,0,0,0,0,1500,1500,1500,1500,1500,1500
1748733337.1112897,-0.24,0.44,-0.5700000000000001,0.006544984694978736,-0.003272492347489368,-0.020725784867432664,9.375951752464625e-05,0.5530780681069258,0.6766229494422163,0,0,0,0,0,0,1500,1500,1500,1500,1500,1500
1748733337.1945484,-1.0,0.53,-0.48,-0.017453292519943295,0.008726646259971648,0.016362461737446838,-5.415817696635161e-05,0.552889518658422,0.6768396122860487,0,0,0,0,0,0,1500,1500,1500,1500,1500,1500
1748733337.2945755,-1.0,0.53,-0.48,-0.017453292519943295,0.008726646259971648,0.016362461737446838,-5.415817696635161e-05,0.552889518658422,0.6768396122860487,0,0,0,0,0,0,1500,1500,1500,1500,1500,1500
1748733337.3934112,0.15,-0.46,0.47000000000000003,-0.007635815477475192,0.016362461737446838,0.013089969389957472,-0.00025034416658617254,0.5524058081874188,0.6767309517943116,0,0,0,0,0,0,1500,1500,1500,1500,1500,1500
1748733337.4771392,0.15,-0.46,0.47000000000000003,-0.007635815477475192,0.016362461737446838,0.013089969389957472,-0.00025034416658617254,0.5524058081874188,0.6767309517943116,0,0,0,0,0,0,1500,1500,1500,1500,1500,1500
1748733337.5781322,0.6,-0.65,-0.05,0.004363323129985824,-0.02399827721492203,-0.009817477042468103,-0.00025034416658617254,0.5524058081874188,0.6767309517943116,0,0,0,0,0,0,1500,1500,1500,1500,1500,1500
1748733337.6773558,-1.3800000000000001,0.14,-0.33,0.015271630954950384,-0.013089969389957472,-0.025089107997418487,-0.0002872266706486034,0.55239281097334,0.676572130212886,0,0,0,0,0,0,1500,1500,1500,1500,1500,1500
1748733337.7780473,-1.3800000000000001,0.14,-0.33,0.015271630954950384,-0.013089969389957472,-0.025089107997418487,-0.0002872266706486034,0.55239281097334,0.676572130212886,0,0,0,0,0,0,1500,1500,1500,1500,1500,1500
1748733337.880174,-0.72,0.23,-0.45,0.014180800172453928,0.008726646259971648,-0.022907446432425576,-0.00031396573742065485,0.552041426764609,0.6769404418549541,0,0,0,0,0,0,1500,1500,1500,1500,1500,1500
1748733337.9769258,-0.26,-0.02,-0.63,-0.016362461737446838,-0.001090830782496456,0.004363323129985824,-0.0004988019458011467,0.5518400312303688,0.6769984933707534,0,0,0,0,0,0,1500,1500,1500,1500,1500,1500
1748733338.0797777,-0.26,-0.02,-0.63,-0.016362461737446838,-0.001090830782496456,0.004363323129985824,-0.0004988019458011467,0.5518400312303688,0.6769984933707534,0,0,0,0,0,0,1500,1500,1500,1500,1500,1500
1748733338.1775908,-1.42,0.16,-0.45,-0.015271630954950384,-0.002181661564992912,0.018544123302439753,-0.0007401179360849702,0.5517105289904214,0.6773455378693753,0,0,0,0,0,0,1500,1500,1500,1500,1500,1500
1748733338.2786615,-1.42,0.16,-0.45,-0.015271630954950384,-0.002181661564992912,0.018544123302439753,-0.0007401179360849702,0.5517105289904214,0.6773455378693753,0,0,0,0,0,0,1500,1500,1500,1500,1500,1500
1748733338.3783236,0.03,0.23,-0.27,-0.008726646259971648,0.020725784867432664,0.016362461737446838,-0.0006902950036778888,0.5516867416657638,0.6774686374138456,0,0,0,0,0,0,1500,1500,1500,1500,1500,1500
1748733338.4603956,-0.89,0.59,-0.7000000000000001,-0.006544984694978736,-0.007635815477475192,0.013089969389957472,-0.0008383761928137677,0.5514985025110718,0.6776856328822967,0,0,0,0,0,0,1500,1500,1500,1500,1500,1500
1748733338.5609548,-0.89,0.59,-0.7000000000000001,-0.006544984694978736,-0.007635815477475192,0.013089969389957472,-0.0008383761928137677,0.5514985025110718,0.6776856328822967,0,0,0,0,0,0,1500,1500,1500,1500,1500,1500
1748733338.6599884,0.44,-0.79,0.41000000000000003,0.002181661564992912,-0.006544984694978736,0.001090830782496456,-0.0010345139979026099,0.5510150924544952,0.677577559038881,0,0,0,0,0,0,1500,1500,1500,1500,1500,1500
1748733338.7446373,0.44,-0.79,0.41000000000000003,0.002181661564992912,-0.006544984694978736,0.001090830782496456,-0.0010345139979026099,0.5510150924544952,0.677577559038881,0,0,0,0,0,0,1500,1500,1500,1500,1500,1500
1748733338.8432367,0.44,0.1,-0.54,-0.01090830782496456,0.022907446432425576,-0.00545415391248228,-0.0013036541973325143,0.5509897849698587,0.6776432010449311,0,0,0,0,0,0,1500,1500,1500,1500,1500,1500
1748733338.92885,0.02,0.07,-0.12,-0.003272492347489368,0.0,-0.017453292519943295,-0.0005007217842320929,0.551278999341958,0.6781476674410115,0,0,0,0,0,0,1500,1500,1500,1500,1500,1500
1748733339.028976,0.02,0.07,-0.12,-0.003272492347489368,0.0,-0.017453292519943295,-0.0005007217842320929,0.551278999341958,0.6781476674410115,0,0,0,0,0,0,1500,1500,1500,1500,1500,1500
1748733339.1271384,-0.91,-0.31,0.1,-0.02399827721492203,0.015271630954950384,0.013089969389957472,-0.0008179776087442834,0.5509585403010478,0.6778880314883323,0,0,0,0,0,0,1500,1500,1500,1500,1500,1500
1748733339.2107525,-0.91,-0.31,0.1,-0.02399827721492203,0.015271630954950384,0.013089969389957472,-0.0008179776087442834,0.5509585403010478,0.6778880314883323,0,0,0,0,0,0,1500,1500,1500,1500,1500,1500
1748733339.3100104,0.66,-1.04,0.42,-0.00545415391248228,-0.01090830782496456,-0.015271630954950384,-0.0008813437270157922,0.5510786689707707,0.6785891554259915,0,0,0,0,0,0,1500,1500,1500,1500,1500,1500
1748733339.406008,0.18,-0.12,0.01,-0.002181661564992912,-0.003272492347489368,-0.00545415391248228,-0.000573059559627319,0.5512820955344876,0.6789717334684982,0,0,0,0,0,0,1500,1500,1500,1500,1500,1500
1748733339.493576,0.18,-0.12,0.01,-0.002181661564992912,-0.003272492347489368,-0.00545415391248228,-0.000573059559627319,0.5512820955344876,0.6789717334684982,0,0,0,0,0,0,1500,1500,1500,1500,1500,1500
1748733339.5939794,0.08,-0.07,-0.02,-0.003272492347489368,-0.001090830782496456,-0.006544984694978736,-3.6605942819763565e-05,0.5521660985417828,0.6791819292260657,0,0,0,0,0,0,1500,1500,1500,1500,1500,1500
1748733339.6779037,0.08,-0.07,-0.02,-0.003272492347489368,-0.001090830782496456,-0.006544984694978736,-3.6605942819763565e-05,0.5521660985417828,0.6791819292260657,0,0,0,0,0,0,1500,1500,1500,1500,1500,1500
1748733339.7772748,-0.1,0.0,-0.2,-0.006544984694978736,-0.003272492347489368,0.004363323129985824,0.0002062524798089546,0.5527796561475178,0.6793271866100798,0,0,0,0,0,0,1500,1500,1500,1500,1500,1500
1748733339.8787465,-0.1,0.0,-0.2,-0.006544984694978736,-0.003272492347489368,0.004363323129985824,0.0002062524798089546,0.5527796561475178,0.6793271866100798,0,0,0,0,0,0,1500,1500,1500,1500,1500,1500
1748733339.9608715,0.04,0.34,0.14,0.0,0.0,-0.002181661564992912,0.0006384758805136633,0.5534405457046592,0.679502140013741,0,0,0,0,0,0,1500,1500,1500,1500,1500,1500
1748733340.061435,-0.02,-0.05,-0.01,-0.003272492347489368,-0.00545415391248228,-0.004363323129985824,0.0012252075957095668,0.5541055427920256,0.6799014063516726,0,0,0,0,0,0,1500,1500,1500,1500,1500,1500
1748733340.160333,-0.02,-0.05,-0.01,-0.003272492347489368,-0.00545415391248228,-0.004363323129985824,0.0012252075957095668,0.5541055427920256,0.6799014063516726,0,0,0,0,0,0,1500,1500,1500,1500,1500,1500
1748733340.260452,-0.1,-0.02,-0.13,0.0,0.001090830782496456,0.002181661564992912,2.6274836280148017,-0.8570168923883661,1.1716023385436976,0,0,0,0,0,0,1500,1500,1500,1500,1500,1500
1748733340.3604002,-0.1,-0.02,-0.13,0.0,0.001090830782496456,0.002181661564992912,2.6274836280148017,-0.8570168923883661,1.1716023385436976,0,0,0,0,0,0,1500,1500,1500,1500,1500,1500
1748733340.4435062,-0.05,0.07,-0.07,-0.001090830782496456,0.003272492347489368,0.001090830782496456,0.001612027885731939,0.5546363790392149,0.6800411762768365,0,0,0,0,0,0,1500,1500,1500,1500,1500,1500
1748733340.5442624,-0.19,0.05,-0.12,-0.004363323129985824,-0.001090830782496456,0.0,0.0018937035148184661,0.5549438911978982,0.6801439598079336,0,0,0,0,0,0,1500,1500,1500,1500,1500,1500
1748733340.6476786,-0.19,0.05,-0.12,-0.004363323129985824,-0.001090830782496456,0.0,0.0018937035148184661,0.5549438911978982,0.6801439598079336,0,0,0,0,0,0,1500,1500,1500,1500,1500,1500
1748733340.7438872,-0.18,-0.15,-0.16,0.003272492347489368,0.0,-0.001090830782496456,0.0020914845445899675,0.5554277128326112,0.6802546837829724,0,0,0,0,0,0,1500,1500,1500,1500,1500,1500
1748733340.8430367,-0.18,-0.15,-0.16,0.003272492347489368,0.0,-0.001090830782496456,0.0020914845445899675,0.5554277128326112,0.6802546837829724,0,0,0,0,0,0,1500,1500,1500,1500,1500,1500
1748733340.9281971,-0.16,-0.02,0.15,-0.002181661564992912,-0.004363323129985824,0.008726646259971648,0.0021591501672842436,0.5559576775429225,0.6803367113759792,0,0,0,0,0,0,1500,1500,1500,1500,1500,1500
1748733341.0271547,-0.04,-0.06,-0.14,-0.00545415391248228,0.002181661564992912,-0.001090830782496456,0.0024874012002839,0.5563955817162307,0.6804768563132424,0,0,0,0,0,0,1500,1500,1500,1500,1500,1500
1748733341.1286578,-0.04,-0.06,-0.14,-0.00545415391248228,0.002181661564992912,-0.001090830782496456,0.0024874012002839,0.5563955817162307,0.6804768563132424,0,0,0,0,0,0,1500,1500,1500,1500,1500,1500
1748733341.2097244,0.41000000000000003,-0.01,-0.01,-0.00545415391248228,0.003272492347489368,0.009817477042468103,0.002508971234996192,0.5567953756072792,0.6805224684024855,0,0,0,0,0,0,1500,1500,1500,1500,1500,1500
1748733341.3113537,0.41000000000000003,-0.01,-0.01,-0.00545415391248228,0.003272492347489368,0.009817477042468103,0.002508971234996192,0.5567953756072792,0.6805224684024855,0,0,0,0,0,0,1500,1500,1500,1500,1500,1500
1748733341.4095223,0.15,0.19,0.02,-0.002181661564992912,-0.008726646259971648,0.001090830782496456,0.0025395117443834095,0.5573125525281183,0.6804456831893856,0,0,0,0,0,0,1500,1500,1500,1500,1500,1500
1748733341.4942021,-0.03,0.22,0.37,0.001090830782496456,-0.004363323129985824,0.001090830782496456,0.003014093462878453,0.5573176443715897,0.6807290328248727,0,0,0,0,0,0,1500,1500,1500,1500,1500,1500
1748733341.5945537,-0.03,0.22,0.37,0.001090830782496456,-0.004363323129985824,0.001090830782496456,0.003014093462878453,0.5573176443715897,0.6807290328248727,0,0,0,0,0,0,1500,1500,1500,1500,1500,1500
1748733341.6770031,0.13,-0.21,0.0,-0.006544984694978736,0.003272492347489368,0.002181661564992912,0.003014093462878453,0.5573176443715897,0.6807290328248727,0,0,0,0,0,0,1500,1500,1500,1500,1500,1500
1748733341.777401,0.13,-0.21,0.0,-0.006544984694978736,0.003272492347489368,0.002181661564992912,0.003014093462878453,0.5573176443715897,0.6807290328248727,0,0,0,0,0,0,1500,1500,1500,1500,1500,1500
1748733341.8768427,0.41000000000000003,-0.02,0.29,-0.002181661564992912,-0.001090830782496456,0.0,0.0032500863689398397,0.5574949208318444,0.6807961209429041,0,0,0,0,0,0,1500,1500,1500,1500,1500,1500
1748733341.9606533,0.41000000000000003,-0.02,0.29,-0.002181661564992912,-0.001090830782496456,0.0,0.0032500863689398397,0.5574949208318444,0.6807961209429041,0,0,0,0,0,0,1500,1500,1500,1500,1500,1500
1748733342.0613506,0.26,-0.49,-0.13,0.008726646259971648,-0.002181661564992912,-0.01090830782496456,0.0034603018915099846,0.5574270965759949,0.6807306933864651,0,0,0,0,0,0,1500,1500,1500,1500,1500,1500
1748733342.160782,-0.32,-0.42,0.01,0.006544984694978736,-0.003272492347489368,-0.003272492347489368,0.0037711334718853796,0.5576303320871805,0.6811166416980913,0,0,0,0,0,0,1500,1500,1500,1500,1500,1500
1748733342.261698,-0.32,-0.42,0.01,0.006544984694978736,-0.003272492347489368,-0.003272492347489368,0.0037711334718853796,0.5576303320871805,0.6811166416980913,0,0,0,0,0,0,1500,1500,1500,1500,1500,1500
1748733342.3601074,-0.07,0.12,0.0,-0.002181661564992912,-0.002181661564992912,0.0,0.00383951196035444,0.5578407330452616,0.6809954866838858,0,0,0,0,0,0,1500,1500,1500,1500,1500,1500
1748733342.4450743,-0.07,0.12,0.0,-0.002181661564992912,-0.002181661564992912,0.0,0.00383951196035444,0.5578407330452616,0.6809954866838858,0,0,0,0,0,0,1500,1500,1500,1500,1500,1500
1748733342.5449126,0.04,-0.04,-0.07,-0.006544984694978736,-0.001090830782496456,0.003272492347489368,0.0040626628104331475,0.5580554302067612,0.6810987015268922,0,0,0,0,0,0,1500,1500,1500,1500,1500,1500
1748733342.6441824,0.08,-0.06,0.0,0.00545415391248228,-0.002181661564992912,-0.00545415391248228,0.004122072354123639,0.5581483931846705,0.6810999543181477,0,0,0,0,0,0,1500,1500,1500,1500,1500,1500
1748733342.7276444,0.08,-0.06,0.0,0.00545415391248228,-0.002181661564992912,-0.00545415391248228,0.004122072354123639,0.5581483931846705,0.6810999543181477,0,0,0,0,0,0,1500,1500,1500,1500,1500,1500
1748733342.827197,0.08,-0.15,0.0,0.004363323129985824,-0.004363323129985824,-0.003272492347489368,0.004205990261081023,0.5582917919569726,0.6812964925376409,0,0,0,0,0,0,1500,1500,1500,1500,1500,1500
1748733342.9279034,0.08,-0.15,0.0,0.004363323129985824,-0.004363323129985824,-0.003272492347489368,0.004205990261081023,0.5582917919569726,0.6812964925376409,0,0,0,0,0,0,1500,1500,1500,1500,1500,1500
1748733343.027286,-0.03,0.03,-0.12,0.00545415391248228,-0.001090830782496456,-0.002181661564992912,0.0043957444246220355,0.5583385958797096,0.6813268968397489,0,0,0,0,0,0,1500,1500,1500,1500,1500,1500
1748733343.1276083,0.04,0.03,-0.04,-0.001090830782496456,-0.001090830782496456,0.003272492347489368,0.00453520305142411,0.5587299207428336,0.6814384096987768,0,0,0,0,0,0,1500,1500,1500,1500,1500,1500
1748733343.210267,0.04,0.03,-0.04,-0.001090830782496456,-0.001090830782496456,0.003272492347489368,0.00453520305142411,0.5587299207428336,0.6814384096987768,0,0,0,0,0,0,1500,1500,1500,1500,1500,1500
1748733343.3122907,0.0,0.02,-0.02,-0.001090830782496456,0.00545415391248228,-0.001090830782496456,0.00453520305142411,0.5587299207428336,0.6814384096987768,0,0,0,0,0,0,1500,1500,1500,1500,1500,1500
1748733343.410986,0.03,0.21,-0.07,0.0,0.0,-0.004363323129985824,0.004725007648796953,0.5587766935467287,0.6814689108529988,0,0,0,0,0,0,1500,1500,1500,1500,1500,1500
1748733343.5104556,0.03,0.21,-0.07,0.0,0.0,-0.004363323129985824,0.004725007648796953,0.5587766935467287,0.6814689108529988,0,0,0,0,0,0,1500,1500,1500,1500,1500,1500
1748733343.6099644,-0.05,0.07,-0.01,0.0,0.002181661564992912,0.007635815477475192,0.004725250963643237,0.5590967588672543,0.6816737167872131,0,0,0,0,0,0,1500,1500,1500,1500,1500,1500
1748733343.6939244,-0.05,0.07,-0.01,0.0,0.002181661564992912,0.007635815477475192,0.004725250963643237,0.5590967588672543,0.6816737167872131,0,0,0,0,0,0,1500,1500,1500,1500,1500,1500
1748733343.7942533,-0.05,0.05,-0.07,0.002181661564992912,0.004363323129985824,0.001090830782496456,0.004784757954979341,0.559189676900999,0.6816751181458868,0,0,0,0,0,0,1500,1500,1500,1500,1500,1500
1748733343.890144,0.01,0.0,-0.02,-0.001090830782496456,-0.003272492347489368,-0.001090830782496456,0.004831299961406647,0.5593201597463325,0.681712392834797,0,0,0,0,0,0,1500,1500,1500,1500,1500,1500
1748733343.9769485,0.01,0.0,-0.02,-0.001090830782496456,-0.003272492347489368,-0.001090830782496456,0.004831299961406647,0.5593201597463325,0.681712392834797,0,0,0,0,0,0,1500,1500,1500,1500,1500,1500
1748733344.07708,0.0,0.0,-0.04,0.002181661564992912,0.003272492347489368,0.0,0.004831299961406647,0.5593201597463325,0.681712392834797,0,0,0,0,0,0,1500,1500,1500,1500,1500,1500
1748733344.1774604,0.0,0.0,-0.04,0.002181661564992912,0.003272492347489368,0.0,0.004831299961406647,0.5593201597463325,0.681712392834797,0,0,0,0,0,0,1500,1500,1500,1500,1500,1500
1748733344.2769446,-0.04,0.04,-0.08,0.002181661564992912,-0.002181661564992912,0.001090830782496456,0.004877849028177632,0.5594506532507197,0.6817496835624453,0,0,0,0,0,0,1500,1500,1500,1500,1500,1500
1748733344.3659866,-0.03,0.02,-0.05,0.001090830782496456,0.00545415391248228,-0.001090830782496456,0.005054780370913499,0.5595349676578757,0.6818161842314476,0,0,0,0,0,0,1500,1500,1500,1500,1500,1500
1748733344.461315,-0.03,0.02,-0.05,0.001090830782496456,0.00545415391248228,-0.001090830782496456,0.005054780370913499,0.5595349676578757,0.6818161842314476,0,0,0,0,0,0,1500,1500,1500,1500,1500,1500
1748733344.5620472,0.39,-0.29,0.15,0.0,0.006544984694978736,0.0,0.005077094803288661,0.5599350976364943,0.6818631384614087,0,0,0,0,0,0,1500,1500,1500,1500,1500,1500
1748733344.6602979,0.39,-0.29,0.15,0.0,0.006544984694978736,0.0,0.005077094803288661,0.5599350976364943,0.6818631384614087,0,0,0,0,0,0,1500,1500,1500,1500,1500,1500
1748733344.7614763,0.26,-0.14,-0.11,0.001090830782496456,0.0,-0.004363323129985824,0.005322593278802204,0.5602298806087612,0.6818090695516048,0,0,0,0,0,0,1500,1500,1500,1500,1500,1500
1748733344.86092,-0.02,0.01,-0.09,0.001090830782496456,0.003272492347489368,-0.001090830782496456,0.005369197847660477,0.560360430946304,0.6818464837940037,0,0,0,0,0,0,1500,1500,1500,1500,1500,1500
1748733344.9447303,-0.02,0.01,-0.09,0.001090830782496456,0.003272492347489368,-0.001090830782496456,0.005369197847660477,0.560360430946304,0.6818464837940037,0,0,0,0,0,0,1500,1500,1500,1500,1500,1500
1748733345.0438945,0.02,0.04,0.0,-0.003272492347489368,-0.001090830782496456,0.001090830782496456,0.005369197847660477,0.560360430946304,0.6818464837940037,0,0,0,0,0,0,1500,1500,1500,1500,1500,1500
1748733345.1449893,0.02,0.04,0.0,-0.003272492347489368,-0.001090830782496456,0.001090830782496456,0.005369197847660477,0.560360430946304,0.6818464837940037,0,0,0,0,0,0,1500,1500,1500,1500,1500,1500
1748733345.2446465,0.02,0.0,-0.05,0.006544984694978736,0.004363323129985824,-0.002181661564992912,0.005369197847660477,0.560360430946304,0.6818464837940037,0,0,0,0,0,0,1500,1500,1500,1500,1500,1500
1748733345.3477752,-0.19,-0.05,-0.38,0.0,-0.002181661564992912,0.001090830782496456,0.005522030626484589,0.5607144298344836,0.6819229447262998,0,0,0,0,0,0,1500,1500,1500,1500,1500,1500
1748733345.4450188,-0.19,-0.05,-0.38,0.0,-0.002181661564992912,0.001090830782496456,0.005522030626484589,0.5607144298344836,0.6819229447262998,0,0,0,0,0,0,1500,1500,1500,1500,1500,1500
1748733345.544253,-0.2,0.28,-0.07,0.003272492347489368,-0.002181661564992912,0.002181661564992912,0.005353879936427255,0.560747659205102,0.6817340308260766,0,0,0,0,0,0,1500,1500,1500,1500,1500,1500
1748733345.6421394,-0.03,0.15,-0.03,0.004363323129985824,0.0,-0.001090830782496456,0.005400493696673141,0.5608782431842263,0.6817714899474024,0,0,0,0,0,0,1500,1500,1500,1500,1500,1500
1748733345.7271523,-0.03,0.15,-0.03,0.004363323129985824,0.0,-0.001090830782496456,0.005400493696673141,0.5608782431842263,0.6817714899474024,0,0,0,0,0,0,1500,1500,1500,1500,1500,1500
1748733345.8284426,0.02,-0.04,-0.04,0.002181661564992912,0.001090830782496456,0.001090830782496456,0.005438221728006893,0.5608912300218578,0.6819311321141464,0,0,0,0,0,0,1500,1500,1500,1500,1500,1500
1748733345.9272652,0.02,-0.04,-0.04,0.002181661564992912,0.001090830782496456,0.001090830782496456,0.005438221728006893,0.5608912300218578,0.6819311321141464,0,0,0,0,0,0,1500,1500,1500,1500,1500,1500
1748733346.0263975,-0.64,0.52,-0.02,-0.013089969389957472,0.003272492347489368,0.018544123302439753,0.005419851910638889,0.560335723806633,0.6819702141850191,0,0,0,0,0,0,1500,1500,1500,1500,1500,1500
1748733346.1189814,0.38,0.3,-0.26,-0.01090830782496456,0.0,0.004363323129985824,0.005351310337907661,0.560125284458421,0.6820908512547845,0,0,0,0,0,0,1500,1500,1500,1500,1500,1500
1748733346.2104025,0.38,0.3,-0.26,-0.01090830782496456,0.0,0.004363323129985824,0.005351310337907661,0.560125284458421,0.6820908512547845,0,0,0,0,0,0,1500,1500,1500,1500,1500,1500
1748733346.3098896,0.11,-0.55,0.07,-0.004363323129985824,-0.011999138607461015,-0.004363323129985824,0.005304696728345259,0.5599947533726473,0.6820534486721918,0,0,0,0,0,0,1500,1500,1500,1500,1500,1500
1748733346.410335,0.11,-0.55,0.07,-0.004363323129985824,-0.011999138607461015,-0.004363323129985824,0.005304696728345259,0.5599947533726473,0.6820534486721918,0,0,0,0,0,0,1500,1500,1500,1500,1500,1500
1748733346.5111337,-0.68,-0.47000000000000003,-0.21,-0.002181661564992912,0.01090830782496456,-0.02181661564992912,0.005901471462943429,0.559835787743143,0.6824894913217074,0,0,0,0,0,0,1500,1500,1500,1500,1500,1500
1748733346.6104953,-0.68,-0.47000000000000003,-0.21,-0.002181661564992912,0.01090830782496456,-0.02181661564992912,0.005901471462943429,0.559835787743143,0.6824894913217074,0,0,0,0,0,0,1500,1500,1500,1500,1500,1500
1748733346.694404,0.72,-0.53,0.14,-0.003272492347489368,0.009817477042468103,-0.008726646259971648,0.005887947259980193,0.5595532623006629,0.6823201288516552,0,0,0,0,0,0,1500,1500,1500,1500,1500,1500
1748733346.795137,0.9,-0.54,0.91,0.017453292519943295,-0.02945243112740431,-0.022907446432425576,0.005971633121168658,0.5593765664420021,0.6823119105311647,0,0,0,0,0,0,1500,1500,1500,1500,1500,1500
1748733346.8957305,0.9,-0.54,0.91,0.017453292519943295,-0.02945243112740431,-0.022907446432425576,0.005971633121168658,0.5593765664420021,0.6823119105311647,0,0,0,0,0,0,1500,1500,1500,1500,1500,1500
1748733346.9939475,-0.5,-0.16,-0.29,0.001090830782496456,0.014180800172453928,-0.019634954084936207,0.006130486205069636,0.5592256959574485,0.6826227613401432,0,0,0,0,0,0,1500,1500,1500,1500,1500,1500
1748733347.0945258,-0.93,-0.07,-0.39,-0.006544984694978736,0.008726646259971648,0.030543261909900768,0.006186748934828259,0.5586963643173635,0.6829808853419265,0,0,0,0,0,0,1500,1500,1500,1500,1500,1500
1748733347.193674,-0.93,-0.07,-0.39,-0.006544984694978736,0.008726646259971648,0.030543261909900768,0.006186748934828259,0.5586963643173635,0.6829808853419265,0,0,0,0,0,0,1500,1500,1500,1500,1500,1500
1748733347.2976768,-0.44,-0.07,0.25,-0.006544984694978736,0.0,0.008726646259971648,0.00617323012173691,0.5584139523676312,0.6828115993787289,0,0,0,0,0,0,1500,1500,1500,1500,1500,1500
1748733347.3945668,-0.44,-0.07,0.25,-0.006544984694978736,0.0,0.008726646259971648,0.00617323012173691,0.5584139523676312,0.6828115993787289,0,0,0,0,0,0,1500,1500,1500,1500,1500,1500
1748733347.4778337,0.38,-0.34,0.19,0.009817477042468103,0.003272492347489368,-0.02181661564992912,0.006154894882915253,0.558178898935495,0.6830558704691154,0,0,0,0,0,0,1500,1500,1500,1500,1500,1500
1748733347.5697813,-0.89,0.43,-0.37,-0.003272492347489368,-0.003272492347489368,-0.009817477042468103,0.006089808975829426,0.5578135093291394,0.6832628280951966,0,0,0,0,0,0,1500,1500,1500,1500,1500,1500
1748733347.6613526,-0.89,0.43,-0.37,-0.003272492347489368,-0.003272492347489368,-0.009817477042468103,0.006089808975829426,0.5578135093291394,0.6832628280951966,0,0,0,0,0,0,1500,1500,1500,1500,1500,1500
1748733347.760669,-1.53,0.52,-0.35000000000000003,-0.002181661564992912,0.015271630954950384,0.004363323129985824,0.006062155643791684,0.5582380060303956,0.6831862782918826,0,0,0,0,0,0,1500,1500,1500,1500,1500,1500
1748733347.8610537,-1.53,0.52,-0.35000000000000003,-0.002181661564992912,0.015271630954950384,0.004363323129985824,0.006062155643791684,0.5582380060303956,0.6831862782918826,0,0,0,0,0,0,1500,1500,1500,1500,1500,1500
1748733347.9447854,0.4,-0.36,0.24,0.006544984694978736,-0.006544984694978736,0.014180800172453928,0.005862594285367473,0.5577539436945776,0.6830728580165933,0,0,0,0,0,0,1500,1500,1500,1500,1500,1500
1748733348.0404267,0.07,-0.07,-0.06,-0.002181661564992912,0.002181661564992912,-0.001090830782496456,0.006039472641052437,0.5578380984718788,0.6831392087625829,0,0,0,0,0,0,1500,1500,1500,1500,1500,1500
1748733348.1435776,0.07,-0.07,-0.06,-0.002181661564992912,0.002181661564992912,-0.001090830782496456,0.006039472641052437,0.5578380984718788,0.6831392087625829,0,0,0,0,0,0,1500,1500,1500,1500,1500,1500
1748733348.2459888,0.02,-0.23,0.08,-0.011999138607461015,0.001090830782496456,0.008726646259971648,0.006052346521641667,0.5578006353070061,0.6831033613408426,0,0,0,0,0,0,1500,1500,1500,1500,1500,1500
1748733348.3453636,0.02,-0.23,0.08,-0.011999138607461015,0.001090830782496456,0.008726646259971648,0.006052346521641667,0.5578006353070061,0.6831033613408426,0,0,0,0,0,0,1500,1500,1500,1500,1500,1500
1748733348.4276428,-0.19,-0.13,-0.33,-0.007635815477475192,-0.004363323129985824,-0.006544984694978736,0.006693787086214015,0.5584411950766716,0.6836330397087422,0,0,0,0,0,0,1500,1500,1500,1500,1500,1500
1748733348.527424,0.91,-0.27,0.01,0.003272492347489368,-0.01090830782496456,0.004363323129985824,0.006787312923755211,0.5587020141192397,0.6837079490630569,0,0,0,0,0,0,1500,1500,1500,1500,1500,1500
1748733348.6265101,0.91,-0.27,0.01,0.003272492347489368,-0.01090830782496456,0.004363323129985824,0.006787312923755211,0.5587020141192397,0.6837079490630569,0,0,0,0,0,0,1500,1500,1500,1500,1500,1500
1748733348.7099943,0.01,0.52,0.23,-0.011999138607461015,0.026179938779914945,0.009817477042468103,0.006824008219827169,0.5583949416063949,0.6836621361013716,0,0,0,0,0,0,1500,1500,1500,1500,1500,1500
1748733348.8105485,0.01,0.52,0.23,-0.011999138607461015,0.026179938779914945,0.009817477042468103,0.006824008219827169,0.5583949416063949,0.6836621361013716,0,0,0,0,0,0,1500,1500,1500,1500,1500,1500
1748733348.9104865,0.0,-0.46,-0.14,-0.007635815477475192,0.013089969389957472,0.002181661564992912,0.00679750428426942,0.5581500972049545,0.6835285607262988,0,0,0,0,0,0,1500,1500,1500,1500,1500,1500
1748733349.0110624,-0.33,-0.18,-0.51,-0.01090830782496456,0.004363323129985824,0.01090830782496456,0.00675076274967961,0.5580197097565258,0.6834911541618941,0,0,0,0,0,0,1500,1500,1500,1500,1500,1500
1748733349.1104395,-0.33,-0.18,-0.51,-0.01090830782496456,0.004363323129985824,0.01090830782496456,0.00675076274967961,0.5580197097565258,0.6834911541618941,0,0,0,0,0,0,1500,1500,1500,1500,1500,1500
1748733349.193518,0.26,-0.49,-0.02,0.003272492347489368,-0.011999138607461015,-0.013089969389957472,0.006666546827113126,0.557876493416329,0.6832942928826778,0,0,0,0,0,0,1500,1500,1500,1500,1500,1500
1748733349.2945557,0.26,-0.49,-0.02,0.003272492347489368,-0.011999138607461015,-0.013089969389957472,0.006666546827113126,0.557876493416329,0.6832942928826778,0,0,0,0,0,0,1500,1500,1500,1500,1500,1500
1748733349.3941412,-0.29,-0.34,-0.33,-0.00545415391248228,0.017453292519943295,-0.004363323129985824,0.006917551042814305,0.5586557531094443,0.683737061162527,0,0,0,0,0,0,1500,1500,1500,1500,1500,1500
1748733349.492981,-0.8300000000000001,0.73,-0.13,-0.003272492347489368,0.00545415391248228,0.008726646259971648,0.006805505032632973,0.5581598733976008,0.6839062970934134,0,0,0,0,0,0,1500,1500,1500,1500,1500,1500
1748733349.5941164,-0.8300000000000001,0.73,-0.13,-0.003272492347489368,0.00545415391248228,0.008726646259971648,0.006805505032632973,0.5581598733976008,0.6839062970934134,0,0,0,0,0,0,1500,1500,1500,1500,1500,1500
1748733349.6772676,0.08,0.28,0.16,-0.018544123302439753,0.0,0.020725784867432664,0.0064387290620935966,0.5580291426182906,0.6838092043939062,0,0,0,0,0,0,1500,1500,1500,1500,1500,1500
1748733349.7771287,0.08,0.28,0.16,-0.018544123302439753,0.0,0.020725784867432664,0.0064387290620935966,0.5580291426182906,0.6838092043939062,0,0,0,0,0,0,1500,1500,1500,1500,1500,1500
1748733349.8765082,-0.09,0.27,0.06,-0.007635815477475192,0.018544123302439753,0.018544123302439753,0.006609984392901666,0.5578407593910173,0.6840840160824068,0,0,0,0,0,0,1500,1500,1500,1500,1500,1500
1748733349.9613016,0.39,-0.09,0.17,-0.006544984694978736,0.011999138607461015,0.003272492347489368,0.006369134823803855,0.5574989245280455,0.6837246558461325,0,0,0,0,0,0,1500,1500,1500,1500,1500,1500
1748733350.062215,0.39,-0.09,0.17,-0.006544984694978736,0.011999138607461015,0.003272492347489368,0.006369134823803855,0.5574989245280455,0.6837246558461325,0,0,0,0,0,0,1500,1500,1500,1500,1500,1500
1748733350.1614165,0.03,-0.11,-0.13,0.00545415391248228,-0.002181661564992912,0.001090830782496456,0.00664308176911767,0.5576887603684479,0.6839520239380359,0,0,0,0,0,0,1500,1500,1500,1500,1500,1500
1748733350.2620258,0.03,-0.11,-0.13,0.00545415391248228,-0.002181661564992912,0.001090830782496456,0.00664308176911767,0.5576887603684479,0.6839520239380359,0,0,0,0,0,0,1500,1500,1500,1500,1500,1500
1748733350.361394,0.05,-0.09,-0.07,0.001090830782496456,0.004363323129985824,0.001090830782496456,0.006512905471034228,0.5577350197966208,0.6839229885961433,0,0,0,0,0,0,1500,1500,1500,1500,1500,1500
1748733350.4449005,-0.04,-0.23,0.07,0.002181661564992912,-0.004363323129985824,-0.006544984694978736,0.006391991495546906,0.5578987737955727,0.68377182425326,0,0,0,0,0,0,1500,1500,1500,1500,1500,1500
1748733350.544147,-0.04,-0.23,0.07,0.002181661564992912,-0.004363323129985824,-0.006544984694978736,0.006391991495546906,0.5578987737955727,0.68377182425326,0,0,0,0,0,0,1500,1500,1500,1500,1500,1500
1748733350.6439614,-0.1,0.0,-0.51,0.0,-0.013089969389957472,-0.01090830782496456,0.006168355173646218,0.5576843171451145,0.6836680777768913,0,0,0,0,0,0,1500,1500,1500,1500,1500,1500
1748733350.727193,-0.1,0.0,-0.51,0.0,-0.013089969389957472,-0.01090830782496456,0.006168355173646218,0.5576843171451145,0.6836680777768913,0,0,0,0,0,0,1500,1500,1500,1500,1500,1500
1748733350.8269656,0.05,-0.12,0.24,-0.001090830782496456,-0.002181661564992912,-0.002181661564992912,0.005786990986769679,0.5579405338745063,0.6834587828655939,0,0,0,0,0,0,1500,1500,1500,1500,1500,1500
1748733350.911552,-0.1,0.05,-0.12,0.0,-0.004363323129985824,0.002181661564992912,0.005870516971066902,0.5577639282263589,0.6834505189019763,0,0,0,0,0,0,1500,1500,1500,1500,1500,1500
1748733351.0114825,-0.1,0.05,-0.12,0.0,-0.004363323129985824,0.002181661564992912,0.005870516971066902,0.5577639282263589,0.6834505189019763,0,0,0,0,0,0,1500,1500,1500,1500,1500,1500
1748733351.1115458,-0.05,-0.16,0.0,-0.001090830782496456,-0.006544984694978736,-0.008726646259971648,0.005396312948235019,0.5580792852711454,0.68337162347587,0,0,0,0,0,0,1500,1500,1500,1500,1500,1500
1748733351.1949708,-0.05,-0.16,0.0,-0.001090830782496456,-0.006544984694978736,-0.008726646259971648,0.005396312948235019,0.5580792852711454,0.68337162347587,0,0,0,0,0,0,1500,1500,1500,1500,1500,1500
1748733351.2942836,-0.02,0.07,-0.09,0.002181661564992912,-0.006544984694978736,-0.003272492347489368,0.00543378148515879,0.5580922142320988,0.683531136069174,0,0,0,0,0,0,1500,1500,1500,1500,1500,1500
1748733351.3944566,-0.02,0.07,-0.09,0.002181661564992912,-0.006544984694978736,-0.003272492347489368,0.00543378148515879,0.5580922142320988,0.683531136069174,0,0,0,0,0,0,1500,1500,1500,1500,1500,1500
1748733351.4781175,-0.04,0.03,-0.1,0.0,0.001090830782496456,0.001090830782496456,0.0054933822100795655,0.5581851178583912,0.6835325750428195,0,0,0,0,0,0,1500,1500,1500,1500,1500,1500
1748733351.576887,0.0,-0.03,-0.04,0.0,-0.003272492347489368,0.0,0.005540061343597313,0.5583155012055387,0.6835698989441039,0,0,0,0,0,0,1500,1500,1500,1500,1500,1500
1748733351.6776693,0.0,-0.03,-0.04,0.0,-0.003272492347489368,0.0,0.005540061343597313,0.5583155012055387,0.6835698989441039,0,0,0,0,0,0,1500,1500,1500,1500,1500,1500
1748733351.777013,-0.02,0.01,-0.09,-0.001090830782496456,0.003272492347489368,0.0,0.005540061343597313,0.5583155012055387,0.6835698989441039,0,0,0,0,0,0,1500,1500,1500,1500,1500,1500
1748733351.8746877,0.0,0.01,-0.07,0.001090830782496456,-0.001090830782496456,0.0,0.0055867475513615315,0.5584458951717286,0.6836072388918026,0,0,0,0,0,0,1500,1500,1500,1500,1500,1500
1748733351.9614832,0.0,0.01,-0.07,0.001090830782496456,-0.001090830782496456,0.0,0.0055867475513615315,0.5584458951717286,0.6836072388918026,0,0,0,0,0,0,1500,1500,1500,1500,1500,1500
1748733352.0604897,0.01,0.01,-0.04,-0.001090830782496456,0.001090830782496456,0.001090830782496456,0.0055867475513615315,0.5584458951717286,0.6836072388918026,0,0,0,0,0,0,1500,1500,1500,1500,1500,1500
1748733352.1626155,0.01,0.01,-0.04,-0.001090830782496456,0.001090830782496456,0.001090830782496456,0.0055867475513615315,0.5584458951717286,0.6836072388918026,0,0,0,0,0,0,1500,1500,1500,1500,1500,1500
1748733352.261139,0.0,-0.02,0.0,0.003272492347489368,-0.001090830782496456,0.002181661564992912,0.0055867475513615315,0.5584458951717286,0.6836072388918026,0,0,0,0,0,0,1500,1500,1500,1500,1500,1500
1748733352.3567622,0.0,0.03,-0.07,0.0,0.001090830782496456,0.001090830782496456,0.0055867475513615315,0.5584458951717286,0.6836072388918026,0,0,0,0,0,0,1500,1500,1500,1500,1500,1500
1748733352.4440453,0.0,0.03,-0.07,0.0,0.001090830782496456,0.001090830782496456,0.0055867475513615315,0.5584458951717286,0.6836072388918026,0,0,0,0,0,0,1500,1500,1500,1500,1500,1500
1748733352.5446017,-0.02,0.04,-0.06,0.001090830782496456,0.00545415391248228,0.001090830782496456,0.0055867475513615315,0.5584458951717286,0.6836072388918026,0,0,0,0,0,0,1500,1500,1500,1500,1500,1500
1748733352.6444175,-0.02,0.04,-0.06,0.001090830782496456,0.00545415391248228,0.001090830782496456,0.0055867475513615315,0.5584458951717286,0.6836072388918026,0,0,0,0,0,0,1500,1500,1500,1500,1500,1500
1748733352.7273312,-0.01,0.0,-0.05,-0.001090830782496456,-0.002181661564992912,-0.001090830782496456,0.0055867475513615315,0.5584458951717286,0.6836072388918026,0,0,0,0,0,0,1500,1500,1500,1500,1500,1500
1748733352.827367,-0.01,0.0,-0.05,-0.001090830782496456,-0.002181661564992912,-0.001090830782496456,0.0055867475513615315,0.5584458951717286,0.6836072388918026,0,0,0,0,0,0,1500,1500,1500,1500,1500,1500
1748733352.9273264,-0.01,-0.01,-0.02,-0.002181661564992912,0.001090830782496456,0.002181661564992912,0.0055867475513615315,0.5584458951717286,0.6836072388918026,0,0,0,0,0,0,1500,1500,1500,1500,1500,1500
1748733353.029377,0.0,0.01,-0.05,0.003272492347489368,0.003272492347489368,-0.001090830782496456,0.0055867475513615315,0.5584458951717286,0.6836072388918026,0,0,0,0,0,0,1500,1500,1500,1500,1500,1500
1748733353.1272285,0.0,0.01,-0.05,0.003272492347489368,0.003272492347489368,-0.001090830782496456,0.0055867475513615315,0.5584458951717286,0.6836072388918026,0,0,0,0,0,0,1500,1500,1500,1500,1500,1500
1748733353.210506,0.0,0.01,-0.03,0.001090830782496456,0.002181661564992912,0.0,0.0055867475513615315,0.5584458951717286,0.6836072388918026,0,0,0,0,0,0,1500,1500,1500,1500,1500,1500
1748733353.310393,0.0,0.01,-0.03,0.001090830782496456,0.002181661564992912,0.0,0.0055867475513615315,0.5584458951717286,0.6836072388918026,0,0,0,0,0,0,1500,1500,1500,1500,1500,1500
1748733353.413786,0.0,0.0,-0.02,0.002181661564992912,-0.003272492347489368,-0.001090830782496456,0.0055867475513615315,0.5584458951717286,0.6836072388918026,0,0,0,0,0,0,1500,1500,1500,1500,1500,1500
1748733353.510386,0.0,-0.01,-0.03,0.001090830782496456,0.0,0.0,0.0055867475513615315,0.5584458951717286,0.6836072388918026,0,0,0,0,0,0,1500,1500,1500,1500,1500,1500
1748733353.6113026,0.0,-0.01,-0.03,0.001090830782496456,0.0,0.0,0.0055867475513615315,0.5584458951717286,0.6836072388918026,0,0,0,0,0,0,1500,1500,1500,1500,1500,1500
1748733353.6942325,-0.03,0.0,-0.06,0.001090830782496456,0.0,0.001090830782496456,0.0055867475513615315,0.5584458951717286,0.6836072388918026,0,0,0,0,0,0,1500,1500,1500,1500,1500,1500
1748733353.7942538,-0.01,0.03,-0.06,-0.002181661564992912,0.001090830782496456,0.001090830782496456,0.0055867475513615315,0.5584458951717286,0.6836072388918026,0,0,0,0,0,0,1500,1500,1500,1500,1500,1500
1748733353.894873,-0.01,0.03,-0.06,-0.002181661564992912,0.001090830782496456,0.001090830782496456,0.0055867475513615315,0.5584458951717286,0.6836072388918026,0,0,0,0,0,0,1500,1500,1500,1500,1500,1500
