time,ay,ax,az,gy,gx,gz,roll,pitch,yaw,cmd_fx,cmd_fy,cmd_fz,cmd_tx,cmd_ty,cmd_tz,pwm_1,pwm_2,pwm_3,pwm_4,pwm_5,pwm_6
1747543837.727442,0.0,0.0,0.0,0.0,0.0,0.0,0.0,0.0,0.0,0,0,0,0,0,0,1500,1500,1500,1500,1500,1500
1747543837.8336542,-0.17,-0.41000000000000003,-0.08,-0.001090830782496456,-0.006544984694978736,0.002181661564992912,1.4440780475316792,-0.33053519068001314,-0.3130492487501351,0,0,0,0,0,0,1500,1500,1500,1500,1500,1500
1747543837.9180133,-0.17,-0.41000000000000003,-0.08,-0.001090830782496456,-0.006544984694978736,0.002181661564992912,1.4440780475316792,-0.33053519068001314,-0.3130492487501351,0,0,0,0,0,0,1500,1500,1500,1500,1500,1500
1747543838.017055,-0.18,-0.47000000000000003,-0.08,0.011999138607461015,-0.022907446432425576,0.004363323129985824,1.444864306916801,-0.3307259220114433,-0.3149438583779232,0,0,0,0,0,0,1500,1500,1500,1500,1500,1500
1747543838.1079185,-0.07,-0.55,-0.04,-0.007635815477475192,-0.05235987755982989,-0.026179938779914945,1.447135599768874,-0.3301225768948251,-0.3214594417089113,0,0,0,0,0,0,1500,1500,1500,1500,1500,1500
1747543838.2007856,-0.07,-0.55,-0.04,-0.007635815477475192,-0.05235987755982989,-0.026179938779914945,1.447135599768874,-0.3301225768948251,-0.3214594417089113,0,0,0,0,0,0,1500,1500,1500,1500,1500,1500
1747543838.3002973,0.18,-0.05,-0.06,-0.02181661564992912,-0.03490658503988659,-0.02945243112740431,1.4480787684395735,-0.326281401875062,-0.32894650435465006,0,0,0,0,0,0,1500,1500,1500,1500,1500,1500
1747543838.3835835,0.18,-0.05,-0.06,-0.02181661564992912,-0.03490658503988659,-0.02945243112740431,1.4480787684395735,-0.326281401875062,-0.32894650435465006,0,0,0,0,0,0,1500,1500,1500,1500,1500,1500
1747543838.4842296,0.09,0.03,-0.1,-0.018544123302439753,0.00545415391248228,0.013089969389957472,1.4463603789287691,-0.3262819210021625,-0.3313517160511191,0,0,0,0,0,0,1500,1500,1500,1500,1500,1500
1747543838.5760627,-0.02,0.02,0.07,0.002181661564992912,-0.006544984694978736,0.04036073895236887,1.4457974876305093,-0.3313801341141065,-0.33081908456194614,0,0,0,0,0,0,1500,1500,1500,1500,1500,1500
1747543838.6665719,-0.02,0.02,0.07,0.002181661564992912,-0.006544984694978736,0.04036073895236887,1.4457974876305093,-0.3313801341141065,-0.33081908456194614,0,0,0,0,0,0,1500,1500,1500,1500,1500,1500
1747543838.7670898,-0.01,-0.06,0.16,-0.006544984694978736,-0.032724923474893676,0.00545415391248228,1.4452922902475331,-0.3349573120732235,-0.3330207767930728,0,0,0,0,0,0,1500,1500,1500,1500,1500,1500
1747543838.8673193,-0.01,-0.06,0.16,-0.006544984694978736,-0.032724923474893676,0.00545415391248228,1.4452922902475331,-0.3349573120732235,-0.3330207767930728,0,0,0,0,0,0,1500,1500,1500,1500,1500,1500
1747543838.968247,0.04,-0.14,0.01,-0.020725784867432664,-0.05781403147231216,-0.011999138607461015,1.445077765425655,-0.33483995743877154,-0.3413682177895269,0,0,0,0,0,0,1500,1500,1500,1500,1500,1500
1747543839.0666687,0.09,-0.08,-0.28,-0.011999138607461015,-0.04036073895236887,0.004363323129985824,1.4460972921235142,-0.33623951663205665,-0.34942537956284697,0,0,0,0,0,0,1500,1500,1500,1500,1500,1500
1747543839.1504576,0.09,-0.08,-0.28,-0.011999138607461015,-0.04036073895236887,0.004363323129985824,1.4460972921235142,-0.33623951663205665,-0.34942537956284697,0,0,0,0,0,0,1500,1500,1500,1500,1500,1500
1747543839.2503514,0.02,0.02,-0.18,-0.003272492347489368,-0.006544984694978736,0.006544984694978736,1.4506260907413995,-0.3382193853602318,-0.3544590410822358,0,0,0,0,0,0,1500,1500,1500,1500,1500,1500
1747543839.3505175,0.02,0.02,-0.18,-0.003272492347489368,-0.006544984694978736,0.006544984694978736,1.4506260907413995,-0.3382193853602318,-0.3544590410822358,0,0,0,0,0,0,1500,1500,1500,1500,1500,1500
1747543839.4370334,0.01,0.06,0.06,0.004363323129985824,0.001090830782496456,-0.00545415391248228,1.4512309006728492,-0.3383920809817121,-0.354640418391448,0,0,0,0,0,0,1500,1500,1500,1500,1500,1500
1747543839.5348592,0.05,-0.03,0.24,-0.00545415391248228,-0.009817477042468103,-0.007635815477475192,1.4496464140962964,-0.33804816917250247,-0.3541303123084184,0,0,0,0,0,0,1500,1500,1500,1500,1500,1500
1747543839.6178503,0.05,-0.03,0.24,-0.00545415391248228,-0.009817477042468103,-0.007635815477475192,1.4496464140962964,-0.33804816917250247,-0.3541303123084184,0,0,0,0,0,0,1500,1500,1500,1500,1500,1500
1747543839.717338,0.05,-0.09,-0.06,-0.019634954084936207,-0.04581489286485115,0.01090830782496456,1.4482979215367644,-0.33927513718582814,-0.3588787380447883,0,0,0,0,0,0,1500,1500,1500,1500,1500,1500
1747543839.8202422,0.05,-0.09,-0.06,-0.019634954084936207,-0.04581489286485115,0.01090830782496456,1.4482979215367644,-0.33927513718582814,-0.3588787380447883,0,0,0,0,0,0,1500,1500,1500,1500,1500,1500
1747543839.9169426,0.02,-0.09,-0.13,-0.01090830782496456,-0.038179077387375956,0.007635815477475192,1.448061256449141,-0.34216650538463067,-0.36581385758437135,0,0,0,0,0,0,1500,1500,1500,1500,1500,1500
1747543840.0190864,0.0,-0.05,0.0,0.015271630954950384,-0.022907446432425576,-0.007635815477475192,1.4504853916327072,-0.34302553815583,-0.3708315563791586,0,0,0,0,0,0,1500,1500,1500,1500,1500,1500
1747543840.1168227,0.0,-0.05,0.0,0.015271630954950384,-0.022907446432425576,-0.007635815477475192,1.4504853916327072,-0.34302553815583,-0.3708315563791586,0,0,0,0,0,0,1500,1500,1500,1500,1500,1500
1747543840.2171686,-0.01,0.01,0.06,-0.00545415391248228,-0.022907446432425576,-0.01090830782496456,1.4526714549047026,-0.34189761779482863,-0.37461812971929886,0,0,0,0,0,0,1500,1500,1500,1500,1500,1500
1747543840.3170094,0.0,0.0,0.01,-0.020725784867432664,-0.028361600344907856,-0.008726646259971648,1.4514902339225615,-0.34153912520954366,-0.3788222956378456,0,0,0,0,0,0,1500,1500,1500,1500,1500,1500
1747543840.4003808,0.0,0.0,0.01,-0.020725784867432664,-0.028361600344907856,-0.008726646259971648,1.4514902339225615,-0.34153912520954366,-0.3788222956378456,0,0,0,0,0,0,1500,1500,1500,1500,1500,1500
1747543840.5010982,0.02,-0.1,-0.04,0.003272492347489368,-0.016362461737446838,-0.019634954084936207,1.451613268827939,-0.34034124148122613,-0.38236696521057034,0,0,0,0,0,0,1500,1500,1500,1500,1500,1500
1747543840.601238,0.02,-0.1,-0.04,0.003272492347489368,-0.016362461737446838,-0.019634954084936207,1.451613268827939,-0.34034124148122613,-0.38236696521057034,0,0,0,0,0,0,1500,1500,1500,1500,1500,1500
1747543840.7004626,0.08,-0.1,-0.07,0.002181661564992912,-0.018544123302439753,-0.0272707695624114,1.453092166217361,-0.3371450298863423,-0.3851021159252267,0,0,0,0,0,0,1500,1500,1500,1500,1500,1500
1747543840.8010392,0.12,0.01,-0.04,-0.02399827721492203,-0.03599741582238305,-0.011999138607461015,1.453446495189786,-0.3342007837856847,-0.3906076412847747,0,0,0,0,0,0,1500,1500,1500,1500,1500,1500
1747543840.8846304,0.12,0.01,-0.04,-0.02399827721492203,-0.03599741582238305,-0.011999138607461015,1.453446495189786,-0.3342007837856847,-0.3906076412847747,0,0,0,0,0,0,1500,1500,1500,1500,1500,1500
1747543840.9839783,0.06,0.07,0.08,-0.02181661564992912,-0.028361600344907856,0.003272492347489368,1.4514343838503698,-0.33455634126123573,-0.3964659835026841,0,0,0,0,0,0,1500,1500,1500,1500,1500,1500
1747543841.0792916,0.01,0.01,0.0,-0.004363323129985824,-0.02181661564992912,0.013089969389957472,1.45129905431841,-0.3361237747727146,-0.3998084146838944,0,0,0,0,0,0,1500,1500,1500,1500,1500,1500
1747543841.167426,0.01,0.01,0.0,-0.004363323129985824,-0.02181661564992912,0.013089969389957472,1.45129905431841,-0.3361237747727146,-0.3998084146838944,0,0,0,0,0,0,1500,1500,1500,1500,1500,1500
1747543841.2674081,0.0,-0.09,-0.01,-0.02399827721492203,-0.038179077387375956,-0.008726646259971648,1.4516562587169344,-0.3372530361987738,-0.40405246860796823,0,0,0,0,0,0,1500,1500,1500,1500,1500,1500
1747543841.3667567,0.0,-0.09,-0.01,-0.02399827721492203,-0.038179077387375956,-0.008726646259971648,1.4516562587169344,-0.3372530361987738,-0.40405246860796823,0,0,0,0,0,0,1500,1500,1500,1500,1500,1500
1747543841.4673731,0.0,-0.09,-0.04,-0.037088246604879506,-0.061086523819801536,-0.030543261909900768,1.4498672913194508,-0.33503570631424906,-0.41208712714993867,0,0,0,0,0,0,1500,1500,1500,1500,1500,1500
1747543841.567662,0.03,-0.08,0.05,-0.017453292519943295,-0.06872233929727672,-0.011999138607461015,1.449364478463814,-0.33245679005791673,-0.4232127863713665,0,0,0,0,0,0,1500,1500,1500,1500,1500,1500
1747543841.650318,0.03,-0.08,0.05,-0.017453292519943295,-0.06872233929727672,-0.011999138607461015,1.449364478463814,-0.33245679005791673,-0.4232127863713665,0,0,0,0,0,0,1500,1500,1500,1500,1500,1500
1747543841.750474,0.04,-0.05,0.0,-0.00545415391248228,-0.05345070834232634,0.02945243112740431,1.4514069729045653,-0.3349044088059076,-0.4321938062054339,0,0,0,0,0,0,1500,1500,1500,1500,1500,1500
1747543841.8492725,0.02,-0.03,0.03,-0.009817477042468103,-0.05672320068981571,0.0545415391248228,1.4538696868632899,-0.34313215546996956,-0.4399699656696553,0,0,0,0,0,0,1500,1500,1500,1500,1500,1500
1747543841.9340043,0.02,-0.03,0.03,-0.009817477042468103,-0.05672320068981571,0.0545415391248228,1.4538696868632899,-0.34313215546996956,-0.4399699656696553,0,0,0,0,0,0,1500,1500,1500,1500,1500,1500
1747543842.0336034,0.04,-0.01,-0.02,-0.013089969389957472,-0.06763150851478027,0.028361600344907856,1.455875643866314,-0.35108037534704106,-0.44962498791913214,0,0,0,0,0,0,1500,1500,1500,1500,1500,1500
1747543842.1333807,0.04,-0.01,-0.02,-0.013089969389957472,-0.06763150851478027,0.028361600344907856,1.455875643866314,-0.35108037534704106,-0.44962498791913214,0,0,0,0,0,0,1500,1500,1500,1500,1500,1500
1747543842.2344258,0.07,-0.01,0.0,-0.006544984694978736,-0.039269908169872414,-0.019634954084936207,1.4583660815658765,-0.3521902754508117,-0.4587812879782741,0,0,0,0,0,0,1500,1500,1500,1500,1500,1500
1747543842.3297808,0.13,-0.08,0.03,0.0272707695624114,-0.006544984694978736,-0.006544984694978736,1.4611563820599967,-0.3497938723178176,-0.4616226891069563,0,0,0,0,0,0,1500,1500,1500,1500,1500,1500
1747543842.4161165,0.13,-0.08,0.03,0.0272707695624114,-0.006544984694978736,-0.006544984694978736,1.4611563820599967,-0.3497938723178176,-0.4616226891069563,0,0,0,0,0,0,1500,1500,1500,1500,1500,1500
1747543842.5167713,0.14,-0.09,0.04,0.013089969389957472,-0.014180800172453928,0.037088246604879506,1.4650706523630808,-0.3524678509395544,-0.4618755118226043,0,0,0,0,0,0,1500,1500,1500,1500,1500,1500
1747543842.6171181,0.14,-0.09,0.04,0.013089969389957472,-0.014180800172453928,0.037088246604879506,1.4650706523630808,-0.3524678509395544,-0.4618755118226043,0,0,0,0,0,0,1500,1500,1500,1500,1500,1500
1747543842.7172375,0.02,-0.03,0.0,-0.030543261909900768,-0.03599741582238305,0.020725784867432664,1.4645904076292586,-0.35794178697875095,-0.46598916437672866,0,0,0,0,0,0,1500,1500,1500,1500,1500,1500
1747543842.8171551,-0.03,0.06,0.0,-0.025089107997418487,-0.038179077387375956,-0.014180800172453928,1.4613906584996716,-0.35868233399920135,-0.472406597303271,0,0,0,0,0,0,1500,1500,1500,1500,1500,1500
1747543842.9006064,-0.03,0.06,0.0,-0.025089107997418487,-0.038179077387375956,-0.014180800172453928,1.4613906584996716,-0.35868233399920135,-0.472406597303271,0,0,0,0,0,0,1500,1500,1500,1500,1500,1500
1747543842.999938,0.04,0.0,0.06,0.020725784867432664,-0.02181661564992912,-0.031634092692397225,1.4635351516596729,-0.3557030536135672,-0.47760310954935015,0,0,0,0,0,0,1500,1500,1500,1500,1500,1500
1747543843.09813,0.14,-0.15,0.0,0.00545415391248228,-0.03381575425739013,-0.006544984694978736,1.467830787240929,-0.35285714895541503,-0.4817874417143262,0,0,0,0,0,0,1500,1500,1500,1500,1500,1500
1747543843.1839597,0.14,-0.15,0.0,0.00545415391248228,-0.03381575425739013,-0.006544984694978736,1.467830787240929,-0.35285714895541503,-0.4817874417143262,0,0,0,0,0,0,1500,1500,1500,1500,1500,1500
1747543843.2839508,0.16,-0.17,-0.07,-0.020725784867432664,-0.02399827721492203,0.014180800172453928,1.4682859159067247,-0.3560385566332252,-0.4870079785615018,0,0,0,0,0,0,1500,1500,1500,1500,1500,1500
1747543843.3838747,0.16,-0.17,-0.07,-0.020725784867432664,-0.02399827721492203,0.014180800172453928,1.4682859159067247,-0.3560385566332252,-0.4870079785615018,0,0,0,0,0,0,1500,1500,1500,1500,1500,1500
1747543843.4828653,0.08,-0.01,-0.11,-0.01090830782496456,0.003272492347489368,0.001090830782496456,1.466638678562127,-0.3588920877138476,-0.48879809000546354,0,0,0,0,0,0,1500,1500,1500,1500,1500,1500
1747543843.5707402,-0.01,0.1,0.11,0.018544123302439753,0.008726646259971648,-0.009817477042468103,1.4673976485961968,-0.358400791823782,-0.48783732419801595,0,0,0,0,0,0,1500,1500,1500,1500,1500,1500
1747543843.6670032,-0.01,0.1,0.11,0.018544123302439753,0.008726646259971648,-0.009817477042468103,1.4673976485961968,-0.358400791823782,-0.48783732419801595,0,0,0,0,0,0,1500,1500,1500,1500,1500,1500
1747543843.767005,0.0,0.0,0.15,-0.002181661564992912,-0.025089107997418487,-0.009817477042468103,1.468125920401461,-0.3566309020760719,-0.4889731258732813,0,0,0,0,0,0,1500,1500,1500,1500,1500,1500
1747543843.8671486,0.0,0.0,0.15,-0.002181661564992912,-0.025089107997418487,-0.009817477042468103,1.468125920401461,-0.3566309020760719,-0.4889731258732813,0,0,0,0,0,0,1500,1500,1500,1500,1500,1500
1747543843.9669015,0.06,-0.13,0.0,-0.018544123302439753,-0.0272707695624114,0.002181661564992912,1.4675733289655581,-0.3574993563082231,-0.4938637821624794,0,0,0,0,0,0,1500,1500,1500,1500,1500,1500
1747543844.0678737,0.08,-0.15,-0.13,0.003272492347489368,-0.003272492347489368,0.002181661564992912,1.4687183067173513,-0.3589380192956575,-0.4965955685042573,0,0,0,0,0,0,1500,1500,1500,1500,1500,1500
1747543844.1499045,0.08,-0.15,-0.13,0.003272492347489368,-0.003272492347489368,0.002181661564992912,1.4687183067173513,-0.3589380192956575,-0.4965955685042573,0,0,0,0,0,0,1500,1500,1500,1500,1500,1500
1747543844.2507844,0.02,-0.04,-0.06,0.006544984694978736,0.013089969389957472,-0.02181661564992912,1.4693006744715733,-0.35872675011981087,-0.49532847351597964,0,0,0,0,0,0,1500,1500,1500,1500,1500,1500
1747543844.3505702,0.01,0.06,0.1,-0.001090830782496456,0.025089107997418487,-0.026179938779914945,1.4682080231307955,-0.35438216964279134,-0.491907806187884,0,0,0,0,0,0,1500,1500,1500,1500,1500,1500
1747543844.433617,0.01,0.06,0.1,-0.001090830782496456,0.025089107997418487,-0.026179938779914945,1.4682080231307955,-0.35438216964279134,-0.491907806187884,0,-4.937296,0,0,0,0,1460,1460,1460,1500,1500,1500
1747543844.53415,0.07,0.02,0.1,-0.007635815477475192,0.01090830782496456,-0.00545415391248228,1.466677968380749,-0.3518888221405949,-0.4892203958242735,0,-12.29445,0,0,0,-0.000215,1420,1420,1420,1500,1500,1500
1747543844.6341858,0.07,0.02,0.1,-0.007635815477475192,0.01090830782496456,-0.00545415391248228,1.466677968380749,-0.3518888221405949,-0.4892203958242735,0,-12.5,0,0,0,-0.001789,1380,1380,1384,1500,1500,1500
1747543844.7340937,0.5700000000000001,-0.25,0.35000000000000003,-0.017453292519943295,-0.00545415391248228,0.002181661564992912,1.4643573458335564,-0.35223816466701224,-0.48882922413061536,0,-12.5,0,0,0,-0.002421,1354,1359,1384,1500,1500,1500
1747543844.8285482,-0.67,-0.13,0.0,-0.04145156973486533,-0.01090830782496456,-0.014180800172453928,1.4594880278620843,-0.35047525636900473,-0.48913839059530917,0,-12.5,0,0,0,-0.002421,1354,1359,1384,1500,1500,1500
1747543844.9178894,-0.67,-0.13,0.0,-0.04145156973486533,-0.01090830782496456,-0.014180800172453928,1.4594880278620843,-0.35047525636900473,-0.48913839059530917,0,-12.5,0,0,0,-0.002421,1354,1359,1384,1500,1500,1500
1747543845.0180395,-0.31,-0.17,-0.02,-0.11453723216212788,0.0545415391248228,0.017453292519943295,1.4430046524629592,-0.3458888622416952,-0.4846492373579352,0,-12.5,0,0,0,-0.002421,1354,1359,1384,1500,1500,1500
1747543845.1160982,-0.31,-0.17,-0.02,-0.11453723216212788,0.0545415391248228,0.017453292519943295,1.4430046524629592,-0.3458888622416952,-0.4846492373579352,0,-12.5,0,0,0,-0.002421,1354,1359,1384,1500,1500,1500
1747543845.1997955,-0.18,-0.16,-0.12,-0.14289883250703572,0.04690572364734761,0.05781403147231216,1.4214102739661387,-0.34715022275728125,-0.4757454954498272,0,-12.5,0,0,0,-0.002421,1354,1359,1384,1500,1500,1500
1747543845.2911446,-0.1,0.01,0.13,-0.19525871006686563,0.039269908169872414,0.006544984694978736,1.3939049420821477,-0.34965212797379386,-0.4686092442174712,0,-12.5,0,0,0,-0.002421,1354,1359,1384,1500,1500,1500
1747543845.383834,-0.1,0.01,0.13,-0.19525871006686563,0.039269908169872414,0.006544984694978736,1.3939049420821477,-0.34965212797379386,-0.4686092442174712,0,-12.5,0,0,0,-0.002421,1354,1359,1384,1500,1500,1500
1747543845.4833374,0.12,0.03,0.02,-0.19198621771937624,0.04690572364734761,0.007635815477475192,1.3613788687950361,-0.348383107393474,-0.4628605128940436,0,-12.5,0,0,0,-0.002421,1354,1359,1384,1500,1500,1500
1747543845.5834515,0.12,0.03,0.02,-0.19198621771937624,0.04690572364734761,0.007635815477475192,1.3613788687950361,-0.348383107393474,-0.4628605128940436,0,-12.5,0,0,0,-0.002421,1354,1359,1384,1500,1500,1500
1747543845.6668155,0.11,-0.12,0.14,-0.16471544815696484,0.08944812416470939,0.018544123302439753,1.3309050431801384,-0.34705001945234515,-0.45146155071966726,0,-12.5,0,0,0,-0.002421,1354,1359,1384,1500,1500,1500
1747543845.7668874,-0.05,-0.31,-0.07,-0.18980455615438332,0.09381144729469522,0.037088246604879506,1.299045664389096,-0.34777495312677464,-0.4366944518985442,0,-12.5,0,0,0,-0.002421,1354,1359,1384,1500,1500,1500
1747543845.8669126,-0.05,-0.31,-0.07,-0.18980455615438332,0.09381144729469522,0.037088246604879506,1.299045664389096,-0.34777495312677464,-0.4366944518985442,0,-12.5,0,0,0,-0.002421,1354,1359,1384,1500,1500,1500
1747543845.9672215,-0.03,-0.01,-0.06,-0.18762289458939044,0.07526732399225546,0.05781403147231216,1.2667119447928759,-0.3509114296419974,-0.4236316149533264,0,-12.5,0,0,0,-0.002421,1354,1359,1384,1500,1500,1500
1747543846.0670109,-0.03,-0.01,-0.06,-0.18762289458939044,0.07526732399225546,0.05781403147231216,1.2667119447928759,-0.3509114296419974,-0.4236316149533264,0,-12.5,0,0,0,-0.002421,1354,1359,1384,1500,1500,1500
1747543846.1508183,0.11,-0.03,0.02,-0.15926129424448257,0.08290313946973066,0.08617563181722002,1.2337385101353837,-0.35677984175394367,-0.40640427373644733,0,-12.5,0,0,0,-0.002421,1354,1359,1384,1500,1500,1500
1747543846.250122,-0.08,-0.11,-0.2,-0.16907877128695067,0.0545415391248228,0.10471975511965978,1.2022120443919369,-0.36732477892995763,-0.3897096440812339,0,-12.5,0,0,0,-0.002421,1354,1359,1384,1500,1500,1500
1747543846.3499212,-0.08,-0.11,-0.2,-0.16907877128695067,0.0545415391248228,0.10471975511965978,1.2022120443919369,-0.36732477892995763,-0.3897096440812339,0,-12.5,0,0,0,-0.002421,1354,1359,1384,1500,1500,1500
1747543846.4504151,-0.07,-0.33,-0.06,-0.17998707911191522,0.030543261909900768,0.1265363707695889,1.1693914939046983,-0.38192255470199277,-0.3767667876163528,0,-12.5,0,0,0,-0.002421,1354,1359,1384,1500,1500,1500
1747543846.5518568,-0.02,-0.23,-0.02,-0.1538071403320003,0.028361600344907856,0.1407171709420428,1.1395138467513648,-0.3980735392533992,-0.36382951292553706,0,-12.5,0,0,0,-0.002421,1354,1359,1384,1500,1500,1500
1747543846.6347983,-0.02,-0.23,-0.02,-0.1538071403320003,0.028361600344907856,0.1407171709420428,1.1395138467513648,-0.3980735392533992,-0.36382951292553706,0,-12.5,0,0,0,-0.002421,1354,1359,1384,1500,1500,1500
1747543846.7336447,0.14,-0.15,-0.03,-0.13853550937704992,0.011999138607461015,0.16144295580947549,1.1128156318619664,-0.4167200409766647,-0.35025408374601696,0,-12.5,0,0,0,-0.002421,1354,1359,1384,1500,1500,1500
1747543846.8338585,0.14,-0.15,-0.03,-0.13853550937704992,0.011999138607461015,0.16144295580947549,1.1128156318619664,-0.4167200409766647,-0.35025408374601696,0,-12.5,0,0,0,-0.002421,1354,1359,1384,1500,1500,1500
1747543846.917844,-0.16,-0.15,-0.12,-0.12326387842209953,-0.004363323129985824,0.16580627893946132,1.0877730481392944,-0.4383206743291315,-0.33788708692738934,0,-12.5,0,0,0,-0.002421,1354,1359,1384,1500,1500,1500
1747543847.0179386,-0.06,-0.3,0.04,-0.12435470920459599,-0.025089107997418487,0.17016960206944712,1.0657497943653322,-0.46156673321714214,-0.32703606400566665,0,-12.5,0,0,0,-0.002421,1354,1359,1384,1500,1500,1500
1747543847.117009,-0.06,-0.3,0.04,-0.12435470920459599,-0.025089107997418487,0.17016960206944712,1.0657497943653322,-0.46156673321714214,-0.32703606400566665,0,-12.5,0,0,0,-0.002421,1354,1359,1384,1500,1500,1500
1747543847.2165215,0.08,-0.27,-0.14,-0.12326387842209953,-0.030543261909900768,0.16798794050445423,1.0441081499182605,-0.48555578077571837,-0.3175333132348581,0,-12.5,0,0,0,-0.003148,1354,1359,1384,1500,1500,1500
1747543847.317046,0.08,-0.27,-0.14,-0.12326387842209953,-0.030543261909900768,0.16798794050445423,1.0441081499182605,-0.48555578077571837,-0.3175333132348581,0,-12.5,0,0,0,-0.003971,1354,1359,1384,1500,1500,1500
1747543847.3998692,-0.04,-0.22,0.17,-0.11017390903214205,-0.04690572364734761,0.15162547876700738,1.0206421009562199,-0.5115560346999453,-0.30888326246596304,0,-12.5,0,0,0,-0.003971,1354,1359,1384,1500,1500,1500
1747543847.5001998,0.19,-0.32,-0.07,-0.1189005552921137,-0.061086523819801536,0.19416787928436915,0.9963667230255313,-0.5399449305592585,-0.2999633172694268,0,-12.5,0,0,0,-0.003971,1354,1359,1384,1500,1500,1500
1747543847.5999243,0.19,-0.32,-0.07,-0.1189005552921137,-0.061086523819801536,0.19416787928436915,0.9963667230255313,-0.5399449305592585,-0.2999633172694268,0,-12.5,0,0,0,-0.003971,1354,1359,1384,1500,1500,1500
1747543847.6840167,-0.02,-0.2,-0.08,-0.12217304763960307,-0.06326818538479445,0.2203478180642841,0.9701242782428077,-0.5731396299449469,-0.28798024896965946,0,-0.417013,0,0,0,0,1394,1399,1424,1500,1500,1500
1747543847.7852273,-0.02,-0.2,-0.08,-0.12217304763960307,-0.06326818538479445,0.2203478180642841,0.9701242782428077,-0.5731396299449469,-0.28798024896965946,0,0,0,0,0,0,1434,1439,1464,1500,1500,1500
1747543847.8832116,0.58,-0.29,0.03,-0.10362892433716332,-0.07526732399225546,0.23561944901923448,0.9454159616305873,-0.6069846106767737,-0.2734587308013553,0,0,0,0,0,0,1474,1479,1500,1500,1500,1500
1747543847.984212,0.49,-0.07,-0.05,0.006544984694978736,-0.05781403147231216,0.21489366415180183,0.926788039995213,-0.6447373815280746,-0.2562663034806668,0,0,0,0,0,0,1500,1500,1500,1500,1500,1500
1747543848.0825229,0.49,-0.07,-0.05,0.006544984694978736,-0.05781403147231216,0.21489366415180183,0.926788039995213,-0.6447373815280746,-0.2562663034806668,0,0,0,0,0,0,1500,1500,1500,1500,1500,1500
1747543848.1681666,0.4,-0.07,-0.03,0.136353847812057,-0.08835729338221293,0.20943951023931956,0.9287573479512957,-0.6821132330096819,-0.2417438902069727,0,0,0,0,0,0,1500,1500,1500,1500,1500,1500
1747543848.2674582,0.14,-0.09,0.07,0.21707532571679475,-0.12980886311707826,0.18544123302439752,0.9520136708115156,-0.7202205981728432,-0.23537551867496467,0,0,0,0,0,0,1500,1500,1500,1500,1500,1500
1747543848.366206,0.14,-0.09,0.07,0.21707532571679475,-0.12980886311707826,0.18544123302439752,0.9520136708115156,-0.7202205981728432,-0.23537551867496467,0,0,0,0,0,0,1500,1500,1500,1500,1500,1500
1747543848.4496508,0.1,0.0,0.02,0.27052603405912107,-0.12435470920459599,0.1559888018969932,0.9882600176029046,-0.7514865081151478,-0.23626051555338973,0,0,0,0,0,0,1500,1500,1500,1500,1500,1500
1747543848.5500555,0.1,0.0,0.02,0.27052603405912107,-0.12435470920459599,0.1559888018969932,0.9882600176029046,-0.7514865081151478,-0.23626051555338973,0,0,0,0,0,0,1500,1500,1500,1500,1500,1500
1747543848.6336699,0.05,-0.02,0.03,0.3043417883165112,-0.11235557059713497,0.1308996938995747,1.0361498351393008,-0.7802402704192442,-0.24157128009643555,0,0,0,0,0,0,1500,1500,1500,1500,1500,1500
1747543848.733609,0.07,0.01,0.03,0.3294308963139297,-0.09053895494720585,0.11126473981463851,1.086988976740769,-0.8025944349234125,-0.24771549858887085,0,0,0,0,0,0,1500,1500,1500,1500,1500,1500
1747543848.833471,0.07,0.01,0.03,0.3294308963139297,-0.09053895494720585,0.11126473981463851,1.086988976740769,-0.8025944349234125,-0.24771549858887085,0,0,0,0,0,0,1500,1500,1500,1500,1500,1500
1747543848.915976,0.04,0.03,0.14,0.32615840396644036,-0.06872233929727672,0.09926560120717749,1.140776890769226,-0.8227052267347025,-0.25216090503088945,0,0,0,0,0,0,1500,1500,1500,1500,1500,1500
1747543849.017432,0.04,0.03,0.14,0.32615840396644036,-0.06872233929727672,0.09926560120717749,1.140776890769226,-0.8227052267347025,-0.25216090503088945,0,0,0,0,0,0,1500,1500,1500,1500,1500,1500
1747543849.1160865,-0.07,0.1,0.06,0.3196134192714616,-0.026179938779914945,0.08726646259971647,1.1922396572240617,-0.8376552171449487,-0.25351501285991174,0,0,0,0,0,0,1500,1500,1500,1500,1500,1500
1747543849.2168994,-0.05,0.08,0.06,0.34033920413889424,-0.013089969389957472,0.038179077387375956,1.2362497588955184,-0.8474755320911975,-0.24966972654008784,0,0,0,0,0,0,1500,1500,1500,1500,1500,1500
1747543849.316413,-0.05,0.08,0.06,0.34033920413889424,-0.013089969389957472,0.038179077387375956,1.2362497588955184,-0.8474755320911975,-0.24966972654008784,0,0,0,0,0,0,1500,1500,1500,1500,1500,1500
1747543849.4002647,-0.06,0.12,0.06,0.34797501961636945,0.018544123302439753,0.05999569303730508,1.2863415718664328,-0.8548304816672504,-0.24533019513183205,0,0,0,0,0,0,1500,1500,1500,1500,1500,1500
1747543849.499159,-0.06,0.15,0.08,0.3239767424014474,0.06981317007977318,0.061086523819801536,1.34340153134667,-0.8793075245406341,-0.24926482931859897,0,0,0,0,0,0,1500,1500,1500,1500,1500,1500
1747543849.599737,-0.06,0.15,0.08,0.3239767424014474,0.06981317007977318,0.061086523819801536,1.34340153134667,-0.8793075245406341,-0.24926482931859897,0,0,0,0,0,0,1500,1500,1500,1500,1500,1500
1747543849.6832337,-0.08,0.14,0.05,0.27707101875409984,0.09490227807719166,0.06217735460229799,1.3543301593432304,-0.8666018566496404,-0.20969873514907558,0,0,0,0,0,0,1500,1500,1500,1500,1500,1500
1747543849.7834294,-0.08,0.14,0.05,0.27707101875409984,0.09490227807719166,0.06217735460229799,1.3543301593432304,-0.8666018566496404,-0.20969873514907558,0,0,0,0,0,0,1500,1500,1500,1500,1500,1500
1747543849.883761,-0.08,0.14,0.02,0.24216443371421323,0.12980886311707826,0.055632369907319255,1.3700654025450627,-0.8707208242159582,-0.18135329452418578,0,0,0,0,0,0,1500,1500,1500,1500,1500,1500
1747543849.9837298,-0.11,0.12,0.08,0.23889194136672387,0.15489797111449674,0.011999138607461015,1.3788077750265972,-0.8712256753237408,-0.14766001335544357,0,0,0,0,0,0,1500,1500,1500,1500,1500,1500
1747543850.0833037,-0.11,0.12,0.08,0.23889194136672387,0.15489797111449674,0.011999138607461015,1.3788077750265972,-0.8712256753237408,-0.14766001335544357,0,0,0,0,0,0,1500,1500,1500,1500,1500,1500
1747543850.1672394,-0.11,0.12,0.0,0.23125612588924865,0.16035212502697901,-0.0272707695624114,1.386658145533064,-0.8644048405597665,-0.11021496723608287,0,0,0,0,0,0,1500,1500,1500,1500,1500,1500
1747543850.2672782,-0.11,0.12,0.0,0.23125612588924865,0.16035212502697901,-0.0272707695624114,1.386658145533064,-0.8644048405597665,-0.11021496723608287,0,0,0,0,0,0,1500,1500,1500,1500,1500,1500
1747543850.3670895,-0.09,0.14,0.05,0.20398535632683726,0.1538071403320003,-0.07635815477475191,1.3949034187436264,-0.8505210416728349,-0.07633827425999265,0,0,0,0,0,0,1500,1500,1500,1500,1500,1500
1747543850.467351,-0.09,0.12,0.0,0.18216874067690814,0.1461713248545251,-0.12762720155208535,1.4021648820439814,-0.8313482293093323,-0.047761653505933276,0,0,0,0,0,0,1500,1500,1500,1500,1500,1500
1747543850.5669422,-0.09,0.12,0.0,0.18216874067690814,0.1461713248545251,-0.12762720155208535,1.4021648820439814,-0.8313482293093323,-0.047761653505933276,0,0,0,0,0,0,1500,1500,1500,1500,1500,1500
1747543850.6500678,-0.1,0.11,0.07,0.15489797111449674,0.13962634015954636,-0.16144295580947549,1.4212323857015483,-0.8208037859103591,-0.03429762479496928,0,0,0,0,0,0,1500,1500,1500,1500,1500,1500
1747543850.744445,-0.09,0.09,0.04,0.13853550937704992,0.1308996938995747,-0.20289452554434081,1.4141789118037826,-0.772847098065259,0.0027193300868812095,0,0,0,0,0,0,1500,1500,1500,1500,1500,1500
1747543850.8497274,-0.09,0.09,0.04,0.13853550937704992,0.1308996938995747,-0.20289452554434081,1.4141789118037826,-0.772847098065259,0.0027193300868812095,0,0,0,0,0,0,1500,1500,1500,1500,1500,1500
1747543850.933305,-0.08,0.1,0.05,0.1407171709420428,0.12762720155208535,-0.22689280275926285,1.4211884800192953,-0.7388370511235219,0.021631831551871934,0,0,0,0,0,0,1500,1500,1500,1500,1500,1500
1747543851.0329776,-0.08,0.1,0.05,0.1407171709420428,0.12762720155208535,-0.22689280275926285,1.4211884800192953,-0.7388370511235219,0.021631831551871934,0,0,0,0,0,0,1500,1500,1500,1500,1500,1500
1747543851.1332114,-0.06,0.09,0.07,0.1505346479845109,0.12326387842209953,-0.24980024919168842,1.4317360909091659,-0.6992340395485542,0.039729594365551096,0,0,0,0,0,0,1500,1500,1500,1500,1500,1500
1747543851.2329366,-0.05,0.08,0.08,0.16798794050445423,0.11453723216212788,-0.26725354171163174,1.4447139458976157,-0.6593749109118725,0.05581434239003386,0,0,0,0,0,0,1500,1500,1500,1500,1500,1500
1747543851.3333364,-0.05,0.08,0.08,0.16798794050445423,0.11453723216212788,-0.26725354171163174,1.4447139458976157,-0.6593749109118725,0.05581434239003386,0,0,0,0,0,0,1500,1500,1500,1500,1500,1500
1747543851.4159386,-0.06,0.07,0.07,0.17780541754692233,0.10690141668465268,-0.28579766501407144,1.4611900776950968,-0.6175772794501121,0.07030890141077868,0,0,0,0,0,0,1500,1500,1500,1500,1500,1500
1747543851.5162234,-0.06,0.07,0.07,0.17780541754692233,0.10690141668465268,-0.28579766501407144,1.4611900776950968,-0.6175772794501121,0.07030890141077868,0,0,0,0,0,0,1500,1500,1500,1500,1500,1500
1747543851.6169834,-0.07,0.04,0.13,0.1810779098944117,0.09272061651219876,-0.3043417883165112,1.481503541554058,-0.5704634792416589,0.08374220503072717,0,0,0,0,0,0,1500,1500,1500,1500,1500,1500
1747543851.7170124,-0.07,0.06,0.1,0.17998707911191522,0.07963064712224129,-0.32506757318394386,1.5033616917864265,-0.5205804425922523,0.09473763305166474,0,0,0,0,0,0,1500,1500,1500,1500,1500,1500
1747543851.816384,-0.07,0.06,0.1,0.17998707911191522,0.07963064712224129,-0.32506757318394386,1.5033616917864265,-0.5205804425922523,0.09473763305166474,0,0,0,0,0,0,1500,1500,1500,1500,1500,1500
1747543851.9003587,-0.04,0.04,0.12,0.18653206380689397,0.06326818538479445,-0.33815754257390135,1.525896556849635,-0.4714502132867251,0.10306489746256181,0,0,0,0,0,0,1500,1500,1500,1500,1500,1500
1747543852.0000868,-0.02,0.06,0.17,0.19525871006686563,0.05126904677733343,-0.3490658503988659,1.5519015058109153,-0.41775277437822206,0.11090059844500884,0,0,0,0,0,0,1500,1500,1500,1500,1500,1500
1747543852.099102,-0.02,0.06,0.17,0.19525871006686563,0.05126904677733343,-0.3490658503988659,1.5519015058109153,-0.41775277437822206,0.11090059844500884,0,0,0,0,0,0,1500,1500,1500,1500,1500,1500
1747543852.182808,-0.01,0.04,0.14,0.20180369476184434,0.038179077387375956,-0.3490658503988659,1.5787231258325827,-0.36346224321477183,0.11857211976672667,0,0,0,0,0,0,1500,1500,1500,1500,1500,1500
1747543852.2829683,-0.01,0.04,0.14,0.20180369476184434,0.038179077387375956,-0.3490658503988659,1.5787231258325827,-0.36346224321477183,0.11857211976672667,0,0,0,0,0,0,1500,1500,1500,1500,1500,1500
1747543852.3834052,0.02,0.03,0.2,0.21271200258680892,0.0272707695624114,-0.34579335805137656,1.6052031993309293,-0.3130743222693464,0.12523345174617742,0,0,0,0,0,0,1500,1500,1500,1500,1500,1500
1747543852.5142853,0.0,0.04,0.16,0.21489366415180183,0.017453292519943295,-0.3392483733563978,1.634984835469776,-0.26034262262017943,0.131842397291098,0,0,0,0,0,0,1500,1500,1500,1500,1500,1500
1747543852.608025,0.01,0.24,0.13,0.2301652951067522,0.006544984694978736,-0.34579335805137656,1.6639702684926454,-0.21209041748540974,0.13810136880916327,0,0,0,0,0,0,1500,1500,1500,1500,1500,1500
1747543852.700278,0.01,0.24,0.13,0.2301652951067522,0.006544984694978736,-0.34579335805137656,1.6639702684926454,-0.21209041748540974,0.13810136880916327,0,0,0,0,0,0,1500,1500,1500,1500,1500,1500
1747543852.799677,0.01,0.0,0.14,0.22143864884678055,-0.001090830782496456,-0.32179508083645453,1.6941212627283433,-0.1650209473480183,0.14361989372930034,-1,0,0,0,0,0,1540,1460,1536,1460,1460,1540
1747543852.8834348,0.01,0.0,0.14,0.22143864884678055,-0.001090830782496456,-0.32179508083645453,1.6941212627283433,-0.1650209473480183,0.14361989372930034,-1,0,0,0,0,0,1557,1442,1536,1420,1420,1580
1747543852.9829068,0.01,0.0,0.09,0.22143864884678055,-0.002181661564992912,-0.3076142806640006,1.725838575341861,-0.11717258063427931,0.15063148573879995,-1,0,0,0,0,0,1557,1442,1536,1380,1404,1595
1747543853.078861,0.31,-0.17,0.01,0.1810779098944117,-0.003272492347489368,-0.24107360293171676,1.7569307673713792,-0.07310152192058354,0.15853151642219407,-1,0,0,0,0,0,1557,1442,1536,1354,1404,1595
1747543853.1662712,0.31,-0.17,0.01,0.1810779098944117,-0.003272492347489368,-0.24107360293171676,1.7569307673713792,-0.07310152192058354,0.15853151642219407,-1,0,0,0,0,0,1557,1442,1536,1354,1404,1595
1747543853.2660713,-0.01,-0.45,0.27,0.037088246604879506,-0.007635815477475192,-0.022907446432425576,1.7692039198563894,-0.05472207860891003,0.16291854117269597,-1,0,0,0,0,0,1557,1442,1536,1354,1404,1595
1747543853.366325,-0.01,-0.45,0.27,0.037088246604879506,-0.007635815477475192,-0.022907446432425576,1.7692039198563894,-0.05472207860891003,0.16291854117269597,-1,0,0,0,0,0,1557,1442,1536,1354,1404,1595
1747543853.467226,0.23,-0.24,0.14,0.05999569303730508,-0.009817477042468103,0.22907446432425577,1.777375096504671,-0.07387968976203628,0.15725502996983995,-1,0,0,0,0,0,1557,1442,1536,1354,1404,1595
1747543853.5662017,0.15,-0.21,0.0,0.06763150851478027,-0.022907446432425576,0.40251655874119224,1.787653900314041,-0.12235345126228547,0.14523904008305824,-1,0,0,0,0,0,1557,1442,1536,1354,1404,1595
1747543853.6498797,0.15,-0.21,0.0,0.06763150851478027,-0.022907446432425576,0.40251655874119224,1.787653900314041,-0.12235345126228547,0.14523904008305824,-1,0,0,0,0,0,1557,1442,1536,1354,1404,1595
1747543853.749277,0.03,-0.19,-0.04,0.09817477042468103,-0.0719948316447661,0.5214171140333059,1.8037847799097444,-0.18762053356196554,0.12290553781893536,-1,0,0,0,0,0,1557,1442,1536,1354,1404,1595
1747543853.8501117,0.03,-0.19,-0.04,0.09817477042468103,-0.0719948316447661,0.5214171140333059,1.8037847799097444,-0.18762053356196554,0.12290553781893536,-1,0,0,0,0,0,1557,1442,1536,1354,1404,1595
1747543853.9336154,0.11,-0.08,0.03,0.10690141668465268,-0.14835298641951802,0.5934119456780721,1.8274934662136293,-0.263564123240802,0.08628953035984026,-1,0,0,0,0,0,1557,1442,1536,1354,1404,1595
1747543854.0332258,-0.09,-0.02,0.0,0.07744898555724837,-0.1930770485018727,0.6086835766330224,1.8578028041367156,-0.34661030717199576,0.03361846503974999,-1,0,0,0,0,0,1557,1442,1536,1354,1404,1595
1747543854.1325564,-0.09,-0.02,0.0,0.07744898555724837,-0.1930770485018727,0.6086835766330224,1.8578028041367156,-0.34661030717199576,0.03361846503974999,-1,0,0,0,0,0,1557,1442,1536,1354,1404,1595
1747543854.2328098,-0.11,-0.08,0.0,0.0,-0.23671027980173096,0.6021385919380436,1.8866613121741336,-0.42150133890446034,-0.027288951534323723,-1,0,0,0,0,0,1557,1442,1536,1354,1404,1595
1747543854.3222008,0.26,0.04,0.01,-0.05890486225480862,-0.27598018797160334,0.607592745850526,1.9158229718093664,-0.4969646544905033,-0.10417444181678923,-1,0,0,0,0,0,1557,1442,1536,1354,1404,1595
1747543854.4168448,0.26,0.04,0.01,-0.05890486225480862,-0.27598018797160334,0.607592745850526,1.9158229718093664,-0.4969646544905033,-0.10417444181678923,-1,0,0,0,0,0,1557,1442,1536,1354,1404,1595
1747543854.5160446,0.13,0.02,-0.09,-0.1189005552921137,-0.30652344988150415,0.6119560689805118,1.947128638478038,-0.5695484155700903,-0.19312174439574517,-1,0,0,0,0,0,1557,1442,1536,1354,1404,1595
1747543854.6162384,0.13,0.02,-0.09,-0.1189005552921137,-0.30652344988150415,0.6119560689805118,1.947128638478038,-0.5695484155700903,-0.19312174439574517,-1,0,0,0,0,0,1557,1442,1536,1354,1404,1595
1747543854.6996117,0.05,0.03,0.0,-0.20507618710933373,-0.3294308963139297,0.607592745850526,1.975852677084863,-0.6339117831153476,-0.28641706318276305,-1,0,0,0,0,0,1557,1442,1536,1354,1404,1595
1747543854.7960622,-0.2,0.0,-0.01,-0.28361600344907856,-0.34797501961636945,0.5770494839406252,2.0043359180329703,-0.6960127071197686,-0.3945611974588023,-1,0,0,0,0,0,1557,1442,1536,1354,1404,1595
1747543854.8994389,-0.2,0.0,-0.01,-0.28361600344907856,-0.34797501961636945,0.5770494839406252,2.0043359180329703,-0.6960127071197686,-0.3945611974588023,-1,0,0,0,0,0,1557,1442,1536,1354,1404,1595
1747543854.9995315,0.01,-0.03,0.03,-0.3937899124812206,-0.3643374813538163,0.5486878835957173,2.0288518577993213,-0.7499381755099493,-0.5116988510179514,-1,0,0,0,0,0,1557,1442,1536,1354,1404,1595
1747543855.0993545,0.01,-0.03,0.03,-0.3937899124812206,-0.3643374813538163,0.5486878835957173,2.0288518577993213,-0.7499381755099493,-0.5116988510179514,-1,0,0,0,0,0,1557,1442,1536,1354,1404,1595
1747543855.1832528,0.01,-0.04,0.13,-0.4537856055185257,-0.3665191429188092,0.5355979142057599,2.0482617849193656,-0.7960713924761332,-0.6276838569392712,-1,0,0,0,0,0,1557,1442,1536,1354,1404,1595
1747543855.2828887,0.16,0.0,0.0,-0.5094179754258449,-0.346884188833873,0.5312345910757741,2.0663533257449362,-0.843284935031873,-0.7554208403373747,-1,0,0,0,0,0,1557,1442,1536,1354,1404,1595
1747543855.3835764,0.16,0.0,0.0,-0.5094179754258449,-0.346884188833873,0.5312345910757741,2.0663533257449362,-0.843284935031873,-0.7554208403373747,-1,0,0,0,0,0,1557,1442,1536,1354,1404,1595
1747543855.4827852,0.13,-0.06,-0.09,-0.5737769915931359,-0.30652344988150415,0.5465062220307244,2.0789985316387245,-0.8893370183787361,-0.8767599343995879,-1,0,0,0,0,0,1557,1442,1536,1354,1404,1595
1747543855.577649,-0.06,-0.08,0.12,-0.5737769915931359,-0.26398104936414235,0.5759586531581288,2.094604080020894,-0.9435157014618051,-1.0091592217481649,-1,0,0,0,0,0,1557,1442,1536,1354,1404,1595
1747543855.6669195,-0.06,-0.08,0.12,-0.5737769915931359,-0.26398104936414235,0.5759586531581288,2.094604080020894,-0.9435157014618051,-1.0091592217481649,-1,0,0,0,0,0,1557,1442,1536,1354,1404,1595
1747543855.7658284,0.0,-0.03,0.07,-0.5857761302005968,-0.20943951023931956,0.5683228376806536,2.1152694732721553,-0.9981081050343563,-1.1364632569371511,-1,0,0,0,0,0,1557,1442,1536,1354,1404,1595
1747543855.8661544,0.0,-0.03,0.07,-0.5857761302005968,-0.20943951023931956,0.5683228376806536,2.1152694732721553,-0.9981081050343563,-1.1364632569371511,-1,0,0,0,0,0,1557,1442,1536,1354,1404,1595
1747543855.9501088,-0.1,-0.09,0.11,-0.6163193921104976,-0.1832595714594046,0.5563236990731926,2.1396466362994517,-1.0561181565142954,-1.2741560327122696,-1,0,0,0,0,0,1557,1442,1536,1354,1404,1595
1747543856.0477247,-0.12,-0.06,0.03,-0.6250460383704692,-0.16907877128695067,0.5366887449882564,2.1754926931672975,-1.1109361554496595,-1.42291919900267,-1,0,0,0,0,0,1557,1442,1536,1354,1404,1595
1747543856.1336925,-0.12,-0.06,0.03,-0.6250460383704692,-0.16907877128695067,0.5366887449882564,2.1754926931672975,-1.1109361554496595,-1.42291919900267,-1,0,0,0,0,0,1557,1442,1536,1354,1404,1595
1747543856.2333126,-0.08,-0.12,-0.01,-0.6446809924554054,-0.14726215563702155,0.5148721293383273,2.223439850039085,-1.162239587665308,-1.5848510935310696,-1,0,0,0,0,0,1557,1442,1536,1354,1404,1595
1747543856.3325064,-0.08,-0.12,-0.01,-0.6446809924554054,-0.14726215563702155,0.5148721293383273,2.223439850039085,-1.162239587665308,-1.5848510935310696,-1,0,0,0,0,0,1557,1442,1536,1354,1404,1595
1747543856.4161627,-0.04,-0.07,-0.02,-0.6283185307179586,-0.13199052468207118,0.5061454830783556,2.333353201529962,-1.2347709277022825,-1.8096989892388797,-1,0,0,0,0,0,1557,1442,1536,1354,1404,1595
1747543856.5167773,-0.3,-0.07,0.13,-0.6501351463678877,-0.10799224746714914,0.4985096676008804,2.369096966328605,-1.2481984986111443,-1.9377232597231948,-1,0,0,0,0,0,1557,1442,1536,1354,1404,1595
1747543856.61591,-0.3,-0.07,0.13,-0.6501351463678877,-0.10799224746714914,0.4985096676008804,2.369096966328605,-1.2481984986111443,-1.9377232597231948,-1,0,0,0,0,0,1557,1442,1536,1354,1404,1595
1747543856.6989517,0.18,-0.12,0.0,-0.6468626540203984,-0.09817477042468103,0.49632800603588745,2.4884704646640627,-1.286283327361886,-2.1677516319445127,0,0,0,0,0,0,1517,1482,1500,1394,1444,1555
1747543856.7998931,0.18,-0.12,0.0,-0.6468626540203984,-0.09817477042468103,0.49632800603588745,2.4884704646640627,-1.286283327361886,-2.1677516319445127,0,0,0,0,0,0,1500,1500,1500,1434,1484,1515
1747543856.882516,-0.09,0.26,-0.21,-0.6468626540203984,-0.09817477042468103,0.49632800603588745,2.6347194030103913,-1.3138003808460983,-2.4164752501961657,0,-9.595686,0,0,0,0,1460,1460,1460,1474,1500,1500
1747543856.9826725,-0.12,0.29,0.02,-0.4537856055185257,-0.07744898555724837,0.210530341021816,2.745824132526648,-1.3219029268617248,-2.6160413076553013,0,-12.5,0,0,0,-0.001252,1420,1420,1420,1500,1500,1500
1747543857.0836997,-0.12,0.29,0.02,-0.4537856055185257,-0.07744898555724837,0.210530341021816,2.745824132526648,-1.3219029268617248,-2.6160413076553013,0,-12.5,0,0,0,-0.046218,1380,1380,1384,1500,1500,1500
1747543857.1659765,-0.27,0.55,0.23,-0.44505895925855404,-0.07526732399225546,-0.031634092692397225,2.7310582155102603,-1.3146938837183821,-2.6696089752134933,0,-12.5,0,0,0,-0.058861,1354,1359,1384,1500,1500,1500
1747543857.2670681,-0.27,0.55,0.23,-0.44505895925855404,-0.07526732399225546,-0.031634092692397225,2.7310582155102603,-1.3146938837183821,-2.6696089752134933,0,-12.5,0,0,0,-0.062261,1354,1359,1384,1500,1500,1500
1747543857.3661397,-1.8800000000000001,0.63,0.33,-0.46142142099600086,-0.04363323129985824,-0.16907877128695067,2.6284161505746315,-1.296694514334955,-2.6355614078410503,0,-12.5,0,0,0,-0.062261,1354,1359,1384,1500,1500,1500
1747543857.465796,-0.62,-0.06,-0.11,-0.48432886742842646,0.017453292519943295,-0.25634523388666713,2.457281194664972,-1.2741661856818802,-2.5364659025065492,0,-12.5,0,0,0,-0.062261,1354,1359,1384,1500,1500,1500
1747543857.567173,-0.62,-0.06,-0.11,-0.48432886742842646,0.017453292519943295,-0.25634523388666713,2.457281194664972,-1.2741661856818802,-2.5364659025065492,0,-12.5,0,0,0,-0.062261,1354,1359,1384,1500,1500,1500
1747543857.6499686,-0.3,-0.11,-0.05,-0.45814892864851153,0.0719948316447661,-0.2519819107566813,2.282264999836329,-1.2475501919894638,-2.4300334824118117,0,-12.5,0,0,0,-0.062261,1354,1359,1384,1500,1500,1500
1747543857.749399,-0.3,-0.11,-0.05,-0.45814892864851153,0.0719948316447661,-0.2519819107566813,2.282264999836329,-1.2475501919894638,-2.4300334824118117,0,-12.5,0,0,0,-0.062261,1354,1359,1384,1500,1500,1500
1747543857.8490617,-0.24,-0.22,0.08,-0.4014257279586958,0.15707963267948966,-0.21489366415180183,2.1214129177981498,-1.2299376643830129,-2.3258145228183364,0,-12.5,0,0,0,-0.062261,1354,1359,1384,1500,1500,1500
1747543857.9327486,-0.24,-0.22,-0.02,-0.3490658503988659,0.19853120241435498,-0.13744467859455345,1.9702867818391943,-1.2179227419911856,-2.2228643874684226,0,-12.5,0,0,0,-0.062261,1354,1359,1384,1500,1500,1500
1747543858.032752,-0.24,-0.22,-0.02,-0.3490658503988659,0.19853120241435498,-0.13744467859455345,1.9702867818391943,-1.2179227419911856,-2.2228643874684226,0,-12.5,0,0,0,-0.062261,1354,1359,1384,1500,1500,1500
1747543858.1330125,-0.13,0.02,-0.05,-0.35124751196385884,0.2279836335417593,-0.09708393964218458,1.8177757219439545,-1.2123206168737417,-2.1183264387582144,0,-12.5,0,0,0,-0.062261,1354,1359,1384,1500,1500,1500
1747543858.233514,-0.12,-0.3,-0.03,-0.3741549583962844,0.23889194136672387,-0.08508480103472356,1.671046921089272,-1.206279906146799,-2.017890062933167,0,-12.5,0,0,0,-0.062261,1354,1359,1384,1500,1500,1500
1747543858.3333752,-0.12,-0.3,-0.03,-0.3741549583962844,0.23889194136672387,-0.08508480103472356,1.671046921089272,-1.206279906146799,-2.017890062933167,0,-12.5,0,0,0,-0.062261,1354,1359,1384,1500,1500,1500
1747543858.4159768,-0.03,-0.11,-0.04,-0.3621558197888234,0.22143864884678055,-0.08290313946973066,1.5208577831063688,-1.1945201089393518,-1.9182446312337853,0,-12.5,0,0,0,-0.062261,1354,1359,1384,1500,1500,1500
1747543858.516122,-0.03,-0.11,-0.04,-0.3621558197888234,0.22143864884678055,-0.08290313946973066,1.5208577831063688,-1.1945201089393518,-1.9182446312337853,0,-12.5,0,0,0,-0.062261,1354,1359,1384,1500,1500,1500
1747543858.6160996,-0.01,-0.32,-0.12,-0.32506757318394386,0.20289452554434081,-0.07744898555724837,1.3973009161830954,-1.1796451871320732,-1.8388300743661692,0,-12.5,0,0,0,-0.062261,1354,1359,1384,1500,1500,1500
1747543858.7171159,-0.1,-0.3,-0.02,-0.26070855701665296,0.1712604328519436,-0.0719948316447661,1.291209096049236,-1.1620262977750675,-1.7721188473910838,0,-12.5,0,0,0,-0.062261,1354,1359,1384,1500,1500,1500
1747543858.8168447,-0.1,-0.3,-0.02,-0.26070855701665296,0.1712604328519436,-0.0719948316447661,1.291209096049236,-1.1620262977750675,-1.7721188473910838,0,-12.5,0,0,0,-0.062261,1354,1359,1384,1500,1500,1500
1747543858.8999307,-0.11,-0.04,0.02,-0.22143864884678055,0.136353847812057,-0.038179077387375956,1.2098515121140088,-1.1472633966866896,-1.723403322988724,0,-12.5,0,0,0,-0.062261,1354,1359,1384,1500,1500,1500
1747543858.999435,-0.11,-0.04,0.02,-0.22143864884678055,0.136353847812057,-0.038179077387375956,1.2098515121140088,-1.1472633966866896,-1.723403322988724,0,-12.5,0,0,0,-0.062261,1354,1359,1384,1500,1500,1500
1747543859.09915,-0.16,-0.17,-0.06,-0.2083486794568231,0.1090830782496456,-0.013089969389957472,1.1415660924096414,-1.1367164855731708,-1.6849334104628075,0,-12.5,0,0,0,-0.017449,1354,1359,1384,1500,1500,1500
1747543859.1830287,-0.19,-0.12,-0.12,-0.20398535632683726,0.0916297857297023,0.018544123302439753,1.08352816862604,-1.1313600565349036,-1.6542736797285322,0,-1.65878,0,0,0,0,1394,1399,1415,1500,1500,1500
1747543859.282572,-0.19,-0.12,-0.12,-0.20398535632683726,0.0916297857297023,0.018544123302439753,1.08352816862604,-1.1313600565349036,-1.6542736797285322,0,0,0,0,0.219015,0,1434,1439,1455,1500,1540,1460
1747543859.3818293,0.09,-0.24,-0.13,-0.16035212502697901,0.06981317007977318,0.04145156973486533,1.0261925974551969,-1.1299492698506064,-1.623165141007675,0,0,0,0,0.28,0,1464,1464,1495,1500,1580,1420
1747543859.4659414,0.59,-0.35000000000000003,-0.12,-0.07308566242726255,0.050178215994836975,0.05126904677733343,0.9845020131615091,-1.1329903225688247,-1.5958016584359174,0,0,0,0,0.28,0,1464,1464,1535,1500,1620,1380
1747543859.5662148,0.59,-0.35000000000000003,-0.12,-0.07308566242726255,0.050178215994836975,0.05126904677733343,0.9845020131615091,-1.1329903225688247,-1.5958016584359174,0,0,0,0,0.28,0,1464,1464,1536,1500,1645,1354
1747543859.649586,0.14,-0.13,-0.13,0.19853120241435498,-0.013089969389957472,0.06981317007977318,0.9712265285257865,-1.1446420345111594,-1.5762649858338014,0,0,0,0,0.28,0,1464,1464,1536,1500,1645,1354
1747543859.7492936,0.14,-0.13,-0.13,0.19853120241435498,-0.013089969389957472,0.06981317007977318,0.9712265285257865,-1.1446420345111594,-1.5762649858338014,0,0,0,0,0.28,0,1464,1464,1536,1500,1645,1354
1747543859.8485782,0.31,-0.5,-0.28,1.2904528156933075,-0.09490227807719166,0.1407171709420428,1.0566914141314452,-1.1703143461762622,-1.564605657791732,0,0,0,0,0.28,0,1464,1464,1536,1500,1645,1354
1747543859.9323397,0.31,-0.5,-0.28,1.2904528156933075,-0.09490227807719166,0.1407171709420428,1.0566914141314452,-1.1703143461762622,-1.564605657791732,0,0,0,0,0.28,0,1464,1464,1536,1500,1645,1354
1747543860.033391,0.18,-0.17,-0.4,2.1576632877779898,-0.08399397025222712,0.16580627893946132,1.3511210853122182,-1.1998944413232486,-1.576600497238868,0,0,0,0,0.055912,0,1500,1500,1500,1500,1605,1394
1747543860.1332202,0.11,-0.1,-0.41000000000000003,2.5034566458293663,-0.09381144729469522,0.17889624832941878,1.7511915613499034,-1.2262150338676607,-1.6136108072496838,0,0,0,0,0,0,1500,1500,1500,1500,1565,1434
1747543860.2331963,0.11,-0.1,-0.41000000000000003,2.5034566458293663,-0.09381144729469522,0.17889624832941878,1.7511915613499034,-1.2262150338676607,-1.6136108072496838,0,0,0,0,0,0,1500,1500,1500,1500,1525,1474
1747543860.3328574,-0.05,0.46,-0.29,2.2667463660276357,-0.12871803233458182,0.16689710972195776,2.2071927264643514,-1.2449445781994353,-1.6959846033860364,0,0,0,0,0,0,1500,1500,1500,1500,1500,1500
1747543860.4162164,0.19,0.34,-0.14,1.5795229730548683,-0.1538071403320003,0.10144726277217041,2.5628210507403555,-1.2426318463814012,-1.7821876136711166,0,0,0,0,0,0,1500,1500,1500,1500,1500,1500
1747543860.5172446,0.19,0.34,-0.14,1.5795229730548683,-0.1538071403320003,0.10144726277217041,2.5628210507403555,-1.2426318463814012,-1.7821876136711166,0,0,6.880805,0,0,0,1539,1539,1460,1500,1460,1460
1747543860.615981,0.07,0.28,-0.12,1.124646536753846,-0.1538071403320003,0.04254240051736178,2.8124269408403624,-1.2244394822136382,-1.8320214384208022,0,0,7.5,0,0,0,1539,1539,1457,1500,1420,1420
1747543860.7161365,0.07,0.28,-0.12,1.124646536753846,-0.1538071403320003,0.04254240051736178,2.8124269408403624,-1.2244394822136382,-1.8320214384208022,0,0,7.5,0,0,0,1539,1539,1457,1500,1380,1380
1747543860.8171563,0.02,0.29,-0.04,0.8464846872172498,-0.15489797111449674,-0.00545415391248228,2.9624034336414535,-1.2019398834597246,1.4056339607705646,0,0,7.5,0,0,0,1539,1539,1457,1500,1354,1357
1747543860.8995786,-0.08,0.35000000000000003,0.16,0.6490443155853913,-0.18980455615438332,-0.015271630954950384,3.062335528255983,-1.1777725892755584,1.4027573776686197,0,0,7.5,0,0,0,1539,1539,1457,1500,1354,1357
1747543860.9999082,-0.08,0.35000000000000003,0.16,0.6490443155853913,-0.18980455615438332,-0.015271630954950384,3.062335528255983,-1.1777725892755584,1.4027573776686197,0,0,7.5,0,0,0,1539,1539,1457,1500,1354,1357
1747543861.099295,0.07,0.29,0.6,0.5061454830783556,-0.16144295580947549,0.002181661564992912,-3.1399856844190013,-1.1545281323854204,1.4129824823947565,0,0,7.5,0,0,0,1539,1539,1457,1500,1354,1357
1747543861.2034287,0.07,0.29,0.6,0.5061454830783556,-0.16144295580947549,0.002181661564992912,-3.1399856844190013,-1.1545281323854204,1.4129824823947565,0,0,7.5,0,0,0,1539,1539,1457,1500,1354,1357
1747543861.299072,0.0,0.11,0.16,0.26398104936414235,-0.10253809355466686,0.05781403147231216,-3.0852285483555426,-1.1457720079932174,1.4122716291793627,0,0,7.5,0,0,0,1539,1539,1457,1500,1354,1357
1747543861.3971908,-0.15,0.11,0.02,0.11017390903214205,-0.09708393964218458,0.15162547876700738,-3.0275923129592552,-1.1293938052086328,1.3784896150175368,0,0,7.5,0,0,0,1539,1539,1457,1500,1354,1357
1747543861.4838374,-0.15,0.11,0.02,0.11017390903214205,-0.09708393964218458,0.15162547876700738,-3.0275923129592552,-1.1293938052086328,1.3784896150175368,0,0,7.5,0,0,0,1539,1539,1457,1500,1354,1357
1747543861.5825715,0.03,0.05,0.13,0.044724062082354694,-0.07526732399225546,0.21925698728178766,-2.962950119594474,-1.111331536360944,1.3194255581585788,0,0,7.5,0,0,0,1539,1539,1457,1500,1354,1357
1747543861.6658986,0.0,0.06,-0.04,0.011999138607461015,-0.04036073895236887,0.2792526803190927,-2.8895292394894323,-1.093965595177893,1.2411141398733447,0,0,7.5,0,0,0,1539,1539,1457,1500,1354,1357
1747543861.7660325,0.0,0.06,-0.04,0.011999138607461015,-0.04036073895236887,0.2792526803190927,-2.8895292394894323,-1.093965595177893,1.2411141398733447,0,0,7.5,0,0,0,1539,1539,1457,1500,1354,1357
1747543861.86675,-0.12,0.11,-0.05,0.017453292519943295,-0.004363323129985824,0.2999784651865254,-2.814159473095884,-1.0788273643282884,1.1566597836712023,0,0,7.5,0,0,0,1539,1539,1457,1500,1354,1357
1747543861.964349,-0.01,0.07,0.0,0.01090830782496456,0.031634092692397225,0.2628902185816459,-2.74155914750853,-1.066471214478562,1.0771376502300984,0,0,7.5,0,0,0,1539,1539,1457,1500,1354,1357
1747543862.06599,-0.01,0.07,0.0,0.01090830782496456,0.031634092692397225,0.2628902185816459,-2.74155914750853,-1.066471214478562,1.0771376502300984,0,0,7.5,0,0,0,1539,1539,1457,1500,1354,1357
1747543862.149327,0.03,0.17,-0.09,-0.014180800172453928,0.06544984694978735,0.22689280275926285,-2.6779627519377773,-1.0580652714856957,1.0028828820063,0,0,7.5,0,0,0,1539,1539,1457,1500,1354,1357
1747543862.249617,0.03,0.17,-0.09,-0.014180800172453928,0.06544984694978735,0.22689280275926285,-2.6779627519377773,-1.0580652714856957,1.0028828820063,0,0,7.5,0,0,0,1539,1539,1457,1500,1354,1357
1747543862.3490393,-0.07,0.1,-0.09,-0.04254240051736178,0.08508480103472356,0.19962203319685143,-2.627214232247415,-1.053349315883859,0.9388581402660653,0,0,7.5,0,0,0,1539,1539,1457,1500,1354,1357
1747543862.4329479,-0.08,0.07,0.01,-0.07526732399225546,0.10253809355466686,0.14944381720201447,-2.584450600896665,-1.0522712395649045,0.8787466918627589,0,0,7.5,0,0,0,1539,1539,1457,1500,1354,1357
1747543862.532955,-0.08,0.07,0.01,-0.07526732399225546,0.10253809355466686,0.14944381720201447,-2.584450600896665,-1.0522712395649045,0.8787466918627589,0,0,7.5,0,0,0,1539,1539,1457,1500,1354,1357
1747543862.6335733,-0.07,0.22,-0.07,-0.061086523819801536,0.11453723216212788,0.12435470920459599,-2.553232122498402,-1.0551903472011364,0.82926883546094,0,0,7.5,0,0,0,1539,1539,1457,1500,1354,1357
1747543862.7331471,-0.07,0.22,-0.07,-0.061086523819801536,0.11453723216212788,0.12435470920459599,-2.553232122498402,-1.0551903472011364,0.82926883546094,0,0,7.5,0,0,0,1539,1539,1457,1500,1354,1357
1747543862.832704,-0.16,0.05,-0.02,-0.030543261909900768,0.12544553998709243,0.08726646259971647,-2.522454620135932,-1.061185080122058,0.7853213694587861,0,0,7.5,0,0,0,1539,1539,1457,1500,1354,1357
1747543862.9158282,-0.1,0.06,-0.02,0.004363323129985824,0.1265363707695889,0.05235987755982989,-2.4889831920603487,-1.0702095538953273,0.743585222383077,0,0,7.5,0,0,0,1539,1539,1457,1500,1354,1357
1747543863.0160983,-0.1,0.06,-0.02,0.004363323129985824,0.1265363707695889,0.05235987755982989,-2.4889831920603487,-1.0702095538953273,0.743585222383077,0,0,7.5,0,0,0,1539,1539,1457,1500,1354,1357
1747543863.1171427,-0.16,0.12,0.0,0.04036073895236887,0.12544553998709243,0.009817477042468103,-2.4575154315391505,-1.0826418686957229,0.7108777692834944,0,0,7.5,0,0,0,1539,1539,1457,1500,1354,1357
1747543863.2161222,-0.16,0.12,0.0,0.04036073895236887,0.12544553998709243,0.009817477042468103,-2.4575154315391505,-1.0826418686957229,0.7108777692834944,0,0,7.5,0,0,0,1539,1539,1457,1500,1354,1357
1747543863.3160012,-0.08,0.11,0.0,0.05890486225480862,0.12871803233458182,-0.022907446432425576,-2.4270921216139003,-1.0982770622296025,0.6850133073261206,0,0,7.5,0,0,0,1539,1539,1457,1500,1354,1357
1747543863.3991086,-0.03,0.05,0.02,0.05890486225480862,0.12871803233458182,-0.022907446432425576,-2.4005465838002826,-1.1157886916335626,0.6673673076051252,0,0,7.5,0,0,0,1539,1539,1457,1500,1354,1357
1747543863.4983768,-0.03,0.05,0.02,0.05890486225480862,0.12871803233458182,-0.022907446432425576,-2.4005465838002826,-1.1157886916335626,0.6673673076051252,0,0,7.5,0,0,0,1539,1539,1457,1500,1354,1357
1747543863.5996938,-0.07,0.07,0.02,0.10362892433716332,0.1189005552921137,-0.07526732399225546,-2.373645450191978,-1.136317817142134,0.6537628638017023,0,0,7.5,0,0,0,1539,1539,1457,1500,1354,1357
1747543863.6832516,-0.19,0.02,0.0,0.11126473981463851,0.11453723216212788,-0.0916297857297023,-2.351809881918416,-1.1575877955252158,0.6478373713459784,0,0,7.5,0,0,0,1539,1539,1457,1500,1354,1357
1747543863.7828538,-0.19,0.02,0.0,0.11126473981463851,0.11453723216212788,-0.0916297857297023,-2.351809881918416,-1.1575877955252158,0.6478373713459784,0,0,7.5,0,0,0,1539,1539,1457,1500,1354,1357
1747543863.8830256,-0.15,-0.04,-0.09,0.13962634015954636,0.11344640137963143,-0.09599310885968812,-2.325754657752261,-1.1805055576927865,0.6414248695621533,0,0,7.5,0,0,0,1539,1539,1457,1500,1354,1357
1747543863.9828658,-0.15,-0.04,-0.09,0.13962634015954636,0.11344640137963143,-0.09599310885968812,-2.325754657752261,-1.1805055576927865,0.6414248695621533,0,0,7.5,0,0,0,1539,1539,1457,1500,1354,1357
1747543864.0827394,-0.12,-0.07,0.0,0.18435040224190105,0.11235557059713497,-0.11017390903214205,-2.2957593468085857,-1.202940267409024,0.6350891307566804,0,0,7.5,0,0,0,1539,1539,1457,1500,1354,1357
1747543864.2044015,-0.1,-0.01,-0.05,0.20616701789183017,0.10690141668465268,-0.1189005552921137,-2.262406555800694,-1.2269068038835966,0.6316526286209809,0,0,7.5,0,0,0,1539,1539,1457,1500,1354,1357
1747543864.300466,-0.1,-0.01,-0.05,0.20616701789183017,0.10690141668465268,-0.1189005552921137,-2.262406555800694,-1.2269068038835966,0.6316526286209809,0,0,7.5,0,0,0,1539,1539,1457,1500,1354,1357
1747543864.3996959,0.0,-0.04,-0.06,0.21271200258680892,0.09599310885968812,-0.13853550937704992,-2.22981028921699,-1.252530260885881,0.6314985605362227,0,0,7.5,0,0,0,1539,1539,1457,1500,1354,1357
1747543864.5001376,0.0,-0.08,-0.03,0.2399827721492203,0.08508480103472356,-0.15162547876700738,-2.2012511077945143,-1.2794963692966324,0.6391295768897028,0,0,7.5,0,0,0,1539,1539,1457,1500,1354,1357
1747543864.5993361,0.0,-0.08,-0.03,0.2399827721492203,0.08508480103472356,-0.15162547876700738,-2.2012511077945143,-1.2794963692966324,0.6391295768897028,0,0,7.5,0,0,0,1539,1539,1457,1500,1354,1357
1747543864.682791,-0.15,-0.06,-0.03,0.2716168648416175,0.07308566242726255,-0.1712604328519436,-2.1786942685360864,-1.3052922052016527,0.6548580889096023,0,0,7.5,0,0,0,1539,1539,1457,1500,1354,1357
1747543864.7833817,-0.04,0.0,-0.05,0.3010692959690218,0.06763150851478027,-0.16580627893946132,-2.157371301052048,-1.3313361632768965,0.6756958627020633,0,0,7.5,0,0,0,1539,1539,1457,1500,1354,1357
1747543864.882255,-0.04,0.0,-0.05,0.3010692959690218,0.06763150851478027,-0.16580627893946132,-2.157371301052048,-1.3313361632768965,0.6756958627020633,0,0,7.5,0,0,0,1539,1539,1457,1500,1354,1357
1747543864.9830348,-0.04,-0.16,-0.02,0.3294308963139297,0.05672320068981571,-0.16689710972195776,-2.132207341835173,-1.3576469508705364,0.6999893327421818,0,0,7.5,0,0,0,1539,1539,1457,1500,1354,1357
1747543865.0744758,-0.11,-0.01,0.0,0.3719732968312915,0.04254240051736178,-0.16907877128695067,-2.1170073097697317,-1.382284146517223,0.736491601868439,0,0,7.5,0,0,0,1539,1539,1457,1500,1354,1357
1747543865.166134,-0.11,-0.01,0.0,0.3719732968312915,0.04254240051736178,-0.16907877128695067,-2.1170073097697317,-1.382284146517223,0.736491601868439,0,0,7.5,0,0,0,1539,1539,1457,1500,1354,1357
1747543865.26592,-0.05,-0.1,0.0,0.38069994309126315,0.025089107997418487,-0.1734420944169365,-2.111084775036718,-1.40623911256892,0.785951345292386,0,0,7.5,0,0,0,1539,1539,1457,1500,1354,1357
1747543865.3659992,-0.05,-0.1,0.0,0.38069994309126315,0.025089107997418487,-0.1734420944169365,-2.111084775036718,-1.40623911256892,0.785951345292386,0,0,7.5,0,0,0,1539,1539,1457,1500,1354,1357
1747543865.448689,-0.09,-0.14,-0.11,0.39924406639370286,0.011999138607461015,-0.18762289458939044,-2.128076205487728,-1.43127750938197,0.8641798013602202,0,0,7.5,0,0,0,1539,1539,1457,1500,1354,1357
1747543865.5483158,-0.1,-0.08,0.0,0.4112432050011639,-0.002181661564992912,-0.17562375598192942,-2.1840733793452145,-1.4553464567836696,0.9847384556814914,0,0,7.5,0,0,0,1539,1539,1457,1500,1354,1357
1747543865.6322627,-0.1,-0.08,0.0,0.4112432050011639,-0.002181661564992912,-0.17562375598192942,-2.1840733793452145,-1.4553464567836696,0.9847384556814914,0,0,7.5,0,0,0,1539,1539,1457,1500,1354,1357
1747543865.733193,-0.02,-0.2,0.0,0.4406956361285682,-0.011999138607461015,-0.17889624832941878,-2.270342458015105,-1.4748654102011665,1.1391700601813308,0,0,7.5,0,0,0,1539,1539,1457,1500,1354,1357
1747543865.8322053,-0.02,-0.2,0.0,0.4406956361285682,-0.011999138607461015,-0.17889624832941878,-2.270342458015105,-1.4748654102011665,1.1391700601813308,0,0,7.5,0,0,0,1539,1539,1457,1500,1354,1357
1747543865.916359,-0.19,-0.02,0.01,0.46142142099600086,-0.018544123302439753,-0.15817046346198613,-2.4211616117727743,-1.492619383556573,1.3613330191392532,0,0,7.5,0,0,0,1539,1539,1457,1500,1354,1357
1747543866.0160367,-0.19,-0.02,0.01,0.46142142099600086,-0.018544123302439753,-0.15817046346198613,-2.4211616117727743,-1.492619383556573,1.3613330191392532,0,0,7.5,0,0,0,1539,1539,1457,1500,1354,1357
1747543866.1158907,-0.09,-0.05,0.0,0.48978302134090873,-0.026179938779914945,-0.17562375598192942,-2.636607389058186,-1.5025072218393274,1.646505680895898,0,0,7.5,0,0,0,1539,1539,1457,1500,1354,1357
1747543866.198983,-0.01,-0.16,-0.03,0.4919646829059016,-0.044724062082354694,-0.17235126363444003,-2.956955532479638,-1.5057777628809315,2.0439453766009605,0,0,7.5,0,0,0,1539,1539,1457,1500,1354,1357
