time,ax,ay,az,gx,gy,gz,roll,pitch,yaw,cmd_fx,cmd_fy,cmd_fz,cmd_tx,cmd_ty,cmd_tz,pwm_1,pwm_2,pwm_3,pwm_4,pwm_5,pwm_6
1747533902.2718604,0.0,0.0,0.0,0.0,0.0,0.0,0.0,0.0,0.0,0,0,0,0,0,0,1500,1500,1500,1500,1500,1500
1747533902.3608878,0.03,0.0,-0.36,0.001090830782496456,-0.003272492347489368,0.0,-0.014353400558667805,0.11517001581408885,-0.0008275124387788234,0,0,0,0,0,0,1500,1500,1500,1500,1500,1500
1747533902.462515,0.03,0.0,-0.36,0.001090830782496456,-0.003272492347489368,0.0,-0.014353400558667805,0.11517001581408885,-0.0008275124387788234,0,0,0,0,0,0,1500,1500,1500,1500,1500,1500
1747533902.54611,0.01,0.02,-0.28,0.003272492347489368,0.00545415391248228,0.001090830782496456,-0.014353400558667805,0.11517001581408885,-0.0008275124387788234,0,-0.49582,0,0,0,0,1460,1460,1460,1500,1500,1500
1747533902.6435664,0.01,0.02,-0.28,0.003272492347489368,0.00545415391248228,0.001090830782496456,-0.014353400558667805,0.11517001581408885,-0.0008275124387788234,0,-0.879209,0,0,0,0,1428,1429,1437,1500,1500,1500
1747533902.7439494,0.04,0.0,-0.36,-0.003272492347489368,-0.003272492347489368,0.0,-0.014353400558667805,0.11517001581408885,-0.0008275124387788234,0,-0.879209,0,0,0,0,1428,1429,1437,1500,1500,1500
1747533902.827591,0.1,0.23,-0.37,0.011999138607461015,-0.001090830782496456,-0.00545415391248228,-0.014353400558667805,0.11517001581408885,-0.0008275124387788234,0,-0.455564,0,0,0,0,1445,1446,1450,1500,1500,1500
1747533902.9268434,0.1,0.23,-0.37,0.011999138607461015,-0.001090830782496456,-0.00545415391248228,-0.014353400558667805,0.11517001581408885,-0.0008275124387788234,0,-0.169949,0,0,0,0,1457,1457,1458,1500,1500,1500
1747533903.0276747,0.03,0.0,-0.28,-0.002181661564992912,-0.001090830782496456,-0.001090830782496456,-0.014353400558667805,0.11517001581408885,-0.0008275124387788234,0,0,0,0,0,0,1497,1497,1498,1500,1500,1500
1747533903.1263084,0.03,0.0,-0.28,-0.002181661564992912,-0.001090830782496456,-0.001090830782496456,-0.014353400558667805,0.11517001581408885,-0.0008275124387788234,0,0,0,0,0,0,1500,1500,1500,1500,1500,1500
1747533903.2265189,0.17,0.06,-0.37,-0.002181661564992912,0.003272492347489368,0.002181661564992912,-0.014353400558667805,0.11517001581408885,-0.0008275124387788234,0,0,0,0,0,0,1500,1500,1500,1500,1500,1500
1747533903.3100667,-0.01,0.03,-0.27,-0.002181661564992912,0.002181661564992912,0.001090830782496456,-0.014353400558667805,0.11517001581408885,-0.0008275124387788234,0,0,0,0,0,0,1500,1500,1500,1500,1500,1500
1747533903.410058,-0.01,0.03,-0.27,-0.002181661564992912,0.002181661564992912,0.001090830782496456,-0.014353400558667805,0.11517001581408885,-0.0008275124387788234,0,0,0,0,0,0,1500,1500,1500,1500,1500,1500
1747533903.5099876,0.05,-0.02,-0.3,-0.00545415391248228,-0.001090830782496456,0.002181661564992912,-0.014353400558667805,0.11517001581408885,-0.0008275124387788234,0,0,0,0,0,0,1500,1500,1500,1500,1500,1500
1747533903.593339,0.05,-0.02,-0.3,-0.00545415391248228,-0.001090830782496456,0.002181661564992912,-0.014353400558667805,0.11517001581408885,-0.0008275124387788234,0,0,0,0,0,0,1500,1500,1500,1500,1500,1500
1747533903.6965811,0.06,-0.01,-0.35000000000000003,-0.001090830782496456,-0.003272492347489368,0.002181661564992912,-0.014353400558667805,0.11517001581408885,-0.0008275124387788234,0,0,0,0,0,0,1500,1500,1500,1500,1500,1500
1747533903.7832906,0.04,-0.01,-0.31,0.0,-0.001090830782496456,0.0,-0.014353400558667805,0.11517001581408885,-0.0008275124387788234,0,0,0,0,0,0,1500,1500,1500,1500,1500,1500
1747533903.8765476,0.04,-0.01,-0.31,0.0,-0.001090830782496456,0.0,-0.014353400558667805,0.11517001581408885,-0.0008275124387788234,0,0,0,0,0,0,1500,1500,1500,1500,1500,1500
1747533903.9762533,0.02,0.01,-0.33,-0.001090830782496456,0.002181661564992912,-0.002181661564992912,-0.014353400558667805,0.11517001581408885,-0.0008275124387788234,0,0,0,0,0,0,1500,1500,1500,1500,1500,1500
1747533904.0759802,0.02,0.01,-0.33,-0.001090830782496456,0.002181661564992912,-0.002181661564992912,-0.014353400558667805,0.11517001581408885,-0.0008275124387788234,0,0,0,0,0,0,1500,1500,1500,1500,1500,1500
1747533904.1755593,0.03,0.01,-0.33,-0.002181661564992912,0.002181661564992912,-0.001090830782496456,-0.014353400558667805,0.11517001581408885,-0.0008275124387788234,0,0,0,0,0,0,1500,1500,1500,1500,1500,1500
1747533904.271633,0.03,0.01,-0.28,0.003272492347489368,0.00545415391248228,0.001090830782496456,-0.014353400558667805,0.11517001581408885,-0.0008275124387788234,0,0,0,0,0,0,1500,1500,1500,1500,1500,1500
1747533904.3597028,0.03,0.01,-0.28,0.003272492347489368,0.00545415391248228,0.001090830782496456,-0.014353400558667805,0.11517001581408885,-0.0008275124387788234,0,0,0,0,0,0,1500,1500,1500,1500,1500,1500
1747533904.459852,0.06,0.0,-0.33,-0.001090830782496456,0.0,-0.001090830782496456,-0.014353400558667805,0.11517001581408885,-0.0008275124387788234,0,0,0,0,0,0,1500,1500,1500,1500,1500,1500
1747533904.5600235,0.06,0.0,-0.33,-0.001090830782496456,0.0,-0.001090830782496456,-0.014353400558667805,0.11517001581408885,-0.0008275124387788234,0,0,0,0,0,0,1500,1500,1500,1500,1500,1500
1747533904.65982,0.04,0.0,-0.32,-0.003272492347489368,0.0,-0.001090830782496456,-0.014353400558667805,0.11517001581408885,-0.0008275124387788234,0,0,0,0,0,0,1500,1500,1500,1500,1500,1500
1747533904.7483969,0.03,0.01,-0.29,-0.00545415391248228,0.002181661564992912,0.0,-0.014353400558667805,0.11517001581408885,-0.0008275124387788234,0,0,0,0,0,0,1500,1500,1500,1500,1500,1500
1747533904.843034,0.03,0.01,-0.29,-0.00545415391248228,0.002181661564992912,0.0,-0.014353400558667805,0.11517001581408885,-0.0008275124387788234,0,0,0,0,0,0,1500,1500,1500,1500,1500,1500
1747533904.9426985,0.03,0.01,-0.33,0.0,0.002181661564992912,0.0,-0.014353400558667805,0.11517001581408885,-0.0008275124387788234,0,0,0,0,0,0,1500,1500,1500,1500,1500,1500
1747533905.042435,0.03,0.01,-0.33,0.0,0.002181661564992912,0.0,-0.014353400558667805,0.11517001581408885,-0.0008275124387788234,0,0,0,0,0,0,1500,1500,1500,1500,1500,1500
1747533905.126701,0.03,0.0,-0.33,0.002181661564992912,0.0,0.0,-0.014353400558667805,0.11517001581408885,-0.0008275124387788234,0,0,0,0,0,0,1500,1500,1500,1500,1500,1500
1747533905.2264867,0.03,0.0,-0.33,0.002181661564992912,0.0,0.0,-0.014353400558667805,0.11517001581408885,-0.0008275124387788234,0,0,0,0,0,0,1500,1500,1500,1500,1500,1500
1747533905.3098218,0.04,0.02,-0.3,0.001090830782496456,-0.00545415391248228,-0.001090830782496456,-0.014353400558667805,0.11517001581408885,-0.0008275124387788234,0,0,0,0,0,0,1500,1500,1500,1500,1500,1500
1747533905.4099767,0.05,0.02,-0.37,0.0,-0.003272492347489368,0.001090830782496456,-0.014353400558667805,0.11517001581408885,-0.0008275124387788234,0,-0.003841,0,0,0,0,1463,1463,1463,1500,1500,1500
1747533905.5101314,0.05,0.02,-0.37,0.0,-0.003272492347489368,0.001090830782496456,-0.014353400558667805,0.11517001581408885,-0.0008275124387788234,0,-0.125224,0,0,0,0,1458,1459,1460,1500,1500,1500
1747533905.593228,0.03,0.0,-0.29,-0.00545415391248228,0.003272492347489368,-0.001090830782496456,-0.014353400558667805,0.11517001581408885,-0.0008275124387788234,0,-0.194868,0,0,0,0,1456,1456,1458,1500,1500,1500
1747533905.6927593,0.03,0.0,-0.29,-0.00545415391248228,0.003272492347489368,-0.001090830782496456,-0.014353400558667805,0.11517001581408885,-0.0008275124387788234,0,-0.311584,0,0,0,0,1451,1451,1454,1500,1500,1500
1747533905.793438,0.0,0.02,-0.31,0.001090830782496456,0.001090830782496456,0.001090830782496456,-0.014353400558667805,0.11517001581408885,-0.0008275124387788234,0,-0.380166,0,0,0,0,1448,1449,1452,1500,1500,1500
1747533905.8930638,0.06,-0.06,-0.37,-0.002181661564992912,-0.006544984694978736,0.001090830782496456,-0.014353400558667805,0.11517001581408885,-0.0008275124387788234,0,-0.380166,0,0,0,0,1448,1449,1452,1500,1500,1500
1747533905.9932055,0.06,-0.06,-0.37,-0.002181661564992912,-0.006544984694978736,0.001090830782496456,-0.014353400558667805,0.11517001581408885,-0.0008275124387788234,0,-0.380166,0,0,0,0,1448,1449,1452,1500,1500,1500
1747533906.076645,0.05,-0.04,-0.33,0.002181661564992912,-0.003272492347489368,0.0,-0.014353400558667805,0.11517001581408885,-0.0008275124387788234,0,-0.380166,0,0,0,0,1448,1449,1452,1500,1500,1500
1747533906.1761622,0.05,-0.04,-0.33,0.002181661564992912,-0.003272492347489368,0.0,-0.014353400558667805,0.11517001581408885,-0.0008275124387788234,0,-0.380166,0,0,0,0,1448,1449,1452,1500,1500,1500
1747533906.2768333,0.01,0.02,-0.28,0.0,-0.001090830782496456,0.0,-0.014353400558667805,0.11517001581408885,-0.0008275124387788234,0,-0.380166,0,0,0,0,1448,1449,1452,1500,1500,1500
1747533906.3600256,0.01,0.02,-0.28,0.0,-0.001090830782496456,0.0,-0.014353400558667805,0.11517001581408885,-0.0008275124387788234,0,-0.380166,0,0,0,0,1448,1449,1452,1500,1500,1500
1747533906.4596179,0.07,-0.01,-0.38,-0.002181661564992912,0.003272492347489368,0.002181661564992912,-0.014353400558667805,0.11517001581408885,-0.0008275124387788234,0,-0.380166,0,0,0,0,1448,1449,1452,1500,1500,1500
1747533906.5600786,0.06,0.01,-0.27,-0.001090830782496456,0.001090830782496456,-0.002181661564992912,-0.014353400558667805,0.11517001581408885,-0.0008275124387788234,0,-0.380166,0,0,0,0,1448,1449,1452,1500,1500,1500
1747533906.6598396,0.06,0.01,-0.27,-0.001090830782496456,0.001090830782496456,-0.002181661564992912,-0.014353400558667805,0.11517001581408885,-0.0008275124387788234,0,-0.380166,0,0,0,0,1448,1449,1452,1500,1500,1500
1747533906.7599473,0.02,0.0,-0.32,0.0,-0.004363323129985824,0.0,-0.014353400558667805,0.11517001581408885,-0.0008275124387788234,0,-0.380166,0,0,0,0,1448,1449,1452,1500,1500,1500
1747533906.843273,0.01,-0.04,-0.38,0.001090830782496456,0.0,-0.002181661564992912,-0.014353400558667805,0.11517001581408885,-0.0008275124387788234,0,-0.146734,0,0,0,0,1458,1458,1459,1500,1500,1500
1747533906.9431813,0.01,-0.04,-0.38,0.001090830782496456,0.0,-0.002181661564992912,-0.014353400558667805,0.11517001581408885,-0.0008275124387788234,0,-0.070916,0,0,0,0,1461,1461,1461,1500,1500,1500
1747533907.043318,0.04,0.01,-0.31,-0.002181661564992912,0.002181661564992912,0.001090830782496456,-0.014353400558667805,0.11517001581408885,-0.0008275124387788234,0,-0.070916,0,0,0,0,1461,1461,1461,1500,1500,1500
1747533907.1443062,0.04,0.01,-0.31,-0.002181661564992912,0.002181661564992912,0.001090830782496456,-0.014353400558667805,0.11517001581408885,-0.0008275124387788234,0,-0.070916,0,0,0,0,1461,1461,1461,1500,1500,1500
1747533907.2427099,0.01,-0.04,-0.27,0.001090830782496456,0.002181661564992912,0.0,-0.014353400558667805,0.11517001581408885,-0.0008275124387788234,0,-0.043231,0,0,0,0,1462,1462,1462,1500,1500,1500
1747533907.3258529,0.05,0.04,-0.36,0.001090830782496456,-0.001090830782496456,0.001090830782496456,-0.014353400558667805,0.11517001581408885,-0.0008275124387788234,0,-0.043231,0,0,0,0,1462,1462,1462,1500,1500,1500
1747533907.426102,0.05,0.04,-0.36,0.001090830782496456,-0.001090830782496456,0.001090830782496456,-0.014353400558667805,0.11517001581408885,-0.0008275124387788234,0,-0.043231,0,0,0,0,1462,1462,1462,1500,1500,1500
1747533907.5263133,0.01,0.03,-0.27,-0.001090830782496456,-0.00545415391248228,-0.002181661564992912,-0.014353400558667805,0.11517001581408885,-0.0008275124387788234,0,-0.043231,0,0,0,0,1462,1462,1462,1500,1500,1500
1747533907.6263273,0.01,0.03,-0.27,-0.001090830782496456,-0.00545415391248228,-0.002181661564992912,-0.014353400558667805,0.11517001581408885,-0.0008275124387788234,0,-0.043231,0,0,0,0,1462,1462,1462,1500,1500,1500
1747533907.7262902,0.08,0.06,-0.35000000000000003,-0.003272492347489368,-0.002181661564992912,0.0,-0.014353400558667805,0.11517001581408885,-0.0008275124387788234,0,-0.043231,0,0,0,0,1462,1462,1462,1500,1500,1500
1747533907.8084764,0.0,-0.04,-0.34,0.0,0.001090830782496456,0.0,-0.014353400558667805,0.11517001581408885,-0.0008275124387788234,0,-0.043231,0,0,0,0,1462,1462,1462,1500,1500,1500
1747533907.9099324,0.0,-0.04,-0.34,0.0,0.001090830782496456,0.0,-0.014353400558667805,0.11517001581408885,-0.0008275124387788234,0,-0.043231,0,0,0,0,1462,1462,1462,1500,1500,1500
1747533908.0099916,0.06,0.02,-0.31,-0.003272492347489368,-0.001090830782496456,0.003272492347489368,-0.014353400558667805,0.11517001581408885,-0.0008275124387788234,0,-0.043231,0,0,0,0,1462,1462,1462,1500,1500,1500
1747533908.092803,0.06,0.02,-0.31,-0.003272492347489368,-0.001090830782496456,0.003272492347489368,-0.014353400558667805,0.11517001581408885,-0.0008275124387788234,0,-0.043231,0,0,0,0,1462,1462,1462,1500,1500,1500
1747533908.1925302,0.04,-0.01,-0.33,0.003272492347489368,0.0,-0.002181661564992912,-0.014353400558667805,0.11517001581408885,-0.0008275124387788234,0,-0.043231,0,0,0,0,1462,1462,1462,1500,1500,1500
1747533908.2922044,0.04,-0.01,-0.33,0.003272492347489368,0.0,-0.002181661564992912,-0.014353400558667805,0.11517001581408885,-0.0008275124387788234,0,-0.031945,0,0,0,0,1462,1462,1463,1500,1500,1500
1747533908.3764036,0.05,-0.01,-0.31,-0.002181661564992912,0.003272492347489368,0.001090830782496456,-0.014353400558667805,0.11517001581408885,-0.0008275124387788234,0,-0.031945,0,0,0,0,1462,1462,1463,1500,1500,1500
1747533908.47647,0.02,0.16,-0.26,0.0,-0.002181661564992912,0.002181661564992912,-0.014353400558667805,0.11517001581408885,-0.0008275124387788234,0,-0.031945,0,0,0,0,1462,1462,1463,1500,1500,1500
1747533908.5758054,0.02,0.16,-0.26,0.0,-0.002181661564992912,0.002181661564992912,-0.014353400558667805,0.11517001581408885,-0.0008275124387788234,0,-0.031945,0,0,0,0,1462,1462,1463,1500,1500,1500
1747533908.6762967,0.03,0.0,-0.39,-0.003272492347489368,0.001090830782496456,0.001090830782496456,-0.014353400558667805,0.11517001581408885,-0.0008275124387788234,0,-0.031945,0,0,0,0,1462,1462,1463,1500,1500,1500
1747533908.7748373,0.0,0.01,-0.33,-0.004363323129985824,-0.002181661564992912,0.001090830782496456,-0.014353400558667805,0.11517001581408885,-0.0008275124387788234,0,-0.031945,0,0,0,0,1462,1462,1463,1500,1500,1500
1747533908.8610234,0.0,0.01,-0.33,-0.004363323129985824,-0.002181661564992912,0.001090830782496456,-0.014353400558667805,0.11517001581408885,-0.0008275124387788234,0,-0.031945,0,0,0,0,1462,1462,1463,1500,1500,1500
1747533908.9597304,0.05,-0.06,-0.22,-0.002181661564992912,-0.003272492347489368,0.0,-0.014353400558667805,0.11517001581408885,-0.0008275124387788234,0,-0.031945,0,0,0,0,1462,1462,1463,1500,1500,1500
1747533909.0597243,0.05,-0.06,-0.22,-0.002181661564992912,-0.003272492347489368,0.0,-0.014353400558667805,0.11517001581408885,-0.0008275124387788234,0,-0.031945,0,0,0,0,1462,1462,1463,1500,1500,1500
1747533909.1594026,0.03,0.01,-0.34,-0.004363323129985824,-0.002181661564992912,0.001090830782496456,-0.014353400558667805,0.11517001581408885,-0.0008275124387788234,0,-0.022363,0,0,0,0,1463,1463,1463,1500,1500,1500
1747533909.2585769,0.03,0.01,-0.34,-0.004363323129985824,-0.002181661564992912,0.001090830782496456,-0.014353400558667805,0.11517001581408885,-0.0008275124387788234,0,-0.022363,0,0,0,0,1463,1463,1463,1500,1500,1500
1747533909.3421211,0.01,0.02,-0.32,-0.002181661564992912,0.003272492347489368,0.0,-0.014353400558667805,0.11517001581408885,-0.0008275124387788234,0,-0.022363,0,0,0,0,1463,1463,1463,1500,1500,1500
1747533909.442154,0.08,-0.01,-0.34,-0.002181661564992912,-0.003272492347489368,0.001090830782496456,-0.014353400558667805,0.11517001581408885,-0.0008275124387788234,0,-0.022363,0,0,0,0,1463,1463,1463,1500,1500,1500
1747533909.5426335,0.08,-0.01,-0.34,-0.002181661564992912,-0.003272492347489368,0.001090830782496456,-0.014353400558667805,0.11517001581408885,-0.0008275124387788234,0,-0.022363,0,0,0,0,1463,1463,1463,1500,1500,1500
1747533909.6261237,0.04,0.0,-0.28,-0.001090830782496456,0.003272492347489368,-0.001090830782496456,-0.014353400558667805,0.11517001581408885,-0.0008275124387788234,0,-0.022363,0,0,0,0,1463,1463,1463,1500,1500,1500
1747533909.7257855,0.04,0.0,-0.28,-0.001090830782496456,0.003272492347489368,-0.001090830782496456,-0.014353400558667805,0.11517001581408885,-0.0008275124387788234,0,-0.022363,0,0,0,0,1463,1463,1463,1500,1500,1500
1747533909.808573,0.01,0.01,-0.36,0.0,-0.001090830782496456,-0.002181661564992912,-0.014353400558667805,0.11517001581408885,-0.0008275124387788234,0,-0.022363,0,0,0,0,1463,1463,1463,1500,1500,1500
1747533909.905198,0.03,-0.01,-0.32,-0.001090830782496456,0.006544984694978736,0.0,-0.014353400558667805,0.11517001581408885,-0.0008275124387788234,0,-0.022363,0,0,0,0,1463,1463,1463,1500,1500,1500
1747533910.0099597,0.03,-0.01,-0.32,-0.001090830782496456,0.006544984694978736,0.0,-0.014353400558667805,0.11517001581408885,-0.0008275124387788234,0,-0.008311,0,0,0,0,1463,1463,1463,1500,1500,1500
1747533910.0931957,0.07,-0.01,-0.36,-0.002181661564992912,-0.003272492347489368,0.001090830782496456,-0.014353400558667805,0.11517001581408885,-0.0008275124387788234,0,-0.008311,0,0,0,0,1463,1463,1463,1500,1500,1500
1747533910.1948142,0.07,-0.01,-0.36,-0.002181661564992912,-0.003272492347489368,0.001090830782496456,-0.014353400558667805,0.11517001581408885,-0.0008275124387788234,0,-0.008311,0,0,0,0,1463,1463,1463,1500,1500,1500
1747533910.293184,0.05,-0.03,-0.23,0.001090830782496456,-0.002181661564992912,0.001090830782496456,-0.014353400558667805,0.11517001581408885,-0.0008275124387788234,0,-0.008311,0,0,0,0,1463,1463,1463,1500,1500,1500
1747533910.3932495,0.09,0.01,-0.25,0.001090830782496456,0.001090830782496456,0.002181661564992912,-0.014353400558667805,0.11517001581408885,-0.0008275124387788234,0,-0.008311,0,0,0,0,1463,1463,1463,1500,1500,1500
1747533910.4940875,0.09,0.01,-0.25,0.001090830782496456,0.001090830782496456,0.002181661564992912,-0.014353400558667805,0.11517001581408885,-0.0008275124387788234,0,-0.008311,0,0,0,0,1463,1463,1463,1500,1500,1500
1747533910.5769823,-0.03,0.01,-0.35000000000000003,0.001090830782496456,-0.001090830782496456,0.00545415391248228,-0.014353400558667805,0.11517001581408885,-0.0008275124387788234,0,-0.008311,0,0,0,0,1463,1463,1463,1500,1500,1500
1747533910.6778612,-0.03,0.01,-0.35000000000000003,0.001090830782496456,-0.001090830782496456,0.00545415391248228,-0.014353400558667805,0.11517001581408885,-0.0008275124387788234,0,-0.008311,0,0,0,0,1463,1463,1463,1500,1500,1500
1747533910.7769663,0.03,-0.05,-0.3,-0.001090830782496456,0.001090830782496456,-0.001090830782496456,-0.014353400558667805,0.11517001581408885,-0.0008275124387788234,0,-0.008311,0,0,0,0,1463,1463,1463,1500,1500,1500
1747533910.8603497,0.03,-0.05,-0.3,-0.001090830782496456,0.001090830782496456,-0.001090830782496456,-0.014353400558667805,0.11517001581408885,-0.0008275124387788234,0,-0.008311,0,0,0,0,1463,1463,1463,1500,1500,1500
1747533910.9608395,0.1,0.0,-0.3,0.003272492347489368,-0.003272492347489368,0.0,-0.014353400558667805,0.11517001581408885,-0.0008275124387788234,0,-0.008311,0,0,0,0,1463,1463,1463,1500,1500,1500
1747533911.0595489,0.02,-0.01,-0.33,0.002181661564992912,0.007635815477475192,0.0,-0.014353400558667805,0.11517001581408885,-0.0008275124387788234,0,-0.008311,0,0,0,0,1463,1463,1463,1500,1500,1500
1747533911.1604817,0.02,-0.01,-0.33,0.002181661564992912,0.007635815477475192,0.0,-0.014353400558667805,0.11517001581408885,-0.0008275124387788234,0,-0.008311,0,0,0,0,1463,1463,1463,1500,1500,1500
1747533911.2598095,0.04,-0.02,-0.26,0.002181661564992912,-0.002181661564992912,-0.001090830782496456,-0.014353400558667805,0.11517001581408885,-0.0008275124387788234,0,-0.008311,0,0,0,0,1463,1463,1463,1500,1500,1500
1747533911.34268,0.04,-0.02,-0.26,0.002181661564992912,-0.002181661564992912,-0.001090830782496456,-0.014353400558667805,0.11517001581408885,-0.0008275124387788234,0,-0.008311,0,0,0,0,1463,1463,1463,1500,1500,1500
1747533911.4431016,0.06,0.01,-0.38,0.002181661564992912,0.0,0.001090830782496456,-0.014353400558667805,0.11517001581408885,-0.0008275124387788234,0,-0.008311,0,0,0,0,1463,1463,1463,1500,1500,1500
1747533911.5423775,0.03,-0.02,-0.28,0.0,-0.001090830782496456,0.002181661564992912,-0.014353400558667805,0.11517001581408885,-0.0008275124387788234,0,-0.008311,0,0,0,0,1463,1463,1463,1500,1500,1500
1747533911.6271598,0.03,-0.02,-0.28,0.0,-0.001090830782496456,0.002181661564992912,-0.014353400558667805,0.11517001581408885,-0.0008275124387788234,0,-0.008311,0,0,0,0,1463,1463,1463,1500,1500,1500
1747533911.7262573,0.04,0.0,-0.29,0.001090830782496456,-0.001090830782496456,0.0,-0.014353400558667805,0.11517001581408885,-0.0008275124387788234,0,-0.008311,0,0,0,0,1463,1463,1463,1500,1500,1500
1747533911.8096075,0.04,0.0,-0.29,0.001090830782496456,-0.001090830782496456,0.0,-0.014353400558667805,0.11517001581408885,-0.0008275124387788234,0,-0.008311,0,0,0,0,1463,1463,1463,1500,1500,1500
1747533911.9100866,0.08,0.03,-0.31,0.003272492347489368,-0.006544984694978736,-0.001090830782496456,-0.014353400558667805,0.11517001581408885,-0.0008275124387788234,0,-0.008311,0,0,0,0,1463,1463,1463,1500,1500,1500
1747533912.0100896,0.05,-0.01,-0.31,-0.002181661564992912,-0.001090830782496456,0.0,-0.014353400558667805,0.11517001581408885,-0.0008275124387788234,0,-0.003841,0,0,0,0,1463,1463,1463,1500,1500,1500
1747533912.0921915,0.05,-0.01,-0.31,-0.002181661564992912,-0.001090830782496456,0.0,-0.014353400558667805,0.11517001581408885,-0.0008275124387788234,0,-0.003841,0,0,0,0,1463,1463,1463,1500,1500,1500
1747533912.1934857,-0.01,0.01,-0.34,0.0,0.007635815477475192,0.0,-0.014353400558667805,0.11517001581408885,-0.0008275124387788234,0,-0.003841,0,0,0,0,1463,1463,1463,1500,1500,1500
1747533912.292365,-0.01,0.01,-0.34,0.0,0.007635815477475192,0.0,-0.014353400558667805,0.11517001581408885,-0.0008275124387788234,0,-0.003841,0,0,0,0,1463,1463,1463,1500,1500,1500
1747533912.3927906,0.05,0.02,-0.35000000000000003,-0.001090830782496456,-0.003272492347489368,-0.001090830782496456,-0.014353400558667805,0.11517001581408885,-0.0008275124387788234,0,-0.003841,0,0,0,0,1463,1463,1463,1500,1500,1500
1747533912.4932325,0.09,0.0,-0.28,0.0,0.001090830782496456,0.001090830782496456,-0.014353400558667805,0.11517001581408885,-0.0008275124387788234,0,-0.003841,0,0,0,0,1463,1463,1463,1500,1500,1500
1747533912.575818,0.09,0.0,-0.28,0.0,0.001090830782496456,0.001090830782496456,-0.014353400558667805,0.11517001581408885,-0.0008275124387788234,0,-0.003841,0,0,0,0,1463,1463,1463,1500,1500,1500
1747533912.675511,0.05,0.01,-0.26,0.0,0.0,0.0,-0.014353400558667805,0.11517001581408885,-0.0008275124387788234,0,-0.003841,0,0,0,0,1463,1463,1463,1500,1500,1500
1747533912.775315,0.05,0.01,-0.26,0.0,0.0,0.0,-0.014353400558667805,0.11517001581408885,-0.0008275124387788234,0,-0.003841,0,0,0,0,1463,1463,1463,1500,1500,1500
1747533912.8596,0.03,0.0,-0.26,-0.002181661564992912,0.00545415391248228,0.001090830782496456,-0.014353400558667805,0.11517001581408885,-0.0008275124387788234,0,0,0,0,0,0,1500,1500,1500,1500,1500,1500
1747533912.959957,0.03,0.0,-0.26,-0.002181661564992912,0.00545415391248228,0.001090830782496456,-0.014353400558667805,0.11517001581408885,-0.0008275124387788234,0,0,0,0,0,0,1500,1500,1500,1500,1500,1500
1747533913.0597985,0.06,0.06,-0.33,0.0,-0.001090830782496456,0.0,-0.014353400558667805,0.11517001581408885,-0.0008275124387788234,0,0,0,0,0,0,1500,1500,1500,1500,1500,1500
1747533913.1601295,0.0,0.0,-0.25,0.002181661564992912,-0.001090830782496456,0.0,-0.014353400558667805,0.11517001581408885,-0.0008275124387788234,0,0,0,0,0,0,1500,1500,1500,1500,1500,1500
1747533913.2598865,0.0,0.0,-0.25,0.002181661564992912,-0.001090830782496456,0.0,-0.014353400558667805,0.11517001581408885,-0.0008275124387788234,0,0,0,0,0,0,1500,1500,1500,1500,1500,1500
1747533913.3428526,0.02,0.02,-0.33,0.002181661564992912,-0.002181661564992912,0.001090830782496456,-0.014353400558667805,0.11517001581408885,-0.0008275124387788234,0,0,0,0,0,0,1500,1500,1500,1500,1500,1500
1747533913.4427075,0.02,0.02,-0.33,0.002181661564992912,-0.002181661564992912,0.001090830782496456,-0.014353400558667805,0.11517001581408885,-0.0008275124387788234,0,0,0,0,0,0,1500,1500,1500,1500,1500,1500
1747533913.542507,0.05,0.0,-0.35000000000000003,-0.001090830782496456,0.002181661564992912,0.001090830782496456,-0.014353400558667805,0.11517001581408885,-0.0008275124387788234,0,0,0,0,0,0,1500,1500,1500,1500,1500,1500
1747533913.6259134,0.03,0.0,-0.31,0.001090830782496456,0.002181661564992912,0.0,-0.014353400558667805,0.11517001581408885,-0.0008275124387788234,0,0,0,0,0,0,1500,1500,1500,1500,1500,1500
1747533913.7260306,0.03,0.0,-0.31,0.001090830782496456,0.002181661564992912,0.0,-0.014353400558667805,0.11517001581408885,-0.0008275124387788234,0,0,0,0,0,0,1500,1500,1500,1500,1500,1500
1747533913.8099222,0.05,0.01,-0.36,0.002181661564992912,-0.001090830782496456,0.001090830782496456,-0.014353400558667805,0.11517001581408885,-0.0008275124387788234,0,0,0,0,0,0,1500,1500,1500,1500,1500,1500
1747533913.9094732,0.05,0.01,-0.36,0.002181661564992912,-0.001090830782496456,0.001090830782496456,-0.014353400558667805,0.11517001581408885,-0.0008275124387788234,0,0,0,0,0,0,1500,1500,1500,1500,1500,1500
1747533914.0097435,0.02,-0.02,-0.32,0.001090830782496456,-0.003272492347489368,-0.001090830782496456,-0.014353400558667805,0.11517001581408885,-0.0008275124387788234,0,0,0,0,0,0,1500,1500,1500,1500,1500,1500
1747533914.0925834,0.02,-0.02,-0.32,0.001090830782496456,-0.003272492347489368,-0.001090830782496456,-0.014353400558667805,0.11517001581408885,-0.0008275124387788234,0,0,0,0,0,0,1500,1500,1500,1500,1500,1500
1747533914.1927183,0.04,0.0,-0.28,-0.001090830782496456,0.001090830782496456,0.0,-0.014353400558667805,0.11517001581408885,-0.0008275124387788234,0,0,0,0,0,0,1500,1500,1500,1500,1500,1500
1747533914.2929852,0.05,0.01,-0.29,0.001090830782496456,0.004363323129985824,-0.001090830782496456,-0.014353400558667805,0.11517001581408885,-0.0008275124387788234,0,0,0,0,0,0,1500,1500,1500,1500,1500,1500
1747533914.3943563,0.05,0.01,-0.29,0.001090830782496456,0.004363323129985824,-0.001090830782496456,-0.014353400558667805,0.11517001581408885,-0.0008275124387788234,0,0,0,0,0,0,1500,1500,1500,1500,1500,1500
1747533914.4929402,0.04,0.0,-0.34,-0.003272492347489368,-0.002181661564992912,0.001090830782496456,-0.014353400558667805,0.11517001581408885,-0.0008275124387788234,0,0,0,0,0,0,1500,1500,1500,1500,1500,1500
1747533914.5764387,0.04,0.0,-0.34,-0.003272492347489368,-0.002181661564992912,0.001090830782496456,-0.014353400558667805,0.11517001581408885,-0.0008275124387788234,0,0,0,0,0,0,1500,1500,1500,1500,1500,1500
1747533914.6771052,0.03,-0.01,-0.32,0.001090830782496456,-0.002181661564992912,0.003272492347489368,-0.014353400558667805,0.11517001581408885,-0.0008275124387788234,0,0,0,0,0,0,1500,1500,1500,1500,1500,1500
1747533914.775451,0.02,0.01,-0.33,0.001090830782496456,-0.003272492347489368,0.0,-0.014353400558667805,0.11517001581408885,-0.0008275124387788234,0,0,0,0,0,0,1500,1500,1500,1500,1500,1500
1747533914.8584545,0.02,0.01,-0.33,0.001090830782496456,-0.003272492347489368,0.0,-0.014353400558667805,0.11517001581408885,-0.0008275124387788234,0,0,0,0,0,0,1500,1500,1500,1500,1500,1500
1747533914.959905,0.03,0.0,-0.34,-0.001090830782496456,-0.001090830782496456,0.001090830782496456,-0.014353400558667805,0.11517001581408885,-0.0008275124387788234,0,0,0,0,0,0,1500,1500,1500,1500,1500,1500
1747533915.0598598,0.03,0.0,-0.34,-0.001090830782496456,-0.001090830782496456,0.001090830782496456,-0.014353400558667805,0.11517001581408885,-0.0008275124387788234,0,0,0,0,0,0,1500,1500,1500,1500,1500,1500
1747533915.1600242,0.03,0.0,-0.3,0.0,0.0,0.0,-0.014353400558667805,0.11517001581408885,-0.0008275124387788234,0,0,0,0,0,0,1500,1500,1500,1500,1500,1500
1747533915.2584832,0.05,0.01,-0.28,0.0,0.0,-0.001090830782496456,-0.014353400558667805,0.11517001581408885,-0.0008275124387788234,0,0,0,0,0,0,1500,1500,1500,1500,1500,1500
1747533915.3430383,0.05,0.01,-0.28,0.0,0.0,-0.001090830782496456,-0.014353400558667805,0.11517001581408885,-0.0008275124387788234,0,0,0,0,0,0,1500,1500,1500,1500,1500,1500
1747533915.4426312,0.04,0.02,-0.35000000000000003,0.004363323129985824,-0.002181661564992912,0.0,-0.014353400558667805,0.11517001581408885,-0.0008275124387788234,0,0,0.00774,0,0,0,1463,1463,1536,1500,1463,1463
1747533915.5432053,0.04,0.02,-0.35000000000000003,0.004363323129985824,-0.002181661564992912,0.0,-0.014353400558667805,0.11517001581408885,-0.0008275124387788234,0,0,0.00774,0,0,0,1463,1463,1536,1500,1463,1463
1747533915.6428137,0.04,0.0,-0.31,-0.002181661564992912,-0.001090830782496456,0.001090830782496456,-0.014353400558667805,0.11517001581408885,-0.0008275124387788234,0,0,0.00774,0,0,0,1463,1463,1536,1500,1463,1463
1747533915.7443562,0.09,0.42,-0.48,-0.006544984694978736,0.001090830782496456,0.002181661564992912,-0.014598774946232391,0.11517001581408885,-0.0008416579439286171,0,0,0.131579,0,0,0,1463,1463,1536,1500,1456,1457
1747533915.8259106,0.09,0.42,-0.48,-0.006544984694978736,0.001090830782496456,0.002181661564992912,-0.014598774946232391,0.11517001581408885,-0.0008416579439286171,0,0,0,0,0,0,1500,1500,1500,1500,1496,1497
1747533915.925531,-0.13,-0.15,-0.26,0.001090830782496456,0.008726646259971648,-0.003272492347489368,-0.014598774946232391,0.11517001581408885,-0.0008416579439286171,0,0,0,0,0,0,1500,1500,1500,1500,1500,1500
1747533916.0251737,-0.13,-0.15,-0.26,0.001090830782496456,0.008726646259971648,-0.003272492347489368,-0.014598774946232391,0.11517001581408885,-0.0008416579439286171,0,0,0,0,0,0,1500,1500,1500,1500,1500,1500
1747533916.1098027,0.22,-0.01,-0.31,-0.002181661564992912,0.001090830782496456,0.002181661564992912,-0.014475882991574776,0.11504734230223713,-0.0008336883730964216,0,0,0,0,0,0,1500,1500,1500,1500,1500,1500
1747533916.2098727,0.09,0.08,-0.3,0.003272492347489368,-0.001090830782496456,0.001090830782496456,-0.014598568558858082,0.11504734230223713,-0.0008407535254852036,0,0,0,0,0,0,1500,1500,1500,1500,1500,1500
1747533916.3098655,0.09,0.08,-0.3,0.003272492347489368,-0.001090830782496456,0.001090830782496456,-0.014598568558858082,0.11504734230223713,-0.0008407535254852036,0,0,0,0,0,0,1500,1500,1500,1500,1500,1500
1747533916.4096909,0.01,0.0,-0.36,-0.001090830782496456,0.001090830782496456,-0.001090830782496456,-0.014598568558858082,0.11504734230223713,-0.0008407535254852036,0,0,0,0,0,0,1500,1500,1500,1500,1500,1500
1747533916.51021,0.01,0.0,-0.36,-0.001090830782496456,0.001090830782496456,-0.001090830782496456,-0.014598568558858082,0.11504734230223713,-0.0008407535254852036,0,0,0,0,0,0,1500,1500,1500,1500,1500,1500
1747533916.59297,0.13,-0.02,-0.31,-0.001090830782496456,0.002181661564992912,0.002181661564992912,-0.014475882991574776,0.11504734230223713,-0.0008336883730964216,0,0,0,0,0,0,1500,1500,1500,1500,1500,1500
1747533916.6927927,0.01,-0.01,-0.3,0.001090830782496456,-0.001090830782496456,0.001090830782496456,-0.014598568558858082,0.11504734230223713,-0.0008407535254852036,0,0,0,0,0,0,1500,1500,1500,1500,1500,1500
1747533916.792976,0.01,-0.01,-0.3,0.001090830782496456,-0.001090830782496456,0.001090830782496456,-0.014598568558858082,0.11504734230223713,-0.0008407535254852036,0,0,0,0,0,0,1500,1500,1500,1500,1500,1500
1747533916.8930414,0.01,0.0,-0.37,0.0,0.0,0.0,-0.014598568558858082,0.11504734230223713,-0.0008407535254852036,0,0,0,0,0,0,1500,1500,1500,1500,1500,1500
1747533916.992346,0.01,0.0,-0.37,0.0,0.0,0.0,-0.014598568558858082,0.11504734230223713,-0.0008407535254852036,0,0,0,0,0,0,1500,1500,1500,1500,1500,1500
1747533917.0753253,0.05,0.01,-0.28,-0.002181661564992912,-0.002181661564992912,-0.001090830782496456,-0.014598568558858082,0.11504734230223713,-0.0008407535254852036,0,0,0,0,0,0,1500,1500,1500,1500,1500,1500
1747533917.175939,0.04,-0.01,-0.37,-0.001090830782496456,0.002181661564992912,-0.002181661564992912,-0.014598568558858082,0.11504734230223713,-0.0008407535254852036,0,0,0,0,0,0,1500,1500,1500,1500,1500,1500
1747533917.2775605,0.04,-0.01,-0.37,-0.001090830782496456,0.002181661564992912,-0.002181661564992912,-0.014598568558858082,0.11504734230223713,-0.0008407535254852036,0,0,0,0,0,0,1500,1500,1500,1500,1500,1500
1747533917.3762,0.04,0.0,-0.34,-0.004363323129985824,-0.001090830782496456,0.001090830782496456,-0.014598568558858082,0.11504734230223713,-0.0008407535254852036,0,0,0,0,0,0,1500,1500,1500,1500,1500,1500
1747533917.4754841,0.04,0.0,-0.34,-0.004363323129985824,-0.001090830782496456,0.001090830782496456,-0.014598568558858082,0.11504734230223713,-0.0008407535254852036,0,0,0,0,0,0,1500,1500,1500,1500,1500,1500
1747533917.5760913,0.02,0.02,-0.28,0.0,0.0,-0.002181661564992912,-0.014598568558858082,0.11504734230223713,-0.0008407535254852036,0,0,0,0,0,0,1500,1500,1500,1500,1500,1500
1747533917.6753836,0.04,0.0,-0.33,-0.004363323129985824,-0.002181661564992912,0.003272492347489368,-0.014598568558858082,0.11504734230223713,-0.0008407535254852036,0,0,0,0,0,0,1500,1500,1500,1500,1500,1500
1747533917.7762883,0.04,0.0,-0.33,-0.004363323129985824,-0.002181661564992912,0.003272492347489368,-0.014598568558858082,0.11504734230223713,-0.0008407535254852036,0,0,0,0,0,0,1500,1500,1500,1500,1500,1500
1747533917.8591132,0.02,-0.01,-0.3,0.00545415391248228,0.0,-0.002181661564992912,-0.014598568558858082,0.11504734230223713,-0.0008407535254852036,0,0,0,0,0,0,1500,1500,1500,1500,1500,1500
1747533917.9591696,0.02,-0.01,-0.3,0.00545415391248228,0.0,-0.002181661564992912,-0.014598568558858082,0.11504734230223713,-0.0008407535254852036,0,0,0,0,0,0,1500,1500,1500,1500,1500,1500
1747533918.0597794,0.04,-0.01,-0.27,-0.002181661564992912,0.003272492347489368,0.001090830782496456,-0.014598568558858082,0.11504734230223713,-0.0008407535254852036,0,0,0,0,0,0,1500,1500,1500,1500,1500,1500
1747533918.1597602,0.04,0.03,-0.36,-0.002181661564992912,0.001090830782496456,-0.002181661564992912,-0.014598568558858082,0.11504734230223713,-0.0008407535254852036,0,0,0,0,0,0,1500,1500,1500,1500,1500,1500
1747533918.2589397,0.04,0.03,-0.36,-0.002181661564992912,0.001090830782496456,-0.002181661564992912,-0.014598568558858082,0.11504734230223713,-0.0008407535254852036,0,0,0,0,0,0,1500,1500,1500,1500,1500,1500
1747533918.3425093,0.03,-0.01,-0.32,0.002181661564992912,-0.002181661564992912,-0.001090830782496456,-0.014598568558858082,0.11504734230223713,-0.0008407535254852036,0,0,0,0,0,0,1500,1500,1500,1500,1500,1500
1747533918.4443095,0.03,-0.01,-0.32,0.002181661564992912,-0.002181661564992912,-0.001090830782496456,-0.014598568558858082,0.11504734230223713,-0.0008407535254852036,0,0,0,0,0,0,1500,1500,1500,1500,1500,1500
1747533918.5432656,0.04,0.0,-0.28,-0.003272492347489368,0.001090830782496456,0.0,-0.014598568558858082,0.11504734230223713,-0.0008407535254852036,0,0,0,0,0,0,1500,1500,1500,1500,1500,1500
1747533918.64318,0.04,0.0,-0.29,-0.001090830782496456,0.003272492347489368,-0.001090830782496456,-0.014598568558858082,0.11504734230223713,-0.0008407535254852036,0,0,0,0,0,0,1500,1500,1500,1500,1500,1500
1747533918.745811,0.04,0.0,-0.29,-0.001090830782496456,0.003272492347489368,-0.001090830782496456,-0.014598568558858082,0.11504734230223713,-0.0008407535254852036,0,0,0.069659,0,0,0,1463,1463,1536,1500,1460,1460
1747533918.844676,0.05,-0.01,-0.36,0.001090830782496456,-0.002181661564992912,0.0,-0.014598568558858082,0.11504734230223713,-0.0008407535254852036,0,0,0.255418,0,0,0,1463,1463,1536,1500,1449,1450
1747533918.9406872,0.02,0.02,-0.28,0.002181661564992912,0.001090830782496456,0.0,-0.014598568558858082,0.11504734230223713,-0.0008407535254852036,0,0,0.379257,0,0,0,1463,1463,1536,1500,1442,1444
1747533919.045275,0.02,0.02,-0.28,0.002181661564992912,0.001090830782496456,0.0,-0.014598568558858082,0.11504734230223713,-0.0008407535254852036,0,0,0.472136,0,0,0,1463,1463,1537,1500,1436,1439
1747533919.1433372,0.28,0.45,-0.46,0.002181661564992912,0.003272492347489368,0.0,-0.014483408472026438,0.11480816545392152,-0.0009545715279737917,0,0,0.657895,0,0,0,1463,1463,1537,1500,1426,1429
1747533919.2419622,0.28,0.45,-0.46,0.002181661564992912,0.003272492347489368,0.0,-0.014483408472026438,0.11480816545392152,-0.0009545715279737917,0,0,0,0,0,0,1500,1500,1500,1500,1466,1469
1747533919.3262177,0.12,0.0,-0.31,0.004363323129985824,0.001090830782496456,-0.001090830782496456,-0.014115340990375416,0.11480818795378492,-0.0009334216727164786,0,0,0,0,0,0,1500,1500,1500,1500,1500,1500
1747533919.4236746,0.33,-0.48,-0.14,-0.004363323129985824,-0.00545415391248228,0.009817477042468103,-0.014367986011965551,0.11492997307006331,-0.0010710908492507277,0,0,0,0,0,0,1500,1500,1500,1500,1500,1500
1747533919.5257256,0.33,-0.48,-0.14,-0.004363323129985824,-0.00545415391248228,0.009817477042468103,-0.014367986011965551,0.11492997307006331,-0.0010710908492507277,0,0,0,0,0,0,1500,1500,1500,1500,1500,1500
1747533919.6084635,0.06,0.07,-0.35000000000000003,0.004363323129985824,-0.00545415391248228,0.003272492347489368,-0.014245295133801085,0.11492998807018304,-0.001064033299580995,0,0,0,0,0,0,1500,1500,1500,1500,1500,1500
1747533919.709573,0.06,0.07,-0.35000000000000003,0.004363323129985824,-0.00545415391248228,0.003272492347489368,-0.014245295133801085,0.11492998807018304,-0.001064033299580995,0,0,0,0,0,0,1500,1500,1500,1500,1500,1500
1747533919.8096182,-0.04,-0.13,-0.26,0.001090830782496456,0.003272492347489368,-0.001090830782496456,-0.01424507917802252,0.11480731045915533,-0.00106314829497478,0,0,0,0,0,0,1500,1500,1500,1500,1500,1500
1747533919.909821,0.04,-0.04,-0.28,0.00545415391248228,0.002181661564992912,0.002181661564992912,-0.01436776832554181,0.11480729545924791,-0.0010701982451471167,0,0,0,0,0,0,1500,1500,1500,1500,1500,1500
1747533920.0096686,0.04,-0.04,-0.28,0.00545415391248228,0.002181661564992912,0.002181661564992912,-0.01436776832554181,0.11480729545924791,-0.0010701982451471167,0,0,0,0,0,0,1500,1500,1500,1500,1500,1500
1747533920.0921347,0.04,0.06,-0.32,-0.001090830782496456,0.002181661564992912,0.001090830782496456,-0.01436776832554181,0.11480729545924791,-0.0010701982451471167,0,0,0,0,0,0,1500,1500,1500,1500,1500,1500
1747533920.1922078,0.04,0.06,-0.32,-0.001090830782496456,0.002181661564992912,0.001090830782496456,-0.01436776832554181,0.11480729545924791,-0.0010701982451471167,0,0,0,0,0,0,1500,1500,1500,1500,1500,1500
1747533920.2922444,0.03,-0.03,-0.34,-0.00545415391248228,0.002181661564992912,-0.001090830782496456,-0.01436776832554181,0.11480729545924791,-0.0010701982451471167,0,0,0,0,0,0,1500,1500,1500,1500,1500,1500
1747533920.3752658,0.03,-0.03,-0.34,-0.00545415391248228,0.002181661564992912,-0.001090830782496456,-0.01436776832554181,0.11480729545924791,-0.0010701982451471167,0,0,0,0,0,0,1500,1500,1500,1500,1500,1500
1747533920.475615,0.02,0.0,-0.27,0.0,-0.002181661564992912,0.002181661564992912,-0.01436776832554181,0.11480729545924791,-0.0010701982451471167,0,0,0,0,0,0,1500,1500,1500,1500,1500,1500
1747533920.5760977,0.02,0.01,-0.35000000000000003,0.002181661564992912,0.001090830782496456,0.003272492347489368,-0.01436776832554181,0.11480729545924791,-0.0010701982451471167,0,0,0,0,0,0,1500,1500,1500,1500,1500,1500
1747533920.6767433,0.02,0.01,-0.35000000000000003,0.002181661564992912,0.001090830782496456,0.003272492347489368,-0.01436776832554181,0.11480729545924791,-0.0010701982451471167,0,0,0,0,0,0,1500,1500,1500,1500,1500,1500
1747533920.7758205,0.05,-0.01,-0.34,-0.002181661564992912,0.0,0.0,-0.01436776832554181,0.11480729545924791,-0.0010701982451471167,0,0,0.534056,0,0,0,1463,1463,1537,1500,1460,1460
1747533920.8599143,0.05,-0.01,-0.34,-0.002181661564992912,0.0,0.0,-0.01436776832554181,0.11480729545924791,-0.0010701982451471167,0,0,0.657895,0,0,0,1463,1463,1537,1500,1426,1429
1747533920.9591126,0.02,0.01,-0.27,-0.003272492347489368,0.003272492347489368,-0.001090830782496456,-0.01436776832554181,0.11480729545924791,-0.0010701982451471167,0,0,0,0,0,0,1500,1500,1500,1500,1466,1469
1747533921.0586536,-1.0,-0.77,0.1,-0.006544984694978736,0.013089969389957472,-0.02945243112740431,-0.014238238295490663,0.1149308580771723,-0.0009413548986911196,0,0,0,0,0,0,1500,1500,1500,1500,1500,1500
1747533921.1592507,-1.0,-0.77,0.1,-0.006544984694978736,0.013089969389957472,-0.02945243112740431,-0.014238238295490663,0.1149308580771723,-0.0009413548986911196,0,0,0,0,0,0,1500,1500,1500,1500,1500,1500
1747533921.2588305,1.05,-0.22,-0.26,-0.014180800172453928,0.009817477042468103,-0.019634954084936207,-0.01487262541842892,0.11480542047102396,-0.001343751343697391,0,0,0,0,0,0,1500,1500,1500,1500,1500,1500
1747533921.342655,1.05,-0.22,-0.26,-0.014180800172453928,0.009817477042468103,-0.019634954084936207,-0.01487262541842892,0.11480542047102396,-0.001343751343697391,0,0,0,0,0,0,1500,1500,1500,1500,1500,1500
1747533921.442114,0.16,0.41000000000000003,-0.6,-0.01090830782496456,-0.003272492347489368,0.011999138607461015,-0.014851044559487617,0.11456279291285633,-0.0009738789609158714,0,0,0,0,0,0,1500,1500,1500,1500,1500,1500
1747533921.5427902,-0.08,0.19,-0.43,-0.002181661564992912,0.007635815477475192,-0.004363323129985824,-0.014973513301868016,0.1144401129909896,-0.0009799849656929632,0,0,0,0,0,0,1500,1500,1500,1500,1500,1500
1747533921.6424053,-0.08,0.19,-0.43,-0.002181661564992912,0.007635815477475192,-0.004363323129985824,-0.014973513301868016,0.1144401129909896,-0.0009799849656929632,0,0,0,0,0,0,1500,1500,1500,1500,1500,1500
1747533921.7424402,0.02,0.09,-0.38,0.002181661564992912,0.002181661564992912,0.0,-0.014721323994982388,0.11456370038174356,-0.0008441709879115946,0,0,0,0,0,0,1500,1500,1500,1500,1500,1500
1747533921.8263078,0.02,0.09,-0.38,0.002181661564992912,0.002181661564992912,0.0,-0.014721323994982388,0.11456370038174356,-0.0008441709879115946,0,0,0,0,0,0,1500,1500,1500,1500,1500,1500
1747533921.9261067,0.03,-0.02,-0.26,-0.003272492347489368,-0.003272492347489368,0.004363323129985824,-0.014851044559487617,0.11456279291285633,-0.0009738789609158714,0,0,0,0,0,0,1500,1500,1500,1500,1500,1500
1747533922.0265174,0.06,0.15,-0.4,0.002181661564992912,-0.002181661564992912,-0.002181661564992912,-0.014851044559487617,0.11456279291285633,-0.0009738789609158714,0,0,0,0,0,0,1500,1500,1500,1500,1500,1500
1747533922.1092463,0.06,0.15,-0.4,0.002181661564992912,-0.002181661564992912,-0.002181661564992912,-0.014851044559487617,0.11456279291285633,-0.0009738789609158714,0,0,0,0,0,0,1500,1500,1500,1500,1500,1500
1747533922.2090747,-0.01,0.0,-0.27,0.0,0.003272492347489368,0.001090830782496456,-0.014851044559487617,0.11456279291285633,-0.0009738789609158714,0,0,0,0,0,0,1500,1500,1500,1500,1500,1500
1747533922.3085623,-0.01,0.0,-0.27,0.0,0.003272492347489368,0.001090830782496456,-0.014851044559487617,0.11456279291285633,-0.0009738789609158714,0,0,0,0,0,0,1500,1500,1500,1500,1500,1500
1747533922.408929,0.06,0.02,-0.3,0.0,0.0,0.0,-0.01484401057791879,0.11456370038174356,-0.0008512057427602047,0,0,0,0,0,0,1500,1500,1500,1500,1500,1500
1747533922.5088718,0.03,0.02,-0.4,-0.001090830782496456,0.004363323129985824,-0.001090830782496456,-0.01484401057791879,0.11456370038174356,-0.0008512057427602047,0,0,0,0,0,0,1500,1500,1500,1500,1500,1500
1747533922.5922806,0.03,0.02,-0.4,-0.001090830782496456,0.004363323129985824,-0.001090830782496456,-0.01484401057791879,0.11456370038174356,-0.0008512057427602047,0,0,0,0,0,0,1500,1500,1500,1500,1500,1500
1747533922.6937137,0.03,-0.01,-0.3,-0.001090830782496456,-0.004363323129985824,-0.001090830782496456,-0.01484401057791879,0.11456370038174356,-0.0008512057427602047,0,0,0,0,0,0,1500,1500,1500,1500,1500,1500
1747533922.7925436,0.03,-0.01,-0.3,-0.001090830782496456,-0.004363323129985824,-0.001090830782496456,-0.01484401057791879,0.11456370038174356,-0.0008512057427602047,0,0,0,0,0,0,1500,1500,1500,1500,1500,1500
1747533922.875871,0.04,0.0,-0.33,-0.001090830782496456,0.0,0.001090830782496456,0.01489300845308245,-0.11494358568940988,-0.0008512057427602047,0,0,0,0,0,0,1500,1500,1500,1500,1500,1500
1747533922.976568,0.02,0.01,-0.37,0.003272492347489368,0.0,-0.001090830782496456,-0.01484401057791879,0.11456370038174356,-0.0008512057427602047,0,0,0,0,0,0,1500,1500,1500,1500,1500,1500
1747533923.0758007,0.02,0.01,-0.37,0.003272492347489368,0.0,-0.001090830782496456,-0.01484401057791879,0.11456370038174356,-0.0008512057427602047,0,0,0,0,0,0,1500,1500,1500,1500,1500,1500
1747533923.1755993,0.02,0.0,-0.25,-0.001090830782496456,0.003272492347489368,-0.001090830782496456,-0.01484401057791879,0.11456370038174356,-0.0008512057427602047,0,0,0,0,0,0,1500,1500,1500,1500,1500,1500
1747533923.275554,0.02,0.0,-0.25,-0.001090830782496456,0.003272492347489368,-0.001090830782496456,-0.01484401057791879,0.11456370038174356,-0.0008512057427602047,0,0,0,0,0,0,1500,1500,1500,1500,1500,1500
1747533923.359335,0.04,0.02,-0.35000000000000003,0.004363323129985824,-0.004363323129985824,0.0,-0.01484401057791879,0.11456370038174356,-0.0008512057427602047,0,0,0,0,0,0,1500,1500,1500,1500,1500,1500
1747533923.459718,0.02,-0.01,-0.31,-0.00545415391248228,-0.001090830782496456,0.002181661564992912,-0.01484401057791879,0.11456370038174356,-0.0008512057427602047,0,0,0,0,0,0,1500,1500,1500,1500,1500,1500
1747533923.5582206,0.02,-0.01,-0.31,-0.00545415391248228,-0.001090830782496456,0.002181661564992912,-0.01484401057791879,0.11456370038174356,-0.0008512057427602047,0,0,0,0,0,0,1500,1500,1500,1500,1500,1500
1747533923.6597903,0.03,0.02,-0.29,0.0,-0.002181661564992912,0.0,-0.01484401057791879,0.11456370038174356,-0.0008512057427602047,0,0,0,0,0,0,1500,1500,1500,1500,1500,1500
1747533923.7598772,0.03,0.02,-0.29,0.0,-0.002181661564992912,0.0,-0.01484401057791879,0.11456370038174356,-0.0008512057427602047,0,0,0,0,0,0,1500,1500,1500,1500,1500,1500
1747533923.8427336,0.04,0.01,-0.33,0.0,0.004363323129985824,-0.001090830782496456,-0.01484401057791879,0.11456370038174356,-0.0008512057427602047,0,0,0.379257,0,0,0,1463,1463,1536,1500,1460,1460
1747533923.9419765,0.03,0.0,-0.32,-0.002181661564992912,-0.001090830782496456,0.002181661564992912,-0.01484401057791879,0.11456370038174356,-0.0008512057427602047,0,0,0.410217,0,0,0,1463,1463,1536,1500,1440,1442
1747533924.041896,0.03,0.0,-0.32,-0.002181661564992912,-0.001090830782496456,0.002181661564992912,-0.01484401057791879,0.11456370038174356,-0.0008512057427602047,0,0,0.069659,0,0,0,1463,1463,1536,1500,1459,1460
1747533924.1265514,1.78,-0.61,0.07,-0.00545415391248228,-0.018544123302439753,0.039269908169872414,-0.014829749079658608,0.11444284285916465,-0.000604943290620914,0,0,0,0,0,0,1500,1500,1500,1500,1499,1500
1747533924.2262442,1.78,-0.61,0.07,-0.00545415391248228,-0.018544123302439753,0.039269908169872414,-0.014829749079658608,0.11444284285916465,-0.000604943290620914,0,0,0,0,0,0,1500,1500,1500,1500,1500,1500
1747533924.3258848,0.15,-0.22,0.04,0.014180800172453928,-0.016362461737446838,0.017453292519943295,-0.014713692467849709,0.11419658819502403,-0.0007187675594044207,0,0,0,0,0,0,1500,1500,1500,1500,1500,1500
1747533924.4261014,0.32,-0.42,-0.1,-0.007635815477475192,0.008726646259971648,-0.002181661564992912,-0.01483617345026618,0.1140739284300086,-0.0007248619306877715,0,0,0,0,0,0,1500,1500,1500,1500,1500,1500
1747533924.5253174,0.32,-0.42,-0.1,-0.007635815477475192,0.008726646259971648,-0.002181661564992912,-0.01483617345026618,0.1140739284300086,-0.0007248619306877715,0,0,0,0,0,0,1500,1500,1500,1500,1500,1500
1747533924.6090744,0.07,0.16,-0.4,-0.004363323129985824,-0.008726646259971648,0.003272492347489368,-0.014835973234475164,0.11395126288952627,-0.0007239443769754442,0,0,0,0,0,0,1500,1500,1500,1500,1500,1500
1747533924.70975,0.07,0.16,-0.4,-0.004363323129985824,-0.008726646259971648,0.003272492347489368,-0.014835973234475164,0.11395126288952627,-0.0007239443769754442,0,0,0,0,0,0,1500,1500,1500,1500,1500,1500
1747533924.8078144,0.06,-0.01,-0.35000000000000003,0.001090830782496456,-0.001090830782496456,0.002181661564992912,-0.014835973234475164,0.11395126288952627,-0.0007239443769754442,0,0,0,0,0,0,1500,1500,1500,1500,1500,1500
1747533924.9100513,0.05,0.0,-0.37,-0.001090830782496456,-0.001090830782496456,0.0,-0.014835973234475164,0.11395126288952627,-0.0007239443769754442,0,0,0,0,0,0,1500,1500,1500,1500,1500,1500
1747533925.0084093,0.05,0.0,-0.37,-0.001090830782496456,-0.001090830782496456,0.0,-0.014835973234475164,0.11395126288952627,-0.0007239443769754442,0,0,0,0,0,0,1500,1500,1500,1500,1500,1500
1747533925.0922482,0.09,0.06,-0.36,0.0,-0.003272492347489368,0.001090830782496456,-0.014835973234475164,0.11395126288952627,-0.0007239443769754442,0,0,0,0,0,0,1500,1500,1500,1500,1500,1500
1747533925.1927314,0.09,0.06,-0.36,0.0,-0.003272492347489368,0.001090830782496456,-0.014835973234475164,0.11395126288952627,-0.0007239443769754442,0,0,0,0,0,0,1500,1500,1500,1500,1500,1500
1747533925.291617,0.0,0.0,-0.24,-0.003272492347489368,-0.002181661564992912,0.001090830782496456,-0.014835973234475164,0.11395126288952627,-0.0007239443769754442,0,0,0,0,0,0,1500,1500,1500,1500,1500,1500
1747533925.3755255,0.0,0.0,-0.24,-0.003272492347489368,-0.002181661564992912,0.001090830782496456,-0.014835973234475164,0.11395126288952627,-0.0007239443769754442,0,0,0,0,0,0,1500,1500,1500,1500,1500,1500
1747533925.475231,0.04,0.01,-0.35000000000000003,0.0,-0.002181661564992912,0.0,-0.014835973234475164,0.11395126288952627,-0.0007239443769754442,0,0,0,0,0,0,1500,1500,1500,1500,1500,1500
1747533925.5747685,0.02,0.0,-0.33,-0.001090830782496456,0.001090830782496456,0.001090830782496456,-0.014835973234475164,0.11395126288952627,-0.0007239443769754442,0,0,0,0,0,0,1500,1500,1500,1500,1500,1500
1747533925.67578,0.02,0.0,-0.33,-0.001090830782496456,0.001090830782496456,0.001090830782496456,-0.014835973234475164,0.11395126288952627,-0.0007239443769754442,0,0,0,0,0,0,1500,1500,1500,1500,1500,1500
1747533925.7756155,0.03,0.02,-0.28,0.002181661564992912,0.004363323129985824,0.0,-0.014835973234475164,0.11395126288952627,-0.0007239443769754442,0,0,0,0,0,0,1500,1500,1500,1500,1500,1500
1747533925.8584795,0.03,0.02,-0.28,0.002181661564992912,0.004363323129985824,0.0,-0.014835973234475164,0.11395126288952627,-0.0007239443769754442,0,0,0,0,0,0,1500,1500,1500,1500,1500,1500
1747533925.9588063,0.04,0.0,-0.35000000000000003,0.001090830782496456,0.003272492347489368,0.001090830782496456,-0.014835973234475164,0.11395126288952627,-0.0007239443769754442,0,0,0,0,0,0,1500,1500,1500,1500,1500,1500
1747533926.0588977,0.02,0.0,-0.29,-0.001090830782496456,-0.002181661564992912,0.0,-0.014835973234475164,0.11395126288952627,-0.0007239443769754442,0,0,0,0,0,0,1500,1500,1500,1500,1500,1500
1747533926.1585343,0.02,0.0,-0.29,-0.001090830782496456,-0.002181661564992912,0.0,-0.014835973234475164,0.11395126288952627,-0.0007239443769754442,0,0,0,0,0,0,1500,1500,1500,1500,1500,1500
1747533926.2588756,0.03,0.01,-0.3,-0.003272492347489368,0.00545415391248228,0.0,-0.014835973234475164,0.11395126288952627,-0.0007239443769754442,0,0,0,0,0,0,1500,1500,1500,1500,1500,1500
1747533926.3424256,0.03,0.01,-0.3,-0.003272492347489368,0.00545415391248228,0.0,-0.014835973234475164,0.11395126288952627,-0.0007239443769754442,0,0,0,0,0,0,1500,1500,1500,1500,1500,1500
1747533926.4431448,0.03,0.0,-0.37,0.002181661564992912,0.002181661564992912,0.001090830782496456,-0.014835973234475164,0.11395126288952627,-0.0007239443769754442,0,0,0,0,0,0,1500,1500,1500,1500,1500,1500
1747533926.541923,0.01,0.0,-0.29,0.0,0.002181661564992912,0.0,-0.014835973234475164,0.11395126288952627,-0.0007239443769754442,0,0,0,0,0,0,1500,1500,1500,1500,1500,1500
1747533926.6260138,0.01,0.0,-0.29,0.0,0.002181661564992912,0.0,-0.014835973234475164,0.11395126288952627,-0.0007239443769754442,0,0,0,0,0,0,1500,1500,1500,1500,1500,1500
1747533926.7262592,0.03,0.0,-0.31,0.003272492347489368,0.003272492347489368,0.0,-0.014835973234475164,0.11395126288952627,-0.0007239443769754442,0,0,0,0,0,0,1500,1500,1500,1500,1500,1500
1747533926.826487,0.03,0.0,-0.31,0.003272492347489368,0.003272492347489368,0.0,-0.014835973234475164,0.11395126288952627,-0.0007239443769754442,0,0,0,0,0,0,1500,1500,1500,1500,1500,1500
1747533926.927638,0.05,0.02,-0.35000000000000003,0.001090830782496456,0.0,0.001090830782496456,-0.014835973234475164,0.11395126288952627,-0.0007239443769754442,0,0,0,0,0,0,1500,1500,1500,1500,1500,1500
1747533927.0252001,0.02,0.0,-0.33,0.0,0.001090830782496456,0.001090830782496456,-0.014835973234475164,0.11395126288952627,-0.0007239443769754442,0,0,0,0,0,0,1500,1500,1500,1500,1500,1500
1747533927.109932,0.02,0.0,-0.33,0.0,0.001090830782496456,0.001090830782496456,-0.014835973234475164,0.11395126288952627,-0.0007239443769754442,0,0,0,0,0,0,1500,1500,1500,1500,1500,1500
1747533927.2096941,0.01,0.02,-0.33,-0.001090830782496456,-0.002181661564992912,0.0,-0.014835973234475164,0.11395126288952627,-0.0007239443769754442,0,0,0,0,0,0,1500,1500,1500,1500,1500,1500
1747533927.3098893,0.01,0.02,-0.33,-0.001090830782496456,-0.002181661564992912,0.0,-0.014835973234475164,0.11395126288952627,-0.0007239443769754442,0,0,0,0,0,0,1500,1500,1500,1500,1500,1500
1747533927.4095702,0.03,0.01,-0.34,-0.002181661564992912,-0.003272492347489368,0.0,-0.014835973234475164,0.11395126288952627,-0.0007239443769754442,0,0,0,0,0,0,1500,1500,1500,1500,1500,1500
1747533927.5085359,0.02,-0.01,-0.29,0.0,0.0,-0.001090830782496456,-0.014835973234475164,0.11395126288952627,-0.0007239443769754442,0,0,0,0,0,0,1500,1500,1500,1500,1500,1500
1747533927.5926597,0.02,-0.01,-0.29,0.0,0.0,-0.001090830782496456,-0.014835973234475164,0.11395126288952627,-0.0007239443769754442,0,0,0,0,0,0,1500,1500,1500,1500,1500,1500
1747533927.6917546,0.03,0.0,-0.32,-0.002181661564992912,0.001090830782496456,0.001090830782496456,-0.014835973234475164,0.11395126288952627,-0.0007239443769754442,0,0,0,0,0,0,1500,1500,1500,1500,1500,1500
1747533927.79202,0.03,0.0,-0.32,-0.002181661564992912,0.001090830782496456,0.001090830782496456,-0.014835973234475164,0.11395126288952627,-0.0007239443769754442,0,0,0,0,0,0,1500,1500,1500,1500,1500,1500
1747533927.8751655,0.03,0.01,-0.37,-0.003272492347489368,-0.00545415391248228,0.0,-0.014835973234475164,0.11395126288952627,-0.0007239443769754442,0,0,0,0,0,0,1500,1500,1500,1500,1500,1500
1747533927.9752357,0.01,0.0,-0.33,0.0,0.0,-0.001090830782496456,-0.014835973234475164,0.11395126288952627,-0.0007239443769754442,0,0,0,0,0,0,1500,1500,1500,1500,1500,1500
1747533928.0753193,0.01,0.0,-0.33,0.0,0.0,-0.001090830782496456,-0.014835973234475164,0.11395126288952627,-0.0007239443769754442,0,0,0,0,0,0,1500,1500,1500,1500,1500,1500
1747533928.1753745,0.03,0.02,-0.3,0.001090830782496456,0.002181661564992912,0.0,-0.014835973234475164,0.11395126288952627,-0.0007239443769754442,0,0,0,0,0,0,1500,1500,1500,1500,1500,1500
1747533928.2753751,0.03,0.02,-0.3,0.001090830782496456,0.002181661564992912,0.0,-0.014835973234475164,0.11395126288952627,-0.0007239443769754442,0,0,0.193498,0,0,0,1463,1463,1536,1500,1460,1460
1747533928.359686,0.02,0.01,-0.35000000000000003,-0.004363323129985824,0.003272492347489368,0.0,-0.014835973234475164,0.11395126288952627,-0.0007239443769754442,0,0,0.905573,0,0,0,1462,1462,1538,1500,1420,1420
1747533928.458212,0.02,0.0,-0.32,0.002181661564992912,-0.003272492347489368,0.001090830782496456,-0.014835973234475164,0.11395126288952627,-0.0007239443769754442,0,0,0.565015,0,0,0,1463,1463,1537,1500,1431,1434
1747533928.5588348,0.02,0.0,-0.32,0.002181661564992912,-0.003272492347489368,0.001090830782496456,-0.014835973234475164,0.11395126288952627,-0.0007239443769754442,0,0,0.565015,0,0,0,1463,1463,1537,1500,1431,1434
1747533928.6584847,1.44,0.15,-0.61,0.019634954084936207,-0.011999138607461015,0.02181661564992912,-0.01472008538725033,0.11382769167870595,-0.0008387006018169394,0,0,0.534056,0,0,0,1463,1463,1537,1500,1433,1436
1747533928.7589877,1.44,0.15,-0.61,0.019634954084936207,-0.011999138607461015,0.02181661564992912,-0.01472008538725033,0.11382769167870595,-0.0008387006018169394,0,0,0.472136,0,0,0,1463,1463,1537,1500,1436,1439
1747533928.842295,-0.37,-0.27,-0.11,0.00545415391248228,0.004363323129985824,-0.018544123302439753,-0.01458305524111698,0.11358415396410411,-0.0005845844788393655,0,0,0.379257,0,0,0,1463,1463,1536,1500,1442,1444
1747533928.9423118,0.25,-0.31,-0.15,-0.008726646259971648,0.004363323129985824,0.0,-0.014453409566253945,0.11358502383673609,-0.0004549509809330346,0,0,0.348297,0,0,0,1463,1463,1536,1500,1443,1445
1747533929.0421283,0.25,-0.31,-0.15,-0.008726646259971648,0.004363323129985824,0.0,-0.014453409566253945,0.11358502383673609,-0.0004549509809330346,0,0,0.193498,0,0,0,1463,1463,1536,1500,1452,1453
1747533929.1252263,-0.08,0.06,-0.28,-0.001090830782496456,-0.002181661564992912,0.00545415391248228,-0.0144535887713378,0.11370768424130905,-0.00045584221291943537,0,0,0.162539,0,0,0,1463,1463,1536,1500,1454,1455
1747533929.2249508,-0.08,0.06,-0.28,-0.001090830782496456,-0.002181661564992912,0.00545415391248228,-0.0144535887713378,0.11370768424130905,-0.00045584221291943537,0,0,0.100619,0,0,0,1463,1463,1536,1500,1458,1458
1747533929.3250513,0.11,-0.03,-0.36,0.003272492347489368,0.0,-0.003272492347489368,-0.0144535887713378,0.11370768424130905,-0.00045584221291943537,0,0,0.100619,0,0,0,1463,1463,1536,1500,1458,1458
1747533929.4252183,-0.18,-0.25,-0.25,0.0,-0.001090830782496456,-0.002181661564992912,-0.014453768198196491,0.11383034636411511,-0.00045673347663110315,0,0,0,0,0,0,1500,1500,1500,1500,1498,1498
1747533929.524911,-0.18,-0.25,-0.25,0.0,-0.001090830782496456,-0.002181661564992912,-0.014453768198196491,0.11383034636411511,-0.00045673347663110315,0,0,0,0,0,0,1500,1500,1500,1500,1500,1500
1747533929.6084402,0.04,-0.18,-0.24,0.003272492347489368,0.004363323129985824,0.001090830782496456,-0.014576988823975415,0.11419836555939719,-0.00046641942268258656,0,0,0,0,0,0,1500,1500,1500,1500,1500,1500
1747533929.7091036,0.04,-0.18,-0.24,0.003272492347489368,0.004363323129985824,0.001090830782496456,-0.014576988823975415,0.11419836555939719,-0.00046641942268258656,0,0,0,0,0,0,1500,1500,1500,1500,1500,1500
1747533929.808293,0.1,-0.1,-0.31,0.0,-0.002181661564992912,0.003272492347489368,-0.014576988823975415,0.11419836555939719,-0.00046641942268258656,0,0,0,0,0,0,1500,1500,1500,1500,1500,1500
1747533929.891638,0.1,-0.1,-0.31,0.0,-0.002181661564992912,0.003272492347489368,-0.014576988823975415,0.11419836555939719,-0.00046641942268258656,0,0,0.193498,0,0,0,1463,1463,1536,1500,1460,1460
1747533929.9921927,-0.01,0.03,-0.33,-0.001090830782496456,-0.001090830782496456,0.0,-0.014576988823975415,0.11419836555939719,-0.00046641942268258656,0,0,0.193498,0,0,0,1463,1463,1536,1500,1452,1453
1747533930.0753481,0.04,0.0,-0.29,0.001090830782496456,-0.001090830782496456,0.001090830782496456,-0.014576988823975415,0.11419836555939719,-0.00046641942268258656,0,0,0.193498,0,0,0,1463,1463,1536,1500,1452,1453
1747533930.1752722,0.04,0.0,-0.29,0.001090830782496456,-0.001090830782496456,0.001090830782496456,-0.014576988823975415,0.11419836555939719,-0.00046641942268258656,0,0,0.317337,0,0,0,1463,1463,1536,1500,1445,1447
1747533930.2751484,0.8200000000000001,-0.53,-0.03,-0.004363323129985824,-0.006544984694978736,0.020725784867432664,-0.014584189675659495,0.11432014213012444,-0.0005899882283724757,0,0,0.317337,0,0,0,1463,1463,1536,1500,1445,1447
1747533930.3585563,0.8200000000000001,-0.53,-0.03,-0.004363323129985824,-0.006544984694978736,0.020725784867432664,-0.014584189675659495,0.11432014213012444,-0.0005899882283724757,0,0,0.317337,0,0,0,1463,1463,1536,1500,1445,1447
1747533930.4579754,0.04,0.11,-0.49,-0.008726646259971648,0.002181661564992912,0.009817477042468103,-0.014338638255305566,0.11419744312974058,-0.000575063592318402,0,0,0.317337,0,0,0,1463,1463,1536,1500,1445,1447
1747533930.5585387,-0.05,-0.25,-0.13,0.003272492347489368,0.0,0.004363323129985824,-0.014338638255305566,0.11419744312974058,-0.000575063592318402,0,0,0.317337,0,0,0,1463,1463,1536,1500,1445,1447
1747533930.659855,-0.05,-0.25,-0.13,0.003272492347489368,0.0,0.004363323129985824,-0.014338638255305566,0.11419744312974058,-0.000575063592318402,0,0,0.317337,0,0,0,1463,1463,1536,1500,1445,1447
1747533930.7593758,0.1,0.0,-0.39,0.001090830782496456,0.007635815477475192,0.002181661564992912,-0.014338638255305566,0.11419744312974058,-0.000575063592318402,0,0,0.069659,0,0,0,1463,1463,1536,1500,1459,1460
1747533930.8421426,0.1,0.0,-0.39,0.001090830782496456,0.007635815477475192,0.002181661564992912,-0.014338638255305566,0.11419744312974058,-0.000575063592318402,0,0,0.069659,0,0,0,1463,1463,1536,1500,1459,1460
1747533930.9420755,0.03,0.02,-0.32,0.0,-0.001090830782496456,0.0,-0.014338638255305566,0.11419744312974058,-0.000575063592318402,0,0,0.0387,0,0,0,1463,1463,1536,1500,1461,1461
