time,ay,ax,az,gy,gx,gz,roll,pitch,yaw,cmd_fx,cmd_fy,cmd_fz,cmd_tx,cmd_ty,cmd_tz,pwm_1,pwm_2,pwm_3,pwm_4,pwm_5,pwm_6
1747607209.9306705,0.0,0.0,0.0,0.0,0.0,0.0,0.0,0.0,0.0,0,0,0,0,0,0,1500,1500,1500,1500,1500,1500
1747607210.0249953,0.05,0.0,-0.27,-0.001090830782496456,0.001090830782496456,-0.001090830782496456,0.0009803793973081544,0.10172961170016323,4.9908690795408686e-05,0,0,0,0,0,0,1500,1500,1500,1500,1500,1500
1747607210.1262646,0.05,0.0,-0.27,-0.001090830782496456,0.001090830782496456,-0.001090830782496456,0.0009803793973081544,0.10172961170016323,4.9908690795408686e-05,0,0,0,0,0,0,1500,1500,1500,1500,1500,1500
1747607210.2261584,0.04,0.01,-0.36,0.003272492347489368,0.0,0.0,0.0009803793973081544,0.10172961170016323,4.9908690795408686e-05,0,0,0,0,0,0,1500,1500,1500,1500,1500,1500
1747607210.3239985,0.02,0.0,-0.36,-0.001090830782496456,0.001090830782496456,0.002181661564992912,0.0009803793973081544,0.10172961170016323,4.9908690795408686e-05,0,0,0,0,0,0,1500,1500,1500,1500,1500,1500
1747607210.4261682,0.02,0.0,-0.36,-0.001090830782496456,0.001090830782496456,0.002181661564992912,0.0009803793973081544,0.10172961170016323,4.9908690795408686e-05,0,0,0,0,0,0,1500,1500,1500,1500,1500,1500
1747607210.5084324,0.04,0.01,-0.34,0.002181661564992912,-0.006544984694978736,-0.003272492347489368,0.0009803793973081544,0.10172961170016323,4.9908690795408686e-05,0,0,0,0,0,0,1500,1500,1500,1500,1500,1500
1747607210.6084108,0.04,0.01,-0.34,0.002181661564992912,-0.006544984694978736,-0.003272492347489368,0.0009803793973081544,0.10172961170016323,4.9908690795408686e-05,0,0,0,0,0,0,1500,1500,1500,1500,1500,1500
1747607210.708427,0.04,0.0,-0.31,0.001090830782496456,0.002181661564992912,-0.003272492347489368,0.0009803793973081544,0.10172961170016323,4.9908690795408686e-05,0,0,0,0,0,0,1500,1500,1500,1500,1500,1500
1747607210.7916956,0.01,0.0,-0.36,0.001090830782496456,-0.001090830782496456,-0.001090830782496456,0.0009803793973081544,0.10172961170016323,4.9908690795408686e-05,0,0,0,0,0,0,1500,1500,1500,1500,1500,1500
1747607210.8921273,0.01,0.0,-0.36,0.001090830782496456,-0.001090830782496456,-0.001090830782496456,0.0009803793973081544,0.10172961170016323,4.9908690795408686e-05,0,0,0,0,0,0,1500,1500,1500,1500,1500,1500
1747607210.9928937,0.02,0.0,-0.33,0.002181661564992912,-0.003272492347489368,0.003272492347489368,0.0009803793973081544,0.10172961170016323,4.9908690795408686e-05,0,0,0,0,0,0,1500,1500,1500,1500,1500,1500
1747607211.0921454,0.02,0.0,-0.33,0.002181661564992912,-0.003272492347489368,0.003272492347489368,0.0009803793973081544,0.10172961170016323,4.9908690795408686e-05,0,0,0,0,0,0,1500,1500,1500,1500,1500,1500
1747607211.1916456,0.04,0.0,-0.31,0.001090830782496456,0.0,-0.001090830782496456,0.0009803793973081544,0.10172961170016323,4.9908690795408686e-05,0,0,0,0,0,0,1500,1500,1500,1500,1500,1500
1747607211.2756073,0.03,0.01,-0.35000000000000003,-0.001090830782496456,0.001090830782496456,-0.001090830782496456,0.0009803793973081544,0.10172961170016323,4.9908690795408686e-05,0,0,0,0,0,0,1500,1500,1500,1500,1500,1500
1747607211.374781,0.03,0.01,-0.35000000000000003,-0.001090830782496456,0.001090830782496456,-0.001090830782496456,0.0009803793973081544,0.10172961170016323,4.9908690795408686e-05,0,0,0,0,0,0,1500,1500,1500,1500,1500,1500
1747607211.4758635,0.02,0.0,-0.36,-0.002181661564992912,-0.002181661564992912,0.0,0.0009803793973081544,0.10172961170016323,4.9908690795408686e-05,0,0,0,0,0,0,1500,1500,1500,1500,1500,1500
1747607211.5758448,0.02,0.0,-0.36,-0.002181661564992912,-0.002181661564992912,0.0,0.0009803793973081544,0.10172961170016323,4.9908690795408686e-05,0,0,0,0,0,0,1500,1500,1500,1500,1500,1500
1747607211.675854,0.05,0.01,-0.28,-0.002181661564992912,-0.003272492347489368,0.0,0.0009803793973081544,0.10172961170016323,4.9908690795408686e-05,0,0,0,0,0,0,1500,1500,1500,1500,1500,1500
1747607211.7593353,0.05,0.01,-0.33,0.0,-0.003272492347489368,0.001090830782496456,0.0009803793973081544,0.10172961170016323,4.9908690795408686e-05,0,0,0,0,0,0,1500,1500,1500,1500,1500,1500
1747607211.858911,0.05,0.01,-0.33,0.0,-0.003272492347489368,0.001090830782496456,0.0009803793973081544,0.10172961170016323,4.9908690795408686e-05,0,0,0,0,0,0,1500,1500,1500,1500,1500,1500
1747607211.959197,0.03,0.02,-0.36,-0.002181661564992912,0.003272492347489368,0.0,0.0009803793973081544,0.10172961170016323,4.9908690795408686e-05,0,0,0,0,0,0,1500,1500,1500,1500,1500,1500
1747607212.0417144,0.03,0.02,-0.36,-0.002181661564992912,0.003272492347489368,0.0,0.0009803793973081544,0.10172961170016323,4.9908690795408686e-05,0,0,0,0,0,0,1500,1500,1500,1500,1500,1500
1747607212.1416595,0.03,0.0,-0.31,-0.002181661564992912,0.0,0.001090830782496456,0.0009803793973081544,0.10172961170016323,4.9908690795408686e-05,0,0,0,0,0,0,1500,1500,1500,1500,1500,1500
1747607212.2422662,0.04,-0.02,-0.28,-0.004363323129985824,0.0,-0.001090830782496456,0.0009803793973081544,0.10172961170016323,4.9908690795408686e-05,0,0,0,0,0,0,1500,1500,1500,1500,1500,1500
1747607212.3428183,0.04,-0.02,-0.28,-0.004363323129985824,0.0,-0.001090830782496456,0.0009803793973081544,0.10172961170016323,4.9908690795408686e-05,0,0,0,0,0,0,1500,1500,1500,1500,1500,1500
1747607212.442226,0.04,0.0,-0.32,-0.003272492347489368,0.0,-0.002181661564992912,0.0009803793973081544,0.10172961170016323,4.9908690795408686e-05,0,0,0,0,0,0,1500,1500,1500,1500,1500,1500
1747607212.5261433,0.04,0.0,-0.32,-0.003272492347489368,0.0,-0.002181661564992912,0.0009803793973081544,0.10172961170016323,4.9908690795408686e-05,0,0,0,0,0,0,1500,1500,1500,1500,1500,1500
1747607212.6255374,0.03,0.0,-0.38,-0.001090830782496456,-0.001090830782496456,0.0,0.0009803793973081544,0.10172961170016323,4.9908690795408686e-05,0,0,0,0,0,0,1500,1500,1500,1500,1500,1500
1747607212.7255552,0.04,0.0,-0.27,0.002181661564992912,0.001090830782496456,0.0,0.0009803793973081544,0.10172961170016323,4.9908690795408686e-05,0,0,0,0,0,0,1500,1500,1500,1500,1500,1500
1747607212.8094635,0.04,0.0,-0.27,0.002181661564992912,0.001090830782496456,0.0,0.0009803793973081544,0.10172961170016323,4.9908690795408686e-05,0,0,0,0,0,0,1500,1500,1500,1500,1500,1500
1747607212.9095042,0.03,0.0,-0.33,-0.002181661564992912,-0.006544984694978736,0.002181661564992912,0.0009803793973081544,0.10172961170016323,4.9908690795408686e-05,0,0,0,0,0,0,1500,1500,1500,1500,1500,1500
1747607212.9930687,0.03,0.0,-0.33,-0.002181661564992912,-0.006544984694978736,0.002181661564992912,0.0009803793973081544,0.10172961170016323,4.9908690795408686e-05,0,0,0,0,0,0,1500,1500,1500,1500,1500,1500
1747607213.0923882,0.03,0.01,-0.37,0.002181661564992912,0.003272492347489368,0.001090830782496456,0.0009803793973081544,0.10172961170016323,4.9908690795408686e-05,0,0,0,0,0,0,1500,1500,1500,1500,1500,1500
1747607213.2129872,0.03,0.02,-0.38,0.003272492347489368,-0.002181661564992912,0.001090830782496456,0.0009803793973081544,0.10172961170016323,4.9908690795408686e-05,0,0,0,0,0,0,1500,1500,1500,1500,1500,1500
1747607213.310158,0.03,0.02,-0.38,0.003272492347489368,-0.002181661564992912,0.001090830782496456,0.0009803793973081544,0.10172961170016323,4.9908690795408686e-05,0,0,0,0,0,0,1500,1500,1500,1500,1500,1500
1747607213.4096792,0.04,0.01,-0.29,-0.004363323129985824,0.006544984694978736,0.0,0.0009803793973081544,0.10172961170016323,4.9908690795408686e-05,0,0,0,0,0,0,1500,1500,1500,1500,1500,1500
1747607213.492864,0.04,0.0,-0.33,0.0,-0.001090830782496456,0.0,0.0009803793973081544,0.10172961170016323,4.9908690795408686e-05,0,0,0,0,0,0,1500,1500,1500,1500,1500,1500
1747607213.5925934,0.04,0.0,-0.33,0.0,-0.001090830782496456,0.0,0.0009803793973081544,0.10172961170016323,4.9908690795408686e-05,0,0,0,0,0,0,1500,1500,1500,1500,1500,1500
1747607213.6918135,0.02,0.0,-0.35000000000000003,0.003272492347489368,0.001090830782496456,-0.003272492347489368,0.0009803793973081544,0.10172961170016323,4.9908690795408686e-05,0,0,0,0,0,0,1500,1500,1500,1500,1500,1500
1747607213.776072,0.02,0.0,-0.35000000000000003,0.003272492347489368,0.001090830782496456,-0.003272492347489368,0.0009803793973081544,0.10172961170016323,4.9908690795408686e-05,0,0,0,0,0,0,1500,1500,1500,1500,1500,1500
1747607213.875175,0.02,0.01,-0.27,-0.002181661564992912,-0.002181661564992912,0.002181661564992912,0.0009803793973081544,0.10172961170016323,4.9908690795408686e-05,0,0,0,0,0,0,1500,1500,1500,1500,1500,1500
1747607213.9616363,0.06,0.01,-0.34,-0.001090830782496456,0.002181661564992912,0.001090830782496456,0.0009803793973081544,0.10172961170016323,4.9908690795408686e-05,0,0,0,0,0,0,1500,1500,1500,1500,1500,1500
1747607214.059175,0.06,0.01,-0.34,-0.001090830782496456,0.002181661564992912,0.001090830782496456,0.0009803793973081544,0.10172961170016323,4.9908690795408686e-05,0,0,0,0,0,0,1500,1500,1500,1500,1500,1500
1747607214.159036,0.03,0.0,-0.35000000000000003,0.0,0.002181661564992912,0.0,0.0009803793973081544,0.10172961170016323,4.9908690795408686e-05,0,0,0,0,0,0,1500,1500,1500,1500,1500,1500
1747607214.2591763,0.03,0.0,-0.35000000000000003,0.0,0.002181661564992912,0.0,0.0009803793973081544,0.10172961170016323,4.9908690795408686e-05,0,0,0,0,0,0,1500,1500,1500,1500,1500,1500
1747607214.3583791,0.01,0.0,-0.35000000000000003,0.001090830782496456,-0.00545415391248228,-0.001090830782496456,0.0009803793973081544,0.10172961170016323,4.9908690795408686e-05,0,0,0,0,0,0,1500,1500,1500,1500,1500,1500
1747607214.4591155,0.03,0.0,-0.27,-0.002181661564992912,-0.003272492347489368,-0.002181661564992912,0.0009803793973081544,0.10172961170016323,4.9908690795408686e-05,0,0,0,0,0,0,1500,1500,1500,1500,1500,1500
1747607214.543104,0.03,0.0,-0.27,-0.002181661564992912,-0.003272492347489368,-0.002181661564992912,0.0009803793973081544,0.10172961170016323,4.9908690795408686e-05,0,0,0,0,0,0,1500,1500,1500,1500,1500,1500
1747607214.6425989,0.01,0.0,-0.32,0.004363323129985824,0.0,0.002181661564992912,0.0009803793973081544,0.10172961170016323,4.9908690795408686e-05,0,0,0,0,0,0,1500,1500,1500,1500,1500,1500
1747607214.7419608,0.01,0.0,-0.32,0.004363323129985824,0.0,0.002181661564992912,0.0009803793973081544,0.10172961170016323,4.9908690795408686e-05,0,0,0,0,0,0,1500,1500,1500,1500,1500,1500
1747607214.8415852,0.01,0.02,-0.34,0.0,0.003272492347489368,0.001090830782496456,0.0009803793973081544,0.10172961170016323,4.9908690795408686e-05,0,0,0,0,0,0,1500,1500,1500,1500,1500,1500
1747607214.9419472,0.03,0.0,-0.38,0.003272492347489368,0.003272492347489368,0.0,0.0009803793973081544,0.10172961170016323,4.9908690795408686e-05,0,0,0,0,0,0,1500,1500,1500,1500,1500,1500
1747607215.0259993,0.03,0.0,-0.38,0.003272492347489368,0.003272492347489368,0.0,0.0009803793973081544,0.10172961170016323,4.9908690795408686e-05,0,0,0,0,0,0,1500,1500,1500,1500,1500,1500
1747607215.1259506,0.05,-0.01,-0.3,0.002181661564992912,0.003272492347489368,0.0,0.0009803793973081544,0.10172961170016323,4.9908690795408686e-05,0,0,0,0,0,0,1500,1500,1500,1500,1500,1500
1747607215.2257345,0.05,-0.01,-0.3,0.002181661564992912,0.003272492347489368,0.0,0.0009803793973081544,0.10172961170016323,4.9908690795408686e-05,0,0,0,0,0,0,1500,1500,1500,1500,1500,1500
1747607215.309312,0.02,0.01,-0.33,0.001090830782496456,0.002181661564992912,0.0,0.0009803793973081544,0.10172961170016323,4.9908690795408686e-05,0,0,0,0,0,0,1500,1500,1500,1500,1500,1500
1747607215.408504,0.02,0.01,-0.32,0.002181661564992912,-0.001090830782496456,-0.001090830782496456,0.0009803793973081544,0.10172961170016323,4.9908690795408686e-05,0,0,0,0,0,0,1500,1500,1500,1500,1500,1500
1747607215.4928756,0.02,0.01,-0.32,0.002181661564992912,-0.001090830782496456,-0.001090830782496456,0.0009803793973081544,0.10172961170016323,4.9908690795408686e-05,0,0,0,0,0,0,1500,1500,1500,1500,1500,1500
1747607215.5920737,0.02,0.0,-0.29,0.002181661564992912,0.004363323129985824,0.0,0.0009803793973081544,0.10172961170016323,4.9908690795408686e-05,0,0,0,0,0,0,1500,1500,1500,1500,1500,1500
1747607215.6923847,0.02,0.0,-0.29,0.002181661564992912,0.004363323129985824,0.0,0.0009803793973081544,0.10172961170016323,4.9908690795408686e-05,0,0,0,0,0,0,1500,1500,1500,1500,1500,1500
1747607215.775612,0.03,0.0,-0.35000000000000003,0.0,0.002181661564992912,0.003272492347489368,0.0009803793973081544,0.10172961170016323,4.9908690795408686e-05,0,0,0,0,0,0,1500,1500,1500,1500,1500,1500
1747607215.8747592,0.05,0.0,-0.4,-0.002181661564992912,0.0,0.003272492347489368,0.0009803793973081544,0.10172961170016323,4.9908690795408686e-05,0,0,0,0,0,0,1500,1500,1500,1500,1500,1500
1747607215.9757414,0.05,0.0,-0.4,-0.002181661564992912,0.0,0.003272492347489368,0.0009803793973081544,0.10172961170016323,4.9908690795408686e-05,0,0,0,0,0,0,1500,1500,1500,1500,1500,1500
1747607216.0593784,0.04,0.0,-0.34,-0.001090830782496456,0.002181661564992912,0.002181661564992912,0.0009803793973081544,0.10172961170016323,4.9908690795408686e-05,0,0,0,0,0,0,1500,1500,1500,1500,1500,1500
1747607216.1590023,0.04,0.0,-0.34,-0.001090830782496456,0.002181661564992912,0.002181661564992912,0.0009803793973081544,0.10172961170016323,4.9908690795408686e-05,0,0,0,0,0,0,1500,1500,1500,1500,1500,1500
1747607216.258528,0.05,0.0,-0.3,0.0,-0.001090830782496456,-0.002181661564992912,0.0009803793973081544,0.10172961170016323,4.9908690795408686e-05,0,0,0,0,0,0,1500,1500,1500,1500,1500,1500
1747607216.3587613,0.03,0.0,-0.34,0.001090830782496456,-0.001090830782496456,0.0,0.0009803793973081544,0.10172961170016323,4.9908690795408686e-05,0,0,0,0,0,0,1500,1500,1500,1500,1500,1500
1747607216.4592896,0.03,0.0,-0.34,0.001090830782496456,-0.001090830782496456,0.0,0.0009803793973081544,0.10172961170016323,4.9908690795408686e-05,0,0,0,0,0,0,1500,1500,1500,1500,1500,1500
1747607216.5425055,0.05,-0.01,-0.31,-0.001090830782496456,0.006544984694978736,0.001090830782496456,0.0009803793973081544,0.10172961170016323,4.9908690795408686e-05,0,0,0,0,0,0,1500,1500,1500,1500,1500,1500
1747607216.6428893,0.05,-0.01,-0.31,-0.001090830782496456,0.006544984694978736,0.001090830782496456,0.0009803793973081544,0.10172961170016323,4.9908690795408686e-05,0,0,0,0,0,0,1500,1500,1500,1500,1500,1500
1747607216.7427998,0.03,-0.01,-0.3,-0.001090830782496456,0.0,-0.001090830782496456,0.0009803793973081544,0.10172961170016323,4.9908690795408686e-05,0,0,0,0,0,0,1500,1500,1500,1500,1500,1500
1747607216.8416896,0.04,0.0,-0.35000000000000003,-0.003272492347489368,0.002181661564992912,0.001090830782496456,0.0009803793973081544,0.10172961170016323,4.9908690795408686e-05,0,0,0,0,0,0,1500,1500,1500,1500,1500,1500
1747607216.9424613,0.04,0.0,-0.35000000000000003,-0.003272492347489368,0.002181661564992912,0.001090830782496456,0.0009803793973081544,0.10172961170016323,4.9908690795408686e-05,0,0,0,0,0,0,1500,1500,1500,1500,1500,1500
1747607217.0260606,0.01,0.05,-0.39,0.002181661564992912,0.002181661564992912,0.001090830782496456,0.0009803793973081544,0.10172961170016323,4.9908690795408686e-05,0,0,0,0,0,0,1500,1500,1500,1500,1500,1500
1747607217.1261709,0.01,0.05,-0.39,0.002181661564992912,0.002181661564992912,0.001090830782496456,0.0009803793973081544,0.10172961170016323,4.9908690795408686e-05,0,0,0,0,0,0,1500,1500,1500,1500,1500,1500
1747607217.2260542,0.01,-0.01,-0.32,0.0,0.001090830782496456,0.001090830782496456,0.0009803793973081544,0.10172961170016323,4.9908690795408686e-05,0,0,0,0,0,0,1500,1500,1500,1500,1500,1500
1747607217.3261251,0.04,0.0,-0.27,-0.001090830782496456,-0.001090830782496456,-0.001090830782496456,0.0009803793973081544,0.10172961170016323,4.9908690795408686e-05,0,0,0,0,0,0,1500,1500,1500,1500,1500,1500
1747607217.425745,0.04,0.0,-0.27,-0.001090830782496456,-0.001090830782496456,-0.001090830782496456,0.0009803793973081544,0.10172961170016323,4.9908690795408686e-05,0,0,0,0,0,0,1500,1500,1500,1500,1500,1500
1747607217.5085814,0.05,0.01,-0.37,0.001090830782496456,-0.001090830782496456,-0.002181661564992912,0.0009803793973081544,0.10172961170016323,4.9908690795408686e-05,0,0,0,0,0,0,1500,1500,1500,1500,1500,1500
1747607217.6095502,0.05,0.01,-0.37,0.001090830782496456,-0.001090830782496456,-0.002181661564992912,0.0009803793973081544,0.10172961170016323,4.9908690795408686e-05,0,0,0,0,0,0,1500,1500,1500,1500,1500,1500
1747607217.7087197,0.04,0.0,-0.34,0.0,-0.001090830782496456,0.001090830782496456,0.0009803793973081544,0.10172961170016323,4.9908690795408686e-05,0,0,0,0,0,0,1500,1500,1500,1500,1500,1500
1747607217.7922068,0.05,0.0,-0.3,-0.003272492347489368,-0.001090830782496456,0.001090830782496456,0.0009803793973081544,0.10172961170016323,4.9908690795408686e-05,0,0,0,0,0,0,1500,1500,1500,1500,1500,1500
1747607217.8922455,0.05,0.0,-0.3,-0.003272492347489368,-0.001090830782496456,0.001090830782496456,0.0009803793973081544,0.10172961170016323,4.9908690795408686e-05,0,0,0,0,0,0,1500,1500,1500,1500,1500,1500
1747607217.9920213,0.04,-0.01,-0.31,-0.001090830782496456,0.002181661564992912,0.002181661564992912,0.0009803793973081544,0.10172961170016323,4.9908690795408686e-05,0,0,0,0,0,0,1500,1500,1500,1500,1500,1500
1747607218.0894978,0.03,0.0,-0.36,0.001090830782496456,-0.003272492347489368,0.001090830782496456,0.0009803793973081544,0.10172961170016323,4.9908690795408686e-05,0,0,0,0,0,0,1500,1500,1500,1500,1500,1500
1747607218.1922553,0.03,0.0,-0.36,0.001090830782496456,-0.003272492347489368,0.001090830782496456,0.0009803793973081544,0.10172961170016323,4.9908690795408686e-05,0,0,0,0,0,0,1500,1500,1500,1500,1500,1500
1747607218.2763836,0.03,0.0,-0.37,-0.001090830782496456,-0.003272492347489368,0.002181661564992912,0.0009803793973081544,0.10172961170016323,4.9908690795408686e-05,0,0,0,0,0,0,1500,1500,1500,1500,1500,1500
1747607218.3763528,0.03,0.0,-0.37,-0.001090830782496456,-0.003272492347489368,0.002181661564992912,0.0009803793973081544,0.10172961170016323,4.9908690795408686e-05,0,0,0,0,0,0,1500,1500,1500,1500,1500,1500
1747607218.4757438,0.03,-0.01,-0.3,-0.002181661564992912,-0.003272492347489368,0.0,0.0009803793973081544,0.10172961170016323,4.9908690795408686e-05,0,0,0,0,0,0,1500,1500,1500,1500,1500,1500
1747607218.5591173,0.03,-0.01,-0.3,-0.002181661564992912,-0.003272492347489368,0.0,0.0009803793973081544,0.10172961170016323,4.9908690795408686e-05,0,0,0,0,0,0,1500,1500,1500,1500,1500,1500
1747607218.659086,0.02,0.0,-0.35000000000000003,-0.003272492347489368,-0.004363323129985824,0.001090830782496456,0.0009803793973081544,0.10172961170016323,4.9908690795408686e-05,0,0,0,0,0,0,1500,1500,1500,1500,1500,1500
1747607218.759115,0.01,0.01,-0.38,0.001090830782496456,-0.002181661564992912,0.0,0.0009803793973081544,0.10172961170016323,4.9908690795408686e-05,0,0,0,0,0,0,1500,1500,1500,1500,1500,1500
1747607218.8584216,0.01,0.01,-0.38,0.001090830782496456,-0.002181661564992912,0.0,0.0009803793973081544,0.10172961170016323,4.9908690795408686e-05,0,0,0,0,0,0,1500,1500,1500,1500,1500,1500
1747607218.9587288,0.01,0.01,-0.29,-0.003272492347489368,-0.003272492347489368,0.003272492347489368,0.0009803793973081544,0.10172961170016323,4.9908690795408686e-05,0,0,0,0,0,0,1500,1500,1500,1500,1500,1500
1747607219.0422244,0.01,0.01,-0.29,-0.003272492347489368,-0.003272492347489368,0.003272492347489368,0.0009803793973081544,0.10172961170016323,4.9908690795408686e-05,0,0,0,0,0,0,1500,1500,1500,1500,1500,1500
1747607219.1421003,0.06,0.01,-0.34,-0.003272492347489368,0.001090830782496456,-0.001090830782496456,0.0009803793973081544,0.10172961170016323,4.9908690795408686e-05,0,0,0,0,0,0,1500,1500,1500,1500,1500,1500
1747607219.2424102,0.02,0.01,-0.35000000000000003,-0.00545415391248228,-0.002181661564992912,0.0,0.0009803793973081544,0.10172961170016323,4.9908690795408686e-05,0,0,0,0,0,0,1500,1500,1500,1500,1500,1500
1747607219.3412704,0.02,0.01,-0.35000000000000003,-0.00545415391248228,-0.002181661564992912,0.0,0.0009803793973081544,0.10172961170016323,4.9908690795408686e-05,0,0,0,0,0,0,1500,1500,1500,1500,1500,1500
1747607219.442743,0.02,0.0,-0.3,0.0,0.001090830782496456,0.0,0.0009803793973081544,0.10172961170016323,4.9908690795408686e-05,0,0,0,0,0,0,1500,1500,1500,1500,1500,1500
1747607219.526121,0.04,-0.01,-0.27,-0.003272492347489368,0.0,0.0,0.0009803793973081544,0.10172961170016323,4.9908690795408686e-05,0,0,0,0,0,0,1500,1500,1500,1500,1500,1500
1747607219.6256554,0.04,-0.01,-0.27,-0.003272492347489368,0.0,0.0,0.0009803793973081544,0.10172961170016323,4.9908690795408686e-05,0,0,0,0,0,0,1500,1500,1500,1500,1500,1500
1747607219.7254105,0.05,0.03,-0.32,0.0,0.00545415391248228,0.002181661564992912,0.0009803793973081544,0.10172961170016323,4.9908690795408686e-05,0,0,0,0,0,0,1500,1500,1500,1500,1500,1500
1747607219.8092525,0.05,0.03,-0.32,0.0,0.00545415391248228,0.002181661564992912,0.0009803793973081544,0.10172961170016323,4.9908690795408686e-05,0,0,0,0,0,0,1500,1500,1500,1500,1500,1500
1747607219.9093053,0.03,0.0,-0.36,0.0,0.001090830782496456,0.001090830782496456,0.0009803793973081544,0.10172961170016323,4.9908690795408686e-05,0,0,0,0,0,0,1500,1500,1500,1500,1500,1500
1747607220.000811,0.04,0.0,-0.34,-0.003272492347489368,0.001090830782496456,0.002181661564992912,0.0009803793973081544,0.10172961170016323,4.9908690795408686e-05,0,0,0,0,0,0,1500,1500,1500,1500,1500,1500
1747607220.0921445,0.04,0.0,-0.34,-0.003272492347489368,0.001090830782496456,0.002181661564992912,0.0009803793973081544,0.10172961170016323,4.9908690795408686e-05,0,0,0,0,0,0,1500,1500,1500,1500,1500,1500
1747607220.191781,0.01,0.0,-0.28,0.0,0.004363323129985824,-0.002181661564992912,0.0009803793973081544,0.10172961170016323,4.9908690795408686e-05,0,0,0,0,0,0,1500,1500,1500,1500,1500,1500
1747607220.275227,0.01,0.0,-0.28,0.0,0.004363323129985824,-0.002181661564992912,0.0009803793973081544,0.10172961170016323,4.9908690795408686e-05,0,0,0,0,0,0,1500,1500,1500,1500,1500,1500
1747607220.3762217,0.03,0.01,-0.38,0.0,-0.003272492347489368,0.001090830782496456,0.0009803793973081544,0.10172961170016323,4.9908690795408686e-05,0,0,0,0,0,0,1500,1500,1500,1500,1500,1500
1747607220.4655757,0.01,0.0,-0.3,0.004363323129985824,0.001090830782496456,0.0,0.0009803793973081544,0.10172961170016323,4.9908690795408686e-05,0,0,0,0,0,0,1500,1500,1500,1500,1500,1500
1747607220.5584958,0.01,0.0,-0.3,0.004363323129985824,0.001090830782496456,0.0,0.0009803793973081544,0.10172961170016323,4.9908690795408686e-05,0,0,0,0,0,0,1500,1500,1500,1500,1500,1500
1747607220.658139,0.05,0.0,-0.3,0.001090830782496456,0.002181661564992912,0.001090830782496456,0.0009803793973081544,0.10172961170016323,4.9908690795408686e-05,0,0,0,0,0,0,1500,1500,1500,1500,1500,1500
1747607220.7592113,0.05,0.0,-0.3,0.001090830782496456,0.002181661564992912,0.001090830782496456,0.0009803793973081544,0.10172961170016323,4.9908690795408686e-05,0,0,0,0,0,0,1500,1500,1500,1500,1500,1500
1747607220.8594294,0.04,0.0,-0.36,0.001090830782496456,-0.002181661564992912,0.001090830782496456,0.0009803793973081544,0.10172961170016323,4.9908690795408686e-05,0,-0.537779,0,0,0,0,1460,1460,1461,1500,1500,1500
1747607220.9592683,0.04,0.0,-0.36,0.001090830782496456,-0.002181661564992912,0.001090830782496456,0.0009803793973081544,0.10172961170016323,4.9908690795408686e-05,0,-1.238321,0,0,0,0,1445,1446,1451,1500,1500,1500
1747607221.058553,0.04,0.01,-0.38,0.002181661564992912,0.001090830782496456,0.001090830782496456,0.0009803793973081544,0.10172961170016323,4.9908690795408686e-05,0,-1.734821,0,0,0,0,1437,1438,1445,1500,1500,1500
1747607221.159534,0.03,0.21,-0.4,0.001090830782496456,0.001090830782496456,0.0,0.0009803793973081544,0.10172961170016323,4.9908690795408686e-05,0,-1.812565,0,0,0,0,1435,1437,1444,1500,1500,1500
1747607221.258486,0.03,0.21,-0.4,0.001090830782496456,0.001090830782496456,0.0,0.0009803793973081544,0.10172961170016323,4.9908690795408686e-05,0,-2.404492,0,0,0,0,1427,1429,1437,1500,1500,1500
1747607221.358454,0.03,-0.02,-0.27,-0.002181661564992912,-0.003272492347489368,0.002181661564992912,0.0009803793973081544,0.10172961170016323,4.9908690795408686e-05,0,-2.683736,0,0,0,0,1423,1424,1434,1500,1500,1500
1747607221.4590445,0.04,-0.06,-0.32,0.001090830782496456,0.002181661564992912,0.001090830782496456,0.0009803793973081544,0.10172961170016323,4.9908690795408686e-05,0,-2.878419,0,0,0,0,1421,1422,1432,1500,1500,1500
1747607221.5421958,0.04,-0.06,-0.32,0.001090830782496456,0.002181661564992912,0.001090830782496456,0.0009803793973081544,0.10172961170016323,4.9908690795408686e-05,0,-3.079918,0,0,0,0,1418,1420,1430,1500,1500,1500
1747607221.640935,0.03,-0.01,-0.27,-0.002181661564992912,-0.001090830782496456,0.001090830782496456,0.0009803793973081544,0.10172961170016323,4.9908690795408686e-05,0,-4.808429,0,0,0,0,1398,1400,1413,1500,1500,1500
1747607221.7386339,0.0,0.01,-0.3,-0.004363323129985824,0.001090830782496456,0.0,0.0009803793973081544,0.10172961170016323,4.9908690795408686e-05,0,-5.33412,0,0,0,0,1392,1394,1408,1500,1500,1500
1747607221.8389213,0.0,0.01,-0.3,-0.004363323129985824,0.001090830782496456,0.0,0.0009803793973081544,0.10172961170016323,4.9908690795408686e-05,0,-0.417013,0,0,0,0,1432,1434,1448,1500,1500,1500
1747607221.943288,0.07,-0.17,-0.42,-0.004363323129985824,-0.002181661564992912,-0.001090830782496456,0.0009803793973081544,0.10172961170016323,4.9908690795408686e-05,0,0,0,0,0,0,1472,1474,1488,1500,1500,1500
1747607222.0260298,0.07,-0.17,-0.42,-0.004363323129985824,-0.002181661564992912,-0.001090830782496456,0.0009803793973081544,0.10172961170016323,4.9908690795408686e-05,0,0,0,0,0,0,1500,1500,1500,1500,1500,1500
1747607222.124764,-0.02,0.24,-0.38,0.006544984694978736,0.004363323129985824,-0.004363323129985824,0.0009803793973081544,0.10172961170016323,4.9908690795408686e-05,0,0,0,0,0,0,1500,1500,1500,1500,1500,1500
1747607222.2131693,0.0,0.11,-0.35000000000000003,0.001090830782496456,0.00545415391248228,0.0,0.0009803793973081544,0.10172961170016323,4.9908690795408686e-05,0,0,0,0,0,0,1500,1500,1500,1500,1500,1500
1747607222.3083944,0.0,0.11,-0.35000000000000003,0.001090830782496456,0.00545415391248228,0.0,0.0009803793973081544,0.10172961170016323,4.9908690795408686e-05,0,0,0,0,0,0,1500,1500,1500,1500,1500,1500
1747607222.4085355,0.02,0.01,-0.35000000000000003,0.001090830782496456,0.001090830782496456,0.0,0.0009803793973081544,0.10172961170016323,4.9908690795408686e-05,0,4.555991,0,0,0,0,1540,1540,1540,1500,1500,1500
1747607222.5087447,0.02,0.01,-0.35000000000000003,0.001090830782496456,0.001090830782496456,0.0,0.0009803793973081544,0.10172961170016323,4.9908690795408686e-05,0,5.607359,0,0,0,0,1580,1580,1580,1500,1500,1500
1747607222.6090422,0.03,0.01,-0.36,0.0,0.001090830782496456,0.0,0.0009803793973081544,0.10172961170016323,4.9908690795408686e-05,0,5.607359,0,0,0,0,1598,1596,1584,1500,1500,1500
1747607222.7094438,-0.08,-0.14,-0.36,-0.011999138607461015,-0.001090830782496456,0.001090830782496456,0.0009803916371644043,0.10185215988698361,4.9969229038955725e-05,0,5.607359,0,0,0,0,1598,1596,1584,1500,1500,1500
1747607222.792429,-0.08,-0.14,-0.36,-0.011999138607461015,-0.001090830782496456,0.001090830782496456,0.0009803916371644043,0.10185215988698361,4.9969229038955725e-05,0,5.607359,0,0,0,0,1598,1596,1584,1500,1500,1500
1747607222.8921907,0.13,0.0,-0.34,-0.004363323129985824,0.001090830782496456,0.0,0.0013480218621117965,0.10172961170016323,6.862444979294059e-05,0,5.607359,0,0,0,0,1598,1596,1584,1500,1500,1500
1747607222.992453,0.13,0.0,-0.34,-0.004363323129985824,0.001090830782496456,0.0,0.0013480218621117965,0.10172961170016323,6.862444979294059e-05,0,5.607359,0,0,0,0,1598,1596,1584,1500,1500,1500
1747607223.0925877,0.02,0.17,-0.35000000000000003,0.00545415391248228,0.006544984694978736,0.001090830782496456,0.0013480218621117965,0.10172961170016323,6.862444979294059e-05,0,5.607359,0,0,0,0,1598,1596,1584,1500,1500,1500
1747607223.1925757,0.05,0.09,-0.31,0.013089969389957472,-0.002181661564992912,0.0,0.0013480218621117965,0.10172961170016323,6.862444979294059e-05,0,5.607359,0,0,0,0,1598,1596,1584,1500,1500,1500
1747607223.2754984,0.05,0.09,-0.31,0.013089969389957472,-0.002181661564992912,0.0,0.0013480218621117965,0.10172961170016323,6.862444979294059e-05,0,5.607359,0,0,0,0,1598,1596,1584,1500,1500,1500
1747607223.3755536,0.09,0.11,-0.24,0.013089969389957472,0.007635815477475192,0.0,0.0015931169360321356,0.10172961170016323,8.110162243206259e-05,0,0.825467,0,0,0,0,1558,1556,1544,1500,1500,1500
1747607223.4759536,0.09,0.11,-0.24,0.013089969389957472,0.007635815477475192,0.0,0.0015931169360321356,0.10172961170016323,8.110162243206259e-05,0,0,0,0,0,0,1518,1516,1504,1500,1500,1500
1747607223.5749826,-0.19,-0.01,-0.31,0.0,0.003272492347489368,0.004363323129985824,0.001838189183278207,0.10160706504639712,9.346529007416618e-05,0,0,0,0,0,0,1500,1500,1500,1500,1500,1500
1747607223.674779,-0.1,0.0,-0.31,-0.003272492347489368,0.003272492347489368,0.001090830782496456,0.0019607352797761496,0.10160706504639712,9.969630937244597e-05,0,0,0,0,0.128962,0,1500,1500,1500,1500,1540,1540
1747607223.7578125,-0.1,0.0,-0.31,-0.003272492347489368,0.003272492347489368,0.001090830782496456,0.0019607352797761496,0.10160706504639712,9.969630937244597e-05,0,0,0,0,0.550792,0,1500,1500,1500,1500,1580,1580
1747607223.8587084,0.03,0.0,-0.3,0.004363323129985824,-0.001090830782496456,0.0,0.0019607352797761496,0.10160706504639712,9.969630937244597e-05,0,0,0,0,0.56,0,1500,1500,1500,1500,1596,1596
1747607223.9576387,-0.01,0.4,-0.56,0.009817477042468103,-0.001090830782496456,0.00545415391248228,0.001954504272352382,0.10160718487370372,-2.2849567542681502e-05,0,0,0,0,0.56,0,1500,1500,1500,1500,1596,1596
1747607224.041384,-0.01,0.4,-0.56,0.009817477042468103,-0.001090830782496456,0.00545415391248228,0.001954504272352382,0.10160718487370372,-2.2849567542681502e-05,0,0,0,0,0.56,0,1500,1500,1500,1500,1596,1596
1747607224.1417606,0.1,-0.27,-0.3,-0.003272492347489368,-0.002181661564992912,0.006544984694978736,0.001954504272352382,0.10160718487370372,-2.2849567542681502e-05,0,0,0,0,0.48847,0,1500,1500,1500,1500,1590,1590
1747607224.242195,0.1,-0.27,-0.3,-0.003272492347489368,-0.002181661564992912,0.006544984694978736,0.001954504272352382,0.10160718487370372,-2.2849567542681502e-05,0,0,0,0,0.034642,0,1500,1500,1500,1500,1550,1550
1747607224.3424222,0.1,-0.12,-0.23,-0.006544984694978736,-0.003272492347489368,0.008726646259971648,0.002077050399608884,0.10160719236291044,-1.6618548142040864e-05,0,0,0,0,0,0,1500,1500,1500,1500,1510,1510
1747607224.4379792,0.39,-0.58,-0.22,0.003272492347489368,0.006544984694978736,-0.009817477042468103,0.0025673089253497343,0.10197486688800263,8.777678202332553e-06,0,0,0,0,0,0,1500,1500,1500,1500,1500,1500
1747607224.5250003,0.39,-0.58,-0.22,0.003272492347489368,0.006544984694978736,-0.009817477042468103,0.0025673089253497343,0.10197486688800263,8.777678202332553e-06,0,0,0,0,-0.22119,0,1500,1500,1500,1500,1460,1460
1747607224.6251605,-0.01,-0.22,-0.17,0.00545415391248228,0.007635815477475192,-0.007635815477475192,0.0025797368928295386,0.10172945442485927,0.0002535577150983993,0,0,0,0,-0.56,0,1500,1500,1500,1500,1420,1420
1747607224.7249181,-0.01,-0.22,-0.17,0.00545415391248228,0.007635815477475192,-0.007635815477475192,0.0025797368928295386,0.10172945442485927,0.0002535577150983993,0,0,0,0,-0.56,0,1500,1500,1500,1500,1391,1391
1747607224.8089187,0.09,1.4000000000000001,-0.89,0.003272492347489368,0.0,0.004363323129985824,0.0023346047541974316,0.10160692275147243,0.0002409352419926356,0,0,0,0,-0.56,0,1500,1500,1500,1500,1391,1391
1747607224.9086137,0.09,1.4000000000000001,-0.89,0.003272492347489368,0.0,0.004363323129985824,0.0023346047541974316,0.10160692275147243,0.0002409352419926356,0,0,0,0,-0.56,0,1500,1500,1500,1500,1391,1391
1747607225.008554,0.66,0.47000000000000003,-0.63,-0.00545415391248228,-0.008726646259971648,0.02181661564992912,0.002334641355231302,0.10172946940345953,0.00024108054305909212,0,0,0,0,-0.56,0,1500,1500,1500,1500,1391,1391
1747607225.1086454,-0.1,-0.25,-0.17,0.001090830782496456,0.0,0.0,0.0025859282339531714,0.10160675049972426,0.00037594315419240315,0,0,0,0,-0.56,0,1500,1500,1500,1500,1391,1391
1747607225.2086656,-0.1,-0.25,-0.17,0.001090830782496456,0.0,0.0,0.0025859282339531714,0.10160675049972426,0.00037594315419240315,0,0,0,0,0,0,1500,1500,1500,1500,1431,1431
1747607225.2925124,0.07,0.05,-0.34,0.00545415391248228,0.004363323129985824,-0.003272492347489368,0.0027084745290788625,0.10160673552131151,0.0003821741728401596,0,0,0,0,0,0,1500,1500,1500,1500,1471,1471
1747607225.3858314,0.08,-0.53,-0.28,0.007635815477475192,0.003272492347489368,-0.006544984694978736,0.002831020864187837,0.10160672054289879,0.00038840519145823976,0,0,0,0,0,0,1500,1500,1500,1500,1500,1500
1747607225.492597,0.08,-0.53,-0.28,0.007635815477475192,0.003272492347489368,-0.006544984694978736,0.002831020864187837,0.10160672054289879,0.00038840519145823976,0,0,0,0,0,-0.019321,1500,1500,1500,1500,1500,1500
1747607225.5922835,-0.17,0.0,-0.13,0.006544984694978736,-0.002181661564992912,0.003272492347489368,0.0028434174818196627,0.10148383092540635,0.000633316805313521,0,-0.125224,0,0,0,-0.150289,1460,1540,1500,1500,1500,1500
1747607225.6925032,-0.17,0.0,-0.13,0.006544984694978736,-0.002181661564992912,0.003272492347489368,0.0028434174818196627,0.10148383092540635,0.000633316805313521,0,-1.371658,0,0,0,-0.172475,1420,1538,1460,1500,1500,1500
1747607225.7760816,-0.09,0.04,-0.4,0.001090830782496456,-0.001090830782496456,0.001090830782496456,0.002720872677213455,0.10148386088185668,0.0006270933543993418,0,-2.404492,0,0,0,-0.12963,1411,1498,1437,1500,1500,1500
1747607225.8755066,-0.03,-0.12,-0.27,-0.002181661564992912,0.002181661564992912,0.002181661564992912,0.0025982656351871106,0.10136134725280183,0.0006207049109063466,0,-2.683736,0,0,0,-0.046218,1423,1458,1434,1500,1500,1500
1747607225.9761925,-0.03,-0.12,-0.27,-0.002181661564992912,0.002181661564992912,0.002181661564992912,0.0025982656351871106,0.10136134725280183,0.0006207049109063466,0,-2.978317,0,0,0,0,1420,1421,1431,1500,1500,1500
1747607226.0752184,0.1,0.03,-0.28,-0.00545415391248228,0.002181661564992912,0.002181661564992912,0.002475722432698549,0.10136137720887875,0.0006144890263269663,0,-3.079918,0,0,0,0,1418,1420,1430,1500,1500,1500
1747607226.1750364,0.1,0.03,-0.28,-0.00545415391248228,0.002181661564992912,0.002181661564992912,0.002475722432698549,0.10136137720887875,0.0006144890263269663,0,-0.221491,0,0,0,0,1458,1460,1470,1500,1500,1500
1747607226.2585132,0.09,0.09,-0.25,-0.003272492347489368,0.00545415391248228,-0.001090830782496456,0.002475722432698549,0.10136137720887875,0.0006144890263269663,0,0,0,0,0,0,1498,1500,1500,1500,1500,1500
1747607226.358798,-0.05,-0.24,-0.55,0.00545415391248228,0.00545415391248228,0.00545415391248228,0.002475722432698549,0.10136137720887875,0.0006144890263269663,0,0.05627,0,0,0,0,1500,1500,1500,1500,1500,1500
1747607226.4588268,-0.05,-0.24,-0.55,0.00545415391248228,0.00545415391248228,0.00545415391248228,0.002475722432698549,0.10136137720887875,0.0006144890263269663,0,2.056208,0,0,0,0,1540,1540,1540,1500,1500,1500
1747607226.5428526,0.01,0.03,-0.26,0.00545415391248228,0.006544984694978736,0.0,0.002475722432698549,0.10136137720887875,0.0006144890263269663,0,4.310189,0,0,0,0,1580,1580,1574,1500,1500,1500
1747607226.641752,0.01,0.03,-0.26,0.00545415391248228,0.006544984694978736,0.0,0.002475722432698549,0.10136137720887875,0.0006144890263269663,0,5.200317,0,0,0,0,1594,1593,1580,1500,1500,1500
1747607226.742372,0.0,-0.03,-0.3,0.0,0.007635815477475192,0.0,0.002475722432698549,0.10136137720887875,0.0006144890263269663,0,5.469975,0,0,0,0,1596,1595,1582,1500,1500,1500
1747607226.8423827,0.14,0.1,-0.41000000000000003,0.004363323129985824,0.00545415391248228,-0.001090830782496456,0.00235317926635473,0.10136140716495577,0.0006082731417001016,0,5.607359,0,0,0,0,1598,1596,1584,1500,1500,1500
1747607226.942463,0.14,0.1,-0.41000000000000003,0.004363323129985824,0.00545415391248228,-0.001090830782496456,0.00235317926635473,0.10136140716495577,0.0006082731417001016,0,1.238486,0,0,0,0,1558,1556,1545,1500,1500,1500
1747607227.0254736,0.06,-0.01,-0.34,0.0,-0.001090830782496456,0.001090830782496456,0.00235317926635473,0.10136140716495577,0.0006082731417001016,0,0,0,0,0,0,1518,1516,1505,1500,1500,1500
1747607227.125382,0.06,-0.01,-0.34,0.0,-0.001090830782496456,0.001090830782496456,0.00235317926635473,0.10136140716495577,0.0006082731417001016,0,0,0,0,0,0,1500,1500,1500,1500,1500,1500
1747607227.225696,0.06,-0.4,-0.23,-0.00545415391248228,-0.004363323129985824,0.00545415391248228,0.00235317926635473,0.10136140716495577,0.0006082731417001016,0,0,0,0,0,0,1500,1500,1500,1500,1500,1500
1747607227.3084147,0.05,-0.18,-0.29,-0.007635815477475192,-0.001090830782496456,0.0,0.002475722432698549,0.10136137720887875,0.0006144890263269663,0,0,0,0,0,0,1500,1500,1500,1500,1500,1500
1747607227.4088225,0.05,-0.18,-0.29,-0.007635815477475192,-0.001090830782496456,0.0,0.002475722432698549,0.10136137720887875,0.0006144890263269663,0,0,0,0,0,0,1500,1500,1500,1500,1500,1500
1747607227.508343,0.03,-0.06,-0.34,-0.002181661564992912,0.001090830782496456,0.004363323129985824,0.00235317926635473,0.10136140716495577,0.0006082731417001016,0,0,0,0,0,0,1500,1500,1500,1500,1500,1500
1747607227.6083639,0.03,-0.06,-0.34,-0.002181661564992912,0.001090830782496456,0.004363323129985824,0.00235317926635473,0.10136140716495577,0.0006082731417001016,0,0,0,0,0,0,1500,1500,1500,1500,1500,1500
1747607227.7099216,0.02,0.03,-0.36,0.0,0.003272492347489368,0.0,0.00235317926635473,0.10136140716495577,0.0006082731417001016,0,0,0,0,0,0,1500,1500,1500,1500,1500,1500
1747607227.808959,0.03,0.0,-0.33,0.004363323129985824,0.0,0.001090830782496456,0.00235317926635473,0.10136140716495577,0.0006082731417001016,0,0,0,0,0,0,1500,1500,1500,1500,1500,1500
1747607227.9089823,0.03,0.0,-0.33,0.004363323129985824,0.0,0.001090830782496456,0.00235317926635473,0.10136140716495577,0.0006082731417001016,0,0,0,0,0,0,1500,1500,1500,1500,1500,1500
1747607227.9929934,0.03,0.02,-0.36,0.001090830782496456,-0.001090830782496456,0.0,0.00235317926635473,0.10136140716495577,0.0006082731417001016,0,0,0,0,0,0,1500,1500,1500,1500,1500,1500
1747607228.0927036,0.02,0.0,-0.32,-0.002181661564992912,0.0,0.0,0.00235317926635473,0.10136140716495577,0.0006082731417001016,0,0,0,0,0,0,1500,1500,1500,1500,1500,1500
1747607228.1929078,0.02,0.0,-0.32,-0.002181661564992912,0.0,0.0,0.00235317926635473,0.10136140716495577,0.0006082731417001016,0,0,0,0,0,0,1500,1500,1500,1500,1500,1500
1747607228.2762191,0.04,0.0,-0.31,-0.001090830782496456,0.001090830782496456,0.002181661564992912,0.00235317926635473,0.10136140716495577,0.0006082731417001016,0,0,0,0,0,0,1500,1500,1500,1500,1500,1500
1747607228.3766525,0.04,0.0,-0.31,-0.001090830782496456,0.001090830782496456,0.002181661564992912,0.00235317926635473,0.10136140716495577,0.0006082731417001016,0,-1.371658,0,0,0,0,1460,1460,1460,1500,1500,1500
1747607228.475337,0.02,0.0,-0.35000000000000003,-0.002181661564992912,-0.001090830782496456,0.0,0.00235317926635473,0.10136140716495577,0.0006082731417001016,0,-2.140585,0,0,0,0,1431,1432,1440,1500,1500,1500
1747607228.5748167,0.03,0.0,-0.36,0.001090830782496456,-0.003272492347489368,0.0,0.00235317926635473,0.10136140716495577,0.0006082731417001016,0,-2.58895,0,0,0,0,1424,1426,1434,1500,1500,1500
1747607228.6754968,0.03,0.0,-0.36,0.001090830782496456,-0.003272492347489368,0.0,0.00235317926635473,0.10136140716495577,0.0006082731417001016,0,-2.878419,0,0,0,0,1421,1422,1432,1500,1500,1500
1747607228.7597005,0.0,-0.26,-0.3,-0.007635815477475192,-0.002181661564992912,0.004363323129985824,0.002230636134329721,0.10136143712103289,0.000602057257026233,0,-2.978317,0,0,0,0,1420,1421,1431,1500,1500,1500
1747607228.860747,0.0,-0.26,-0.3,-0.007635815477475192,-0.002181661564992912,0.004363323129985824,0.002230636134329721,0.10136143712103289,0.000602057257026233,0,-2.978317,0,0,0,0,1420,1421,1431,1500,1500,1500
1747607228.959372,0.07,-0.09,-0.36,-0.001090830782496456,-0.001090830782496456,0.0,0.002108093034797586,0.10136146707711009,0.0005958413723058407,0,-2.978317,0,0,0,0,1420,1421,1431,1500,1500,1500
1747607229.060697,0.07,0.01,-0.37,-0.001090830782496456,-0.003272492347489368,0.0,0.002108093034797586,0.10136146707711009,0.0005958413723058407,0,-2.978317,0,0,0,0,1420,1421,1431,1500,1500,1500
1747607229.1623652,0.07,0.01,-0.37,-0.001090830782496456,-0.003272492347489368,0.0,0.002108093034797586,0.10136146707711009,0.0005958413723058407,0,-1.812565,0,0,0,0,1435,1437,1444,1500,1500,1500
1747607229.2470708,0.07,0.06,-0.38,0.001090830782496456,-0.001090830782496456,0.0,0.002108093034797586,0.10136146707711009,0.0005958413723058407,0,-0.992096,0,0,0,0,1449,1450,1454,1500,1500,1500
1747607229.345151,0.07,0.06,-0.38,0.001090830782496456,-0.001090830782496456,0.0,0.002108093034797586,0.10136146707711009,0.0005958413723058407,0,0,0,0,0,0,1489,1490,1494,1500,1500,1500
1747607229.443872,-0.05,0.02,-0.3,0.001090830782496456,0.0,-0.002181661564992912,0.002108093034797586,0.10136146707711009,0.0005958413723058407,0,0,0,0,0,0,1500,1500,1500,1500,1500,1500
1747607229.5283556,0.02,-0.05,-0.24,0.0,-0.001090830782496456,-0.001090830782496456,0.002108093034797586,0.10136146707711009,0.0005958413723058407,0,0,0,0,0,0,1500,1500,1500,1500,1500,1500
1747607229.626792,0.02,-0.05,-0.24,0.0,-0.001090830782496456,-0.001090830782496456,0.002108093034797586,0.10136146707711009,0.0005958413723058407,0,0,0,0,0,0,1500,1500,1500,1500,1500,1500
1747607229.7269764,0.0,0.0,-0.37,-0.004363323129985824,-0.001090830782496456,0.001090830782496456,0.002108093034797586,0.10136146707711009,0.0005958413723058407,0,0,0,0,0,0,1500,1500,1500,1500,1500,1500
1747607229.8286662,0.0,0.0,-0.37,-0.004363323129985824,-0.001090830782496456,0.001090830782496456,0.002108093034797586,0.10136146707711009,0.0005958413723058407,0,0,0,0,0,0,1500,1500,1500,1500,1500,1500
1747607229.9273121,0.02,0.0,-0.28,-0.004363323129985824,0.001090830782496456,-0.002181661564992912,0.002108093034797586,0.10136146707711009,0.0005958413723058407,0,0,0,0,0,-0.234621,1460,1540,1500,1500,1500,1500
1747607230.0112207,0.02,-0.01,-0.28,-0.001090830782496456,0.004363323129985824,0.0,0.002108093034797586,0.10136146707711009,0.0005958413723058407,0,0,0,0,0,-0.337656,1420,1576,1500,1500,1500,1500
1747607230.1092398,0.02,-0.01,-0.28,-0.001090830782496456,0.004363323129985824,0.0,0.002108093034797586,0.10136146707711009,0.0005958413723058407,0,0,0,0,0,-0.337656,1416,1576,1500,1500,1500,1500
1747607230.2094133,-0.48,0.33,-0.08,0.016362461737446838,0.006544984694978736,-0.001090830782496456,0.002108093034797586,0.10136146707711009,0.0005958413723058407,0,0,0,0,0,-0.337656,1416,1576,1500,1500,1500,1500
1747607230.2953506,-0.48,0.33,-0.08,0.016362461737446838,0.006544984694978736,-0.001090830782496456,0.002108093034797586,0.10136146707711009,0.0005958413723058407,0,0,0,0,0,-0.027766,1456,1536,1500,1500,1500,1500
1747607230.3934152,0.0,0.12,-0.54,0.00545415391248228,-0.001090830782496456,0.0,0.0018630600570093145,0.10148407057701167,0.0005835291966669466,0,0,0,0,0,0,1496,1500,1500,1500,1500,1500
1747607230.4778404,0.02,0.2,-0.3,0.004363323129985824,0.003272492347489368,0.0,0.0017342920766565643,0.10148420538104223,0.0004547613887955349,0,0,0,0,0,0,1500,1500,1500,1500,1500,1500
1747607230.5771034,0.02,0.2,-0.3,0.004363323129985824,0.003272492347489368,0.0,0.0017342920766565643,0.10148420538104223,0.0004547613887955349,0,0,0,0,0,0,1500,1500,1500,1500,1500,1500
1747607230.676481,0.0,0.01,-0.26,0.004363323129985824,-0.001090830782496456,-0.001090830782496456,0.0017342920766565643,0.10148420538104223,0.0004547613887955349,0,0,0,0,0,0,1500,1500,1500,1500,1500,1500
1747607230.760279,0.0,0.01,-0.26,0.004363323129985824,-0.001090830782496456,-0.001090830782496456,0.0017342920766565643,0.10148420538104223,0.0004547613887955349,0,0,0,0,0,0,1500,1500,1500,1500,1500,1500
1747607230.860772,0.03,0.03,-0.38,0.001090830782496456,-0.001090830782496456,-0.001090830782496456,0.0017342920766565643,0.10148420538104223,0.0004547613887955349,0,0,0,0,0,0,1500,1500,1500,1500,1500,1500
1747607230.9592988,0.02,0.0,-0.27,-0.003272492347489368,0.00545415391248228,0.001090830782496456,0.0017342920766565643,0.10148420538104223,0.0004547613887955349,0,0,0,0,0,0.139779,1540,1460,1500,1500,1500,1500
1747607231.0419571,0.02,0.0,-0.27,-0.003272492347489368,0.00545415391248228,0.001090830782496456,0.0017342920766565643,0.10148420538104223,0.0004547613887955349,0,0,0,0,0,0.214986,1561,1432,1500,1500,1500,1500
1747607231.1424763,0.05,-0.01,-0.3,-0.001090830782496456,-0.002181661564992912,0.0,0.0017342920766565643,0.10148420538104223,0.0004547613887955349,0,0,0,0,0,0.234631,1564,1429,1500,1500,1500,1500
1747607231.2421534,0.05,-0.01,-0.3,-0.001090830782496456,-0.002181661564992912,0.0,0.0017342920766565643,0.10148420538104223,0.0004547613887955349,0,0,0,0,0,0.241371,1564,1428,1500,1500,1500,1500
1747607231.3423867,0.06,0.11,-0.38,-0.003272492347489368,0.004363323129985824,0.001090830782496456,0.0017342920766565643,0.10148420538104223,0.0004547613887955349,0,0,0,0,0,0.241371,1564,1428,1500,1500,1500,1500
1747607231.4420745,0.04,0.05,-0.4,0.003272492347489368,-0.002181661564992912,0.0,0.0017342920766565643,0.10148420538104223,0.0004547613887955349,0,0,0,0,0,0.241371,1564,1428,1500,1500,1500,1500
1747607231.5258353,0.04,0.05,-0.4,0.003272492347489368,-0.002181661564992912,0.0,0.0017342920766565643,0.10148420538104223,0.0004547613887955349,0,0,0,0,0,0.241371,1564,1428,1500,1500,1500,1500
1747607231.6249652,0.01,0.01,-0.31,0.003272492347489368,-0.003272492347489368,0.001090830782496456,0.0017342920766565643,0.10148420538104223,0.0004547613887955349,0,0,0,0,0,0.241371,1564,1428,1500,1500,1500,1500
1747607231.726284,0.01,0.01,-0.31,0.003272492347489368,-0.003272492347489368,0.001090830782496456,0.0017342920766565643,0.10148420538104223,0.0004547613887955349,0,0,0,0,0,0.052357,1524,1468,1500,1500,1500,1500
1747607231.8263307,0.04,0.02,-0.35000000000000003,0.0,-0.003272492347489368,-0.003272492347489368,0.0017342920766565643,0.10148420538104223,0.0004547613887955349,0,0,0,0,0,0,1500,1500,1500,1500,1500,1500
1747607231.926246,0.07,0.06,-0.26,0.0,0.0,-0.003272492347489368,0.0017342920766565643,0.10148420538104223,0.0004547613887955349,0,0,0,0,0,0,1500,1500,1500,1500,1500,1500
1747607232.0096047,0.07,0.06,-0.26,0.0,0.0,-0.003272492347489368,0.0017342920766565643,0.10148420538104223,0.0004547613887955349,0,0,0,0,0,0,1500,1500,1500,1500,1500,1500
1747607232.1083236,0.03,0.0,-0.31,0.001090830782496456,-0.001090830782496456,-0.001090830782496456,0.0017342920766565643,0.10148420538104223,0.0004547613887955349,0,0,0,0,0,0,1500,1500,1500,1500,1500,1500
1747607232.2085402,0.03,-0.02,-0.29,-0.001090830782496456,0.003272492347489368,0.001090830782496456,0.0017342920766565643,0.10148420538104223,0.0004547613887955349,0,0,0,0,0,0,1500,1500,1500,1500,1500,1500
1747607232.2924209,0.03,-0.02,-0.29,-0.001090830782496456,0.003272492347489368,0.001090830782496456,0.0017342920766565643,0.10148420538104223,0.0004547613887955349,0,0,0,0,0,0,1500,1500,1500,1500,1500,1500
1747607232.3928928,0.05,0.0,-0.34,-0.001090830782496456,-0.002181661564992912,-0.001090830782496456,0.0017342920766565643,0.10148420538104223,0.0004547613887955349,0,0,0,0,0,0,1500,1500,1500,1500,1500,1500
1747607232.493536,0.05,0.0,-0.34,-0.001090830782496456,-0.002181661564992912,-0.001090830782496456,0.0017342920766565643,0.10148420538104223,0.0004547613887955349,0,0,0,0,0,0,1500,1500,1500,1500,1500,1500
1747607232.5936165,0.06,0.0,-0.36,-0.002181661564992912,0.001090830782496456,-0.001090830782496456,0.0017342920766565643,0.10148420538104223,0.0004547613887955349,0,0,0,0,0,0,1500,1500,1500,1500,1500,1500
1747607232.6874444,0.04,0.0,-0.28,0.001090830782496456,0.0,0.0,0.0017342920766565643,0.10148420538104223,0.0004547613887955349,0,0,0,0,0,0,1500,1500,1500,1500,1500,1500
1747607232.7768922,0.04,0.0,-0.28,0.001090830782496456,0.0,0.0,0.0017342920766565643,0.10148420538104223,0.0004547613887955349,0,0,0,0,0,0,1500,1500,1500,1500,1500,1500
1747607232.8759463,0.04,-0.02,-0.28,-0.003272492347489368,-0.001090830782496456,-0.002181661564992912,0.0017342920766565643,0.10148420538104223,0.0004547613887955349,0,0,0,0,0,0,1500,1500,1500,1500,1500,1500
1747607232.9764445,0.04,-0.02,-0.28,-0.003272492347489368,-0.001090830782496456,-0.002181661564992912,0.0017342920766565643,0.10148420538104223,0.0004547613887955349,0,0,0,0,0,0,1500,1500,1500,1500,1500,1500
1747607233.0765054,0.04,0.0,-0.39,0.002181661564992912,0.002181661564992912,0.002181661564992912,0.0017342920766565643,0.10148420538104223,0.0004547613887955349,0,0,0,0,0,0,1500,1500,1500,1500,1500,1500
1747607233.1708772,0.04,0.0,-0.33,-0.001090830782496456,0.0,0.0,0.0017342920766565643,0.10148420538104223,0.0004547613887955349,0,0,0,0,0,0,1500,1500,1500,1500,1500,1500
1747607233.2599277,0.04,0.0,-0.33,-0.001090830782496456,0.0,0.0,0.0017342920766565643,0.10148420538104223,0.0004547613887955349,0,0,0,0,0,0,1500,1500,1500,1500,1500,1500
1747607233.359445,0.04,0.0,-0.27,0.001090830782496456,-0.003272492347489368,0.001090830782496456,0.0017342920766565643,0.10148420538104223,0.0004547613887955349,0,0,0,0,0,0,1500,1500,1500,1500,1500,1500
1747607233.4595106,0.04,0.0,-0.27,0.001090830782496456,-0.003272492347489368,0.001090830782496456,0.0017342920766565643,0.10148420538104223,0.0004547613887955349,0,0,0,0,0,0,1500,1500,1500,1500,1500,1500
1747607233.5597537,0.04,0.0,-0.28,-0.001090830782496456,-0.001090830782496456,0.003272492347489368,0.0017342920766565643,0.10148420538104223,0.0004547613887955349,0,0,0,0,0,0,1500,1500,1500,1500,1500,1500
1747607233.6597803,0.03,0.01,-0.36,0.0,0.00545415391248228,0.001090830782496456,0.0017342920766565643,0.10148420538104223,0.0004547613887955349,0,0,0,0,0,0,1500,1500,1500,1500,1500,1500
1747607233.7428813,0.03,0.01,-0.36,0.0,0.00545415391248228,0.001090830782496456,0.0017342920766565643,0.10148420538104223,0.0004547613887955349,0,0,0,0,0,0,1500,1500,1500,1500,1500,1500
1747607233.8425596,0.02,0.01,-0.31,-0.002181661564992912,-0.002181661564992912,0.004363323129985824,0.0017342920766565643,0.10148420538104223,0.0004547613887955349,0,0,0,0,0,0,1500,1500,1500,1500,1500,1500
1747607233.9433014,0.02,0.01,-0.31,-0.002181661564992912,-0.002181661564992912,0.004363323129985824,0.0017342920766565643,0.10148420538104223,0.0004547613887955349,0,0,0,0,0,0,1500,1500,1500,1500,1500,1500
1747607234.0259416,0.01,0.0,-0.29,0.003272492347489368,-0.001090830782496456,0.001090830782496456,0.0017342920766565643,0.10148420538104223,0.0004547613887955349,0,0,0,0,0,0,1500,1500,1500,1500,1500,1500
1747607234.125994,0.04,0.0,-0.34,-0.001090830782496456,-0.002181661564992912,0.0,0.0017342920766565643,0.10148420538104223,0.0004547613887955349,0,0,0,0,0,0,1500,1500,1500,1500,1500,1500
1747607234.2272866,0.04,0.0,-0.34,-0.001090830782496456,-0.002181661564992912,0.0,0.0017342920766565643,0.10148420538104223,0.0004547613887955349,0,0,0,0,0,0,1500,1500,1500,1500,1500,1500
1747607234.3265383,0.02,-0.01,-0.35000000000000003,0.0,0.001090830782496456,0.0,0.0017342920766565643,0.10148420538104223,0.0004547613887955349,0,0,0,0,0,0,1500,1500,1500,1500,1500,1500
1747607234.426155,0.02,-0.01,-0.35000000000000003,0.0,0.001090830782496456,0.0,0.0017342920766565643,0.10148420538104223,0.0004547613887955349,0,0,0,0,0,0,1500,1500,1500,1500,1500,1500
1747607234.508875,0.05,0.0,-0.33,-0.003272492347489368,-0.003272492347489368,-0.001090830782496456,0.0017342920766565643,0.10148420538104223,0.0004547613887955349,0,0,0,0,0,0,1500,1500,1500,1500,1500,1500
1747607234.61089,0.04,0.0,-0.27,0.001090830782496456,-0.001090830782496456,0.002181661564992912,0.0017342920766565643,0.10148420538104223,0.0004547613887955349,0,0,0,0,0,0,1500,1500,1500,1500,1500,1500
1747607234.7094269,0.04,0.0,-0.27,0.001090830782496456,-0.001090830782496456,0.002181661564992912,0.0017342920766565643,0.10148420538104223,0.0004547613887955349,0,0,0,0,0,0,1500,1500,1500,1500,1500,1500
1747607234.7932467,0.04,0.0,-0.36,-0.001090830782496456,0.002181661564992912,0.002181661564992912,0.0017342920766565643,0.10148420538104223,0.0004547613887955349,0,0,0,0,0,0,1500,1500,1500,1500,1500,1500
1747607234.8924932,0.04,0.0,-0.36,-0.001090830782496456,0.002181661564992912,0.002181661564992912,0.0017342920766565643,0.10148420538104223,0.0004547613887955349,0,0,0,0,0,0,1500,1500,1500,1500,1500,1500
1747607234.9922743,0.03,0.0,-0.37,-0.001090830782496456,0.001090830782496456,-0.002181661564992912,0.0017342920766565643,0.10148420538104223,0.0004547613887955349,0,0,0,0,0,0,1500,1500,1500,1500,1500,1500
1747607235.0933914,0.04,-0.02,-0.33,-0.002181661564992912,-0.004363323129985824,-0.001090830782496456,0.0017342920766565643,0.10148420538104223,0.0004547613887955349,0,0,0,0,0,0,1500,1500,1500,1500,1500,1500
1747607235.1929939,0.04,-0.02,-0.33,-0.002181661564992912,-0.004363323129985824,-0.001090830782496456,0.0017342920766565643,0.10148420538104223,0.0004547613887955349,0,0,0,0,0,0,1500,1500,1500,1500,1500,1500
1747607235.2757149,0.04,0.0,-0.31,0.001090830782496456,0.0,-0.001090830782496456,0.0017342920766565643,0.10148420538104223,0.0004547613887955349,0,0,0,0,0,0,1500,1500,1500,1500,1500,1500
1747607235.3752654,0.04,0.0,-0.31,0.001090830782496456,0.0,-0.001090830782496456,0.0017342920766565643,0.10148420538104223,0.0004547613887955349,0,0,0,0,0,0,1500,1500,1500,1500,1500,1500
1747607235.4759529,0.04,0.0,-0.35000000000000003,-0.001090830782496456,0.004363323129985824,0.001090830782496456,0.0017342920766565643,0.10148420538104223,0.0004547613887955349,0,0,0,0,0,0,1500,1500,1500,1500,1500,1500
1747607235.5759559,0.04,0.0,-0.34,0.0,0.001090830782496456,0.001090830782496456,0.0017342920766565643,0.10148420538104223,0.0004547613887955349,0,0,0,0,0,0,1500,1500,1500,1500,1500,1500
1747607235.676032,0.04,0.0,-0.34,0.0,0.001090830782496456,0.001090830782496456,0.0017342920766565643,0.10148420538104223,0.0004547613887955349,0,0,0,0,0,0,1500,1500,1500,1500,1500,1500
1747607235.7598367,0.05,0.0,-0.31,0.0,-0.001090830782496456,-0.001090830782496456,0.0017342920766565643,0.10148420538104223,0.0004547613887955349,0,0,0,0,0,0,1500,1500,1500,1500,1500,1500
1747607235.859271,0.05,0.0,-0.31,0.0,-0.001090830782496456,-0.001090830782496456,0.0017342920766565643,0.10148420538104223,0.0004547613887955349,0,0,0,0,0,0,1500,1500,1500,1500,1500,1500
1747607235.959665,0.02,0.0,-0.29,0.0,-0.001090830782496456,0.001090830782496456,0.0017342920766565643,0.10148420538104223,0.0004547613887955349,0,0,0,0,0,0,1500,1500,1500,1500,1500,1500
1747607236.042194,0.02,-0.01,-0.35000000000000003,-0.003272492347489368,0.001090830782496456,0.002181661564992912,0.0017342920766565643,0.10148420538104223,0.0004547613887955349,0,0,0,0,0,0,1500,1500,1500,1500,1500,1500
1747607236.1423488,0.02,-0.01,-0.35000000000000003,-0.003272492347489368,0.001090830782496456,0.002181661564992912,0.0017342920766565643,0.10148420538104223,0.0004547613887955349,0,0,0,0,0,0,1500,1500,1500,1500,1500,1500
1747607236.2421062,0.03,0.0,-0.35000000000000003,0.0,0.00545415391248228,0.001090830782496456,0.0017342920766565643,0.10148420538104223,0.0004547613887955349,0,0,0,0,0,0,1500,1500,1500,1500,1500,1500
1747607236.3434613,0.04,0.0,-0.28,0.0,0.0,0.0,0.0017342920766565643,0.10148420538104223,0.0004547613887955349,0,0,0,0,0,0,1500,1500,1500,1500,1500,1500
1747607236.4422336,0.04,0.0,-0.28,0.0,0.0,0.0,0.0017342920766565643,0.10148420538104223,0.0004547613887955349,0,0,0,0,0,0,1500,1500,1500,1500,1500,1500
1747607236.5263002,0.04,0.02,-0.36,-0.001090830782496456,-0.003272492347489368,0.001090830782496456,0.0017342920766565643,0.10148420538104223,0.0004547613887955349,0,0,0,0,0,0,1500,1500,1500,1500,1500,1500
1747607236.6254523,0.04,0.02,-0.36,-0.001090830782496456,-0.003272492347489368,0.001090830782496456,0.0017342920766565643,0.10148420538104223,0.0004547613887955349,0,0,0,0,0,0,1500,1500,1500,1500,1500,1500
1747607236.7256513,0.02,0.0,-0.32,0.002181661564992912,0.002181661564992912,0.0,0.0017342920766565643,0.10148420538104223,0.0004547613887955349,0,0,0,0,0,0,1500,1500,1500,1500,1500,1500
1747607236.8094413,0.02,0.0,-0.32,0.002181661564992912,0.002181661564992912,0.0,0.0017342920766565643,0.10148420538104223,0.0004547613887955349,0,0,0,0,0,0,1500,1500,1500,1500,1500,1500
1747607236.9093199,0.02,-0.01,-0.31,0.001090830782496456,0.002181661564992912,0.0,0.0017342920766565643,0.10148420538104223,0.0004547613887955349,0,0,0,0,0,0,1500,1500,1500,1500,1500,1500
1747607236.9928381,0.04,0.01,-0.3,-0.001090830782496456,0.003272492347489368,0.001090830782496456,0.0017342920766565643,0.10148420538104223,0.0004547613887955349,0,0,0,0,0,0,1500,1500,1500,1500,1500,1500
1747607237.0930424,0.04,0.01,-0.3,-0.001090830782496456,0.003272492347489368,0.001090830782496456,0.0017342920766565643,0.10148420538104223,0.0004547613887955349,0,0,0,0,0,0,1500,1500,1500,1500,1500,1500
1747607237.1933033,0.04,0.0,-0.35000000000000003,0.0,-0.001090830782496456,0.001090830782496456,0.0017342920766565643,0.10148420538104223,0.0004547613887955349,0,0,0,0,0,0,1500,1500,1500,1500,1500,1500
1747607237.2764173,0.04,0.0,-0.35000000000000003,0.0,-0.001090830782496456,0.001090830782496456,0.0017342920766565643,0.10148420538104223,0.0004547613887955349,0,0,0,0,0,0,1500,1500,1500,1500,1500,1500
1747607237.376368,0.04,0.0,-0.28,0.0,-0.004363323129985824,0.0,0.0017342920766565643,0.10148420538104223,0.0004547613887955349,0,0,0,0,0,0,1500,1500,1500,1500,1500,1500
1747607237.4764535,0.05,-0.01,-0.32,-0.001090830782496456,-0.003272492347489368,0.002181661564992912,0.0017342920766565643,0.10148420538104223,0.0004547613887955349,0,0,0,0,0,0,1500,1500,1500,1500,1500,1500
1747607237.5753655,0.05,-0.01,-0.32,-0.001090830782496456,-0.003272492347489368,0.002181661564992912,0.0017342920766565643,0.10148420538104223,0.0004547613887955349,0,0,0,0,0,0,1500,1500,1500,1500,1500,1500
1747607237.6763024,0.03,0.0,-0.37,-0.001090830782496456,-0.002181661564992912,0.0,0.0017342920766565643,0.10148420538104223,0.0004547613887955349,0,0,0,0,0,0,1500,1500,1500,1500,1500,1500
1747607237.7594242,0.03,0.0,-0.37,-0.001090830782496456,-0.002181661564992912,0.0,0.0017342920766565643,0.10148420538104223,0.0004547613887955349,0,0,0,0,0,0,1500,1500,1500,1500,1500,1500
1747607237.8592002,0.32,0.03,-0.32,-0.004363323129985824,0.001090830782496456,0.0,0.0017342920766565643,0.10148420538104223,0.0004547613887955349,0,0,0,0,0,0,1500,1500,1500,1500,1500,1500
1747607237.9594038,0.01,-0.03,-0.28,-0.004363323129985824,0.0,0.001090830782496456,0.0017342920766565643,0.10148420538104223,0.0004547613887955349,0,0,0,0,0,0,1500,1500,1500,1500,1500,1500
1747607238.043131,0.01,-0.03,-0.28,-0.004363323129985824,0.0,0.001090830782496456,0.0017342920766565643,0.10148420538104223,0.0004547613887955349,0,0,0,0,0,0,1500,1500,1500,1500,1500,1500
1747607238.1424668,0.03,-0.01,-0.31,-0.002181661564992912,-0.001090830782496456,-0.003272492347489368,0.0017342920766565643,0.10148420538104223,0.0004547613887955349,0,0,0,0,0,0,1500,1500,1500,1500,1500,1500
1747607238.2426765,0.03,-0.01,-0.31,-0.002181661564992912,-0.001090830782496456,-0.003272492347489368,0.0017342920766565643,0.10148420538104223,0.0004547613887955349,0,0,0,0,0,0,1500,1500,1500,1500,1500,1500
1747607238.3424737,0.02,0.0,-0.33,0.001090830782496456,-0.001090830782496456,0.0,0.0017342920766565643,0.10148420538104223,0.0004547613887955349,0,0,0,0,0,0,1500,1500,1500,1500,1500,1500
1747607238.4432397,0.04,-0.05,-0.27,-0.002181661564992912,-0.002181661564992912,0.002181661564992912,0.0017342920766565643,0.10148420538104223,0.0004547613887955349,0,0,0,0,0,0,1500,1500,1500,1500,1500,1500
1747607238.5262153,0.04,-0.05,-0.27,-0.002181661564992912,-0.002181661564992912,0.002181661564992912,0.0017342920766565643,0.10148420538104223,0.0004547613887955349,0,0,0,0,0,0,1500,1500,1500,1500,1500,1500
1747607238.6255794,0.02,-0.01,-0.29,-0.001090830782496456,0.004363323129985824,0.001090830782496456,0.0017342920766565643,0.10148420538104223,0.0004547613887955349,0,0,0,0,0,0,1500,1500,1500,1500,1500,1500
1747607238.7257771,0.02,0.0,-0.31,-0.002181661564992912,-0.003272492347489368,0.001090830782496456,0.0017342920766565643,0.10148420538104223,0.0004547613887955349,0,0,0,0,0,0,1500,1500,1500,1500,1500,1500
1747607238.809532,0.02,0.0,-0.31,-0.002181661564992912,-0.003272492347489368,0.001090830782496456,0.0017342920766565643,0.10148420538104223,0.0004547613887955349,0,0,0,0,0,0,1500,1500,1500,1500,1500,1500
