time,ay,ax,az,gy,gx,gz,roll,pitch,yaw,cmd_fx,cmd_fy,cmd_fz,cmd_tx,cmd_ty,cmd_tz,pwm_1,pwm_2,pwm_3,pwm_4,pwm_5,pwm_6
1747549696.908241,0.0,0.0,0.0,0.0,0.0,0.0,0.0,0.0,0.0,0,0,0,0,0,0,1500,1500,1500,1500,1500,1500
1747549696.9988031,0.0,0.0,-0.37,0.001090830782496456,-0.002181661564992912,-0.001090830782496456,-0.008455449947808625,0.10123943426444701,-0.0004283740573875301,0,0,0,0,0,0,1500,1500,1500,1500,1500,1500
1747549697.1002934,0.0,0.0,-0.37,0.001090830782496456,-0.002181661564992912,-0.001090830782496456,-0.008455449947808625,0.10123943426444701,-0.0004283740573875301,0,0,0,0,0,0,1500,1500,1500,1500,1500,1500
1747549697.183283,0.03,0.0,-0.29,-0.002181661564992912,0.004363323129985824,0.001090830782496456,-0.008455449947808625,0.10123943426444701,-0.0004283740573875301,0,0,0,0,0,0,1500,1500,1500,1500,1500,1500
1747549697.282989,0.03,0.0,-0.29,-0.002181661564992912,0.004363323129985824,0.001090830782496456,-0.008455449947808625,0.10123943426444701,-0.0004283740573875301,0,0,0,0,0,0,1500,1500,1500,1500,1500,1500
1747549697.3826957,0.02,0.0,-0.36,-0.001090830782496456,-0.003272492347489368,-0.001090830782496456,-0.008455449947808625,0.10123943426444701,-0.0004283740573875301,0,0,0,0,0,0,1500,1500,1500,1500,1500,1500
1747549697.4825597,0.03,0.02,-0.29,0.002181661564992912,0.0,0.0,-0.008455449947808625,0.10123943426444701,-0.0004283740573875301,0,0,0,0,0,0,1500,1500,1500,1500,1500,1500
1747549697.582541,0.03,0.02,-0.29,0.002181661564992912,0.0,0.0,-0.008455449947808625,0.10123943426444701,-0.0004283740573875301,0,0,0,0,0,0,1500,1500,1500,1500,1500,1500
1747549697.6656437,0.05,0.02,-0.4,-0.001090830782496456,-0.004363323129985824,0.003272492347489368,-0.008455449947808625,0.10123943426444701,-0.0004283740573875301,0,0,0,0,0,0,1500,1500,1500,1500,1500,1500
1747549697.7610996,0.01,0.02,-0.31,0.001090830782496456,-0.002181661564992912,0.002181661564992912,-0.008455449947808625,0.10123943426444701,-0.0004283740573875301,0,0,0,0,0,0,1500,1500,1500,1500,1500,1500
1747549697.8658948,0.01,0.02,-0.31,0.001090830782496456,-0.002181661564992912,0.002181661564992912,-0.008455449947808625,0.10123943426444701,-0.0004283740573875301,0,0,0,0,0,0,1500,1500,1500,1500,1500,1500
1747549697.9489832,0.02,0.02,-0.37,-0.002181661564992912,0.0,-0.001090830782496456,-0.008455449947808625,0.10123943426444701,-0.0004283740573875301,0,0,0,0,0,0,1500,1500,1500,1500,1500,1500
1747549698.0497649,0.02,0.02,-0.37,-0.002181661564992912,0.0,-0.001090830782496456,-0.008455449947808625,0.10123943426444701,-0.0004283740573875301,0,0,0,0,0,0,1500,1500,1500,1500,1500,1500
1747549698.149145,0.01,0.01,-0.31,-0.001090830782496456,-0.002181661564992912,-0.001090830782496456,-0.008455449947808625,0.10123943426444701,-0.0004283740573875301,0,0,0,0,0,0,1500,1500,1500,1500,1500,1500
1747549698.2498882,0.04,0.0,-0.32,0.001090830782496456,-0.001090830782496456,-0.002181661564992912,-0.008455449947808625,0.10123943426444701,-0.0004283740573875301,0,0,0,0,0,0,1500,1500,1500,1500,1500,1500
1747549698.3503122,0.04,0.0,-0.32,0.001090830782496456,-0.001090830782496456,-0.002181661564992912,-0.008455449947808625,0.10123943426444701,-0.0004283740573875301,0,0,0,0,0,0,1500,1500,1500,1500,1500,1500
1747549698.4321957,0.01,0.02,-0.31,-0.001090830782496456,-0.002181661564992912,-0.001090830782496456,-0.008455449947808625,0.10123943426444701,-0.0004283740573875301,0,0,0,0,0,0,1500,1500,1500,1500,1500,1500
1747549698.5343533,0.01,0.02,-0.31,-0.001090830782496456,-0.002181661564992912,-0.001090830782496456,-0.008455449947808625,0.10123943426444701,-0.0004283740573875301,0,0,0,0,0,0,1500,1500,1500,1500,1500,1500
1747549698.6330836,0.05,0.0,-0.35000000000000003,-0.003272492347489368,-0.004363323129985824,0.001090830782496456,-0.008455449947808625,0.10123943426444701,-0.0004283740573875301,0,0,0,0,0,0,1500,1500,1500,1500,1500,1500
1747549698.733045,0.01,0.02,-0.38,0.0,0.001090830782496456,0.001090830782496456,-0.008455449947808625,0.10123943426444701,-0.0004283740573875301,0,-10.521188,0,0,0,0,1460,1460,1460,1500,1500,1500
1747549698.8332572,0.01,0.02,-0.38,0.0,0.001090830782496456,0.001090830782496456,-0.008455449947808625,0.10123943426444701,-0.0004283740573875301,0,-12.5,0,0,0,0,1420,1420,1420,1500,1500,1500
1747549698.916916,0.01,0.0,-0.3,-0.002181661564992912,0.002181661564992912,0.0,-0.008455449947808625,0.10123943426444701,-0.0004283740573875301,0,-12.5,0,0,0,0,1380,1380,1380,1500,1500,1500
1747549699.0174806,0.01,0.0,-0.3,-0.002181661564992912,0.002181661564992912,0.0,-0.008455449947808625,0.10123943426444701,-0.0004283740573875301,0,-12.5,0,0,0,0,1344,1347,1371,1500,1500,1500
1747549699.117059,-0.22,0.0,-0.41000000000000003,0.006544984694978736,0.004363323129985824,-0.006544984694978736,-0.008455449947808625,0.10123943426444701,-0.0004283740573875301,0,-12.5,0,0,0,0,1344,1347,1371,1500,1500,1500
1747549699.215696,-0.04,0.01,-0.3,0.003272492347489368,-0.002181661564992912,0.002181661564992912,-0.009190726184506781,0.10123943426444701,-0.00046562397025259243,0,-12.5,0,0,0,0,1344,1347,1371,1500,1500,1500
1747549699.3162177,-0.04,0.01,-0.3,0.003272492347489368,-0.002181661564992912,0.002181661564992912,-0.009190726184506781,0.10123943426444701,-0.00046562397025259243,0,-12.5,0,0,0,0,1344,1347,1371,1500,1500,1500
1747549699.3995278,0.11,-0.03,-0.41000000000000003,-0.001090830782496456,0.003272492347489368,0.002181661564992912,-0.009190726184506781,0.10123943426444701,-0.00046562397025259243,0,-12.5,0,0,0,0,1344,1347,1371,1500,1500,1500
1747549699.5001369,0.11,-0.03,-0.41000000000000003,-0.001090830782496456,0.003272492347489368,0.002181661564992912,-0.009190726184506781,0.10123943426444701,-0.00046562397025259243,0,-12.5,0,0,0,0,1344,1347,1371,1500,1500,1500
1747549699.5997784,0.04,0.0,-0.28,-0.003272492347489368,0.0,0.003272492347489368,-0.009190726184506781,0.10123943426444701,-0.00046562397025259243,0,0,0,0,0,0,1384,1387,1411,1500,1500,1500
1747549699.6826372,-0.01,0.13,-0.34,0.0,0.004363323129985824,0.001090830782496456,-0.009068179813366559,0.10123943426444701,-0.0004594156515286903,0,0,0,0,0,0,1424,1427,1451,1500,1500,1500
1747549699.7824059,-0.01,0.13,-0.34,0.0,0.004363323129985824,0.001090830782496456,-0.009068179813366559,0.10123943426444701,-0.0004594156515286903,0,0,0,0,0,0,1464,1467,1491,1500,1500,1500
1747549699.8819141,0.32,-0.05,-0.32,0.0,-0.001090830782496456,0.001090830782496456,-0.009558484880871044,0.10136197633043652,-0.00048483908603775216,0,0,0,0,0,0,1500,1500,1500,1500,1500,1500
1747549699.9657521,0.32,-0.05,-0.32,0.0,-0.001090830782496456,0.001090830782496456,-0.009558484880871044,0.10136197633043652,-0.00048483908603775216,0,0,0,0,0,0,1500,1500,1500,1500,1500,1500
1747549700.0652525,0.05,-0.2,-0.23,-0.003272492347489368,0.0,0.0,-0.009313388401636221,0.10136197633043652,-0.00047240731647481125,0,0,0,0,0,0,1500,1500,1500,1500,1500,1500
1747549700.1496844,0.04,0.0,-0.33,-0.002181661564992912,-0.002181661564992912,0.001090830782496456,-0.009190840371073377,0.10136197633043652,-0.00046619143163834315,0,0,0,0,0,0,1500,1500,1500,1500,1500,1500
1747549700.2504144,0.04,0.0,-0.33,-0.002181661564992912,-0.002181661564992912,0.001090830782496456,-0.009190840371073377,0.10136197633043652,-0.00046619143163834315,0,0,0,0,0,0,1500,1500,1500,1500,1500,1500
1747549700.3487985,0.02,0.02,-0.34,-0.001090830782496456,-0.003272492347489368,-0.001090830782496456,-0.009190840371073377,0.10136197633043652,-0.00046619143163834315,0,0,0,0,0,0,1500,1500,1500,1500,1500,1500
1747549700.432993,0.02,0.02,-0.34,-0.001090830782496456,-0.003272492347489368,-0.001090830782496456,-0.009190840371073377,0.10136197633043652,-0.00046619143163834315,0,0,0,0,0,0,1500,1500,1500,1500,1500,1500
1747549700.5326815,0.03,0.0,-0.38,-0.003272492347489368,0.0,-0.001090830782496456,-0.009190840371073377,0.10136197633043652,-0.00046619143163834315,0,0,0,0,0,0,1500,1500,1500,1500,1500,1500
1747549700.6321325,0.02,0.01,-0.32,0.0,-0.002181661564992912,0.0,-0.009190840371073377,0.10136197633043652,-0.00046619143163834315,0,0,0,0,0,0,1500,1500,1500,1500,1500,1500
1747549700.7334762,0.02,0.01,-0.32,0.0,-0.002181661564992912,0.0,-0.009190840371073377,0.10136197633043652,-0.00046619143163834315,0,0,0,0,0,0,1500,1500,1500,1500,1500,1500
1747549700.8327157,0.01,0.01,-0.35000000000000003,0.003272492347489368,-0.004363323129985824,-0.001090830782496456,-0.009190840371073377,0.10136197633043652,-0.00046619143163834315,0,0,0,0,0,0,1500,1500,1500,1500,1500,1500
1747549700.9149635,0.01,0.01,-0.35000000000000003,0.003272492347489368,-0.004363323129985824,-0.001090830782496456,-0.009190840371073377,0.10136197633043652,-0.00046619143163834315,0,0,0,0,0,0,1500,1500,1500,1500,1500,1500
1747549701.016181,0.02,0.02,-0.32,0.0,0.00545415391248228,0.001090830782496456,-0.009190840371073377,0.10136197633043652,-0.00046619143163834315,0,0,0,0,0,0,1500,1500,1500,1500,1500,1500
1747549701.1161823,0.02,0.03,-0.3,0.001090830782496456,-0.001090830782496456,0.1407171709420428,-0.009190840371073377,0.10136197633043652,-0.00046619143163834315,0,0,0,0,0,0,1500,1500,1500,1500,1500,1500
1747549701.1991878,0.02,0.03,-0.3,0.001090830782496456,-0.001090830782496456,0.1407171709420428,-0.009190840371073377,0.10136197633043652,-0.00046619143163834315,0,0,0,0,0,0,1500,1500,1500,1500,1500,1500
1747549701.298442,0.04,-0.01,-0.35000000000000003,0.0,0.004363323129985824,-0.001090830782496456,-0.009190840371073377,0.10136197633043652,-0.00046619143163834315,0,0,0,0,0,0,1500,1500,1500,1500,1500,1500
1747549701.3946733,0.04,0.02,-0.33,-0.002181661564992912,-0.001090830782496456,-0.001090830782496456,-0.009190840371073377,0.10136197633043652,-0.00046619143163834315,0,0,0,0,0,0,1500,1500,1500,1500,1500,1500
1747549701.482698,0.04,0.02,-0.33,-0.002181661564992912,-0.001090830782496456,-0.001090830782496456,-0.009190840371073377,0.10136197633043652,-0.00046619143163834315,0,0,0,0,0,0,1500,1500,1500,1500,1500,1500
1747549701.5824976,0.02,0.01,-0.38,0.001090830782496456,0.002181661564992912,0.001090830782496456,-0.009190840371073377,0.10136197633043652,-0.00046619143163834315,0,0,0,0,0,0,1500,1500,1500,1500,1500,1500
1747549701.6657238,0.02,0.01,-0.38,0.001090830782496456,0.002181661564992912,0.001090830782496456,-0.009190840371073377,0.10136197633043652,-0.00046619143163834315,0,-0.249818,0,0,0,0,1500,1500,1500,1500,1500,1500
1747549701.76697,0.03,0.02,-0.27,0.0,0.003272492347489368,0.0,-0.009190840371073377,0.10136197633043652,-0.00046619143163834315,0,-12.29445,0,0,0,0,1460,1460,1460,1500,1500,1500
1747549701.8659444,0.03,0.02,-0.27,0.0,0.003272492347489368,0.0,-0.009190840371073377,0.10136197633043652,-0.00046619143163834315,0,-12.5,0,0,0,0,1420,1420,1420,1500,1500,1500
1747549701.9500678,0.04,0.0,-0.37,0.001090830782496456,0.001090830782496456,-0.002181661564992912,-0.009190840371073377,0.10136197633043652,-0.00046619143163834315,0,-12.5,0,0,0,0,1380,1380,1380,1500,1500,1500
1747549702.0484622,0.02,0.0,-0.4,-0.003272492347489368,-0.001090830782496456,0.003272492347489368,-0.008951960355427498,0.1013614296320136,-0.0005763024599974477,0,-12.5,0,0,0,0,1340,1340,1340,1500,1500,1500
1747549702.1486797,0.02,0.0,-0.4,-0.003272492347489368,-0.001090830782496456,0.003272492347489368,-0.008951960355427498,0.1013614296320136,-0.0005763024599974477,0,-12.5,0,0,0,0,1300,1300,1300,1500,1500,1500
1747549702.2505558,0.5,-0.36,-0.1,0.009817477042468103,0.003272492347489368,-0.008726646259971648,-0.008590411842435973,0.10123838581480463,-0.0006796649273354098,0,-12.5,0,0,0,0,1260,1260,1260,1500,1500,1500
1747549702.3390558,0.12,0.2,-0.59,0.009817477042468103,-0.004363323129985824,-0.004363323129985824,-0.009325819632048938,0.10136083799950799,-0.0007174929029541627,0,-12.5,0,0,0,0,1220,1220,1253,1500,1500,1500
1747549702.433495,0.12,0.2,-0.59,0.009817477042468103,-0.004363323129985824,-0.004363323129985824,-0.009325819632048938,0.10136083799950799,-0.0007174929029541627,0,-12.5,0,0,0,0,1198,1203,1253,1500,1500,1500
1747549702.5327442,0.01,-1.44,0.19,0.007635815477475192,-0.006544984694978736,-0.004363323129985824,-0.00932595061566291,0.10148338157866212,-0.0007180710004319492,0,-12.5,0,0,0,0,1198,1203,1253,1500,1500,1500
1747549702.6318479,0.01,-1.44,0.19,0.007635815477475192,-0.006544984694978736,-0.004363323129985824,-0.00932595061566291,0.10148338157866212,-0.0007180710004319492,0,-12.5,0,0,0,0,1198,1203,1253,1500,1500,1500
1747549702.7163444,0.3,0.65,-1.3,-0.00545415391248228,0.00545415391248228,0.011999138607461015,-0.009325819632048938,0.10136083799950799,-0.0007174929029541627,0,-12.5,0,0,0,0,1198,1203,1253,1500,1500,1500
1747549702.81656,0.3,0.65,-1.3,-0.00545415391248228,0.00545415391248228,0.011999138607461015,-0.009325819632048938,0.10136083799950799,-0.0007174929029541627,0,-12.5,0,0,0,0,1198,1203,1253,1500,1500,1500
1747549702.9168296,-0.88,-0.47000000000000003,-0.59,0.007635815477475192,-0.00545415391248228,-0.026179938779914945,-0.009228453685749571,0.10160369490399854,-0.0012026014586820296,0,-12.5,0,0,0,0,1198,1203,1253,1500,1500,1500
1747549703.0153358,-0.15,0.68,0.0,-0.007635815477475192,-0.011999138607461015,-0.002181661564992912,-0.009344773979817686,0.1016042191482956,-0.001086286632585485,0,-12.5,0,0,0,0,1198,1203,1253,1500,1500,1500
1747549703.1167068,-0.15,0.68,0.0,-0.007635815477475192,-0.011999138607461015,-0.002181661564992912,-0.009344773979817686,0.1016042191482956,-0.001086286632585485,0,-12.5,0,0,0,0,1198,1203,1253,1500,1500,1500
1747549703.2157638,0.23,0.23,-0.73,0.002181661564992912,0.00545415391248228,-0.006544984694978736,-0.009479786637361093,0.10160302836486132,-0.001337609323106539,0,0,0,0,0,0,1238,1243,1293,1500,1500,1500
1747549703.3151994,-0.64,-0.37,-0.11,0.0,-0.001090830782496456,0.00545415391248228,-0.009749608474807029,0.10147801188665959,-0.0018396402096183132,0,0,0,0,0,0,1278,1283,1333,1500,1500,1500
1747549703.398903,-0.64,-0.37,-0.11,0.0,-0.001090830782496456,0.00545415391248228,-0.009749608474807029,0.10147801188665959,-0.0018396402096183132,0,0,0,0,0,0,1318,1323,1373,1500,1500,1500
1747549703.4979079,0.75,0.08,-0.16,-0.018544123302439753,-0.01090830782496456,0.016362461737446838,-0.009639939864345293,0.10172201755265411,-0.0020797256369241065,0,0,0,0,0,0,1358,1363,1413,1500,1500,1500
1747549703.5990992,0.75,0.08,-0.16,-0.018544123302439753,-0.01090830782496456,0.016362461737446838,-0.009639939864345293,0.10172201755265411,-0.0020797256369241065,0,0,0,0,0,0,1398,1403,1453,1500,1500,1500
1747549703.6824758,0.3,-0.19,-0.31,0.018544123302439753,0.001090830782496456,-0.01090830782496456,-0.009756254514934648,0.10172251184609984,-0.001963416778722177,0,0.879357,0,0,0,0,1438,1443,1493,1500,1500,1500
1747549703.7835298,-0.12,-0.14,-0.38,0.003272492347489368,0.001090830782496456,0.001090830782496456,-0.009388596111436909,0.10172278146071713,-0.0019447010709379379,0,12.5,0,0,0,0,1478,1483,1533,1500,1500,1500
1747549703.88287,-0.12,-0.14,-0.38,0.003272492347489368,0.001090830782496456,0.001090830782496456,-0.009388596111436909,0.10172278146071713,-0.0019447010709379379,0,12.5,0,0,0,0,1518,1523,1573,1500,1500,1500
1747549703.9828484,0.01,-0.08,-0.43,-0.00545415391248228,0.002181661564992912,0.0,-0.009510731992221876,0.10147759998572066,-0.0019497376954471142,0,12.5,0,0,0,0,1558,1563,1613,1500,1500,1500
1747549704.0814254,0.01,-0.08,-0.43,-0.00545415391248228,0.002181661564992912,0.0,-0.009510731992221876,0.10147759998572066,-0.0019497376954471142,0,12.5,0,0,0,0,1598,1603,1653,1500,1500,1500
1747549704.165604,-0.16,0.09,-0.3,0.001090830782496456,0.001090830782496456,-0.004363323129985824,-0.009633701573092667,0.10172260171763811,-0.001957178209612948,0,12.5,0,0,0,0,1638,1643,1693,1500,1500,1500
1747549704.2662568,0.98,0.36,-0.51,0.004363323129985824,0.004363323129985824,-0.004363323129985824,-0.009272068926511855,0.10159976307266376,-0.0020604225458429053,0,12.5,0,0,0,0,1678,1683,1714,1500,1500,1500
1747549704.3654668,0.98,0.36,-0.51,0.004363323129985824,0.004363323129985824,-0.004363323129985824,-0.009272068926511855,0.10159976307266376,-0.0020604225458429053,0,12.5,0,0,0,0,1718,1723,1714,1500,1500,1500
1747549704.4496627,0.06,0.06,-0.28,0.003272492347489368,-0.001090830782496456,-0.011999138607461015,-0.008911079589099377,0.10184461058074656,-0.00216540794820532,0,12.5,0,0,0,0,1758,1754,1714,1500,1500,1500
1747549704.5491083,0.06,0.06,-0.28,0.003272492347489368,-0.001090830782496456,-0.011999138607461015,-0.008911079589099377,0.10184461058074656,-0.00216540794820532,0,12.5,0,0,0,0,1763,1754,1714,1500,1500,1500
1747549704.6489193,0.49,0.4,-0.18,0.004363323129985824,-0.002181661564992912,-0.013089969389957472,-0.009284530417400258,0.10159863969257188,-0.0023055144079524885,0,12.5,0,0,0,0,1763,1754,1714,1500,1500,1500
1747549704.7489622,0.14,-0.11,-0.2,-0.007635815477475192,0.020725784867432664,0.020725784867432664,-0.009045892251673118,0.1017208642013777,-0.0024161752175084995,0,12.5,0,0,0,0,1763,1754,1714,1500,1500,1500
1747549704.8494515,0.14,-0.11,-0.2,-0.007635815477475192,0.020725784867432664,0.020725784867432664,-0.009045892251673118,0.1017208642013777,-0.0024161752175084995,0,12.5,0,0,0,0,1763,1754,1714,1500,1500,1500
1747549704.933429,-1.08,-0.56,-0.22,0.020725784867432664,0.020725784867432664,-0.014180800172453928,-0.009058368899966212,0.1017197707645787,-0.002661270272211237,0,12.5,0,0,0,0,1763,1754,1714,1500,1500,1500
1747549705.032804,-1.08,-0.56,-0.22,0.020725784867432664,0.020725784867432664,-0.014180800172453928,-0.009058368899966212,0.1017197707645787,-0.002661270272211237,0,12.5,0,0,0,0,1763,1754,1714,1500,1500,1500
1747549705.132988,-0.14,-1.56,0.13,0.008726646259971648,-0.001090830782496456,0.009817477042468103,-0.008825741543400508,0.10171897689958193,-0.0028938883258083047,0,12.5,0,0,0,0,1763,1754,1714,1500,1500,1500
1747549705.233472,1.11,-0.64,-0.04,-0.004363323129985824,-0.009817477042468103,-0.011999138607461015,-0.008960493645671664,0.10159520215028994,-0.003144643722441656,0,12.5,0,0,0,0,1763,1754,1714,1500,1500,1500
1747549705.3329897,1.11,-0.64,-0.04,-0.004363323129985824,-0.009817477042468103,-0.011999138607461015,-0.008960493645671664,0.10159520215028994,-0.003144643722441656,0,9.060928,0,0,0,0,1723,1714,1674,1500,1500,1500
1747549705.4156275,0.9500000000000001,0.88,-0.48,-0.009817477042468103,-0.009817477042468103,0.020725784867432664,-0.008592027935317895,0.10122806608071193,-0.0031242839303374454,0,0,0,0,0,0,1683,1674,1634,1500,1500,1500
1747549705.514958,0.89,0.86,-0.65,-0.015271630954950384,-0.007635815477475192,0.015271630954950384,-0.008604730732338594,0.1013495745216345,-0.0033699257637769477,0,0,0,0,0,0,1643,1634,1594,1500,1500,1500
1747549705.6155984,0.89,0.86,-0.65,-0.015271630954950384,-0.007635815477475192,0.015271630954950384,-0.008604730732338594,0.1013495745216345,-0.0033699257637769477,0,0,0,0,0,0,1603,1594,1554,1500,1500,1500
1747549705.6992402,0.4,-0.11,-0.23,0.006544984694978736,0.0,-0.003272492347489368,-0.009094627081720182,0.10122631367411028,-0.0033942002665555953,0,0,0,0,0,0,1563,1554,1514,1500,1500,1500
1747549705.7985332,0.4,-0.11,-0.23,0.006544984694978736,0.0,-0.003272492347489368,-0.009094627081720182,0.10122631367411028,-0.0033942002665555953,0,0,0,0,0,0,1523,1514,1500,1500,1500,1500
1747549705.898758,0.02,-0.37,-0.37,-0.008726646259971648,-0.001090830782496456,-0.003272492347489368,-0.008727854532377979,0.10159448318735062,-0.0033772741332772915,0,0,0,0,0,0,1500,1500,1500,1500,1500,1500
1747549705.9991229,0.04,-0.01,-0.3,-0.001090830782496456,-0.002181661564992912,-0.002181661564992912,-0.00897266368396851,0.10147157874487664,-0.0033891546538684708,0,0,0,0,0,0,1500,1500,1500,1500,1500,1500
1747549706.0982814,0.04,-0.01,-0.3,-0.001090830782496456,-0.002181661564992912,-0.002181661564992912,-0.00897266368396851,0.10147157874487664,-0.0033891546538684708,0,0,0,0,0,0,1500,1500,1500,1500,1500,1500
1747549706.1823297,0.05,0.0,-0.33,0.006544984694978736,0.0,-0.004363323129985824,-0.008850114829370755,0.10147175848335585,-0.0033829312457356268,0,0,0,0,0,0,1500,1500,1500,1500,1500,1500
1747549706.2827291,0.05,0.0,-0.33,0.006544984694978736,0.0,-0.004363323129985824,-0.008850114829370755,0.10147175848335585,-0.0033829312457356268,0,0,0,0,0,0,1500,1500,1500,1500,1500,1500
1747549706.3820817,0.04,-0.04,-0.28,-0.003272492347489368,0.002181661564992912,0.003272492347489368,-0.0087275661021573,0.10147193822183834,-0.003376707837340734,0,0,0,0,0,0,1500,1500,1500,1500,1500,1500
1747549706.4653273,0.02,0.03,-0.36,0.003272492347489368,-0.002181661564992912,-0.002181661564992912,-0.0087275661021573,0.10147193822183834,-0.003376707837340734,0,0,0,0,0,0,1500,1500,1500,1500,1500,1500
1747549706.5659475,0.02,0.03,-0.36,0.003272492347489368,-0.002181661564992912,-0.002181661564992912,-0.0087275661021573,0.10147193822183834,-0.003376707837340734,0,0,0,0,0,0,1500,1500,1500,1500,1500,1500
1747549706.649758,0.02,0.0,-0.29,0.002181661564992912,-0.001090830782496456,-0.001090830782496456,-0.0087275661021573,0.10147193822183834,-0.003376707837340734,0,0,0,0,0,0,1500,1500,1500,1500,1500,1500
1747549706.7490847,0.02,0.0,-0.29,0.002181661564992912,-0.001090830782496456,-0.001090830782496456,-0.0087275661021573,0.10147193822183834,-0.003376707837340734,0,0,0,0,0,0,1500,1500,1500,1500,1500,1500
1747549706.8480108,0.05,0.01,-0.37,0.001090830782496456,0.004363323129985824,-0.001090830782496456,-0.0087275661021573,0.10147193822183834,-0.003376707837340734,0,0,0,0,0,0,1500,1500,1500,1500,1500,1500
1747549706.933386,0.0,0.03,-0.33,0.0,-0.002181661564992912,-0.002181661564992912,-0.0087275661021573,0.10147193822183834,-0.003376707837340734,0,0,0,0,0,0,1500,1500,1500,1500,1500,1500
1747549707.0322104,0.0,0.03,-0.33,0.0,-0.002181661564992912,-0.002181661564992912,-0.0087275661021573,0.10147193822183834,-0.003376707837340734,0,0,0,0,0,0,1500,1500,1500,1500,1500,1500
1747549707.133089,0.02,0.02,-0.35000000000000003,0.001090830782496456,-0.001090830782496456,-0.001090830782496456,-0.0087275661021573,0.10147193822183834,-0.003376707837340734,0,0,0,0,0,0,1500,1500,1500,1500,1500,1500
1747549707.2322564,0.02,0.02,-0.35000000000000003,0.001090830782496456,-0.001090830782496456,-0.001090830782496456,-0.0087275661021573,0.10147193822183834,-0.003376707837340734,0,0,0,0,0,0,1500,1500,1500,1500,1500,1500
1747549707.3321638,0.01,0.01,-0.31,0.0,0.0,0.001090830782496456,-0.0087275661021573,0.10147193822183834,-0.003376707837340734,0,0,0,0,0,0,1500,1500,1500,1500,1500,1500
1747549707.4164648,0.03,0.0,-0.29,0.003272492347489368,-0.001090830782496456,0.0,-0.0087275661021573,0.10147193822183834,-0.003376707837340734,0,0,0,0,0,0,1500,1500,1500,1500,1500,1500
1747549707.5156226,0.03,0.0,-0.29,0.003272492347489368,-0.001090830782496456,0.0,-0.0087275661021573,0.10147193822183834,-0.003376707837340734,0,0,0,0,0,0,1500,1500,1500,1500,1500,1500
1747549707.6178389,0.04,0.01,-0.32,0.001090830782496456,-0.003272492347489368,0.001090830782496456,-0.0087275661021573,0.10147193822183834,-0.003376707837340734,0,0,0,0,0,0,1500,1500,1500,1500,1500,1500
1747549707.7121732,0.04,0.01,-0.32,0.002181661564992912,-0.002181661564992912,0.0,-0.0087275661021573,0.10147193822183834,-0.003376707837340734,0,0,0,0,0,0,1500,1500,1500,1500,1500,1500
1747549707.8162096,0.04,0.01,-0.32,0.002181661564992912,-0.002181661564992912,0.0,-0.0087275661021573,0.10147193822183834,-0.003376707837340734,0,-12.5,0,0,0,0,1460,1460,1460,1500,1500,1500
1747549707.9164715,0.01,0.0,-0.34,-0.001090830782496456,-0.002181661564992912,0.0,-0.0087275661021573,0.10147193822183834,-0.003376707837340734,0,-12.5,0,0,0,0,1420,1420,1420,1500,1500,1500
1747549708.015407,0.01,0.0,-0.34,-0.001090830782496456,-0.002181661564992912,0.0,-0.0087275661021573,0.10147193822183834,-0.003376707837340734,0,-12.5,0,0,0,0,1380,1380,1380,1500,1500,1500
1747549708.1158686,0.03,0.0,-0.31,0.0,-0.003272492347489368,0.001090830782496456,-0.0087275661021573,0.10147193822183834,-0.003376707837340734,0,-12.5,0,0,0,0,1340,1340,1340,1500,1500,1500
1747549708.199259,-0.03,0.0,-0.35000000000000003,0.006544984694978736,0.0,-0.004363323129985824,-0.00885040478561984,0.10159430344662403,-0.0033835051083109663,0,-12.5,0,0,0,0,1300,1300,1300,1500,1500,1500
1747549708.2988722,-0.03,0.0,-0.35000000000000003,0.006544984694978736,0.0,-0.004363323129985824,-0.00885040478561984,0.10159430344662403,-0.0033835051083109663,0,-12.5,0,0,0,0,1260,1260,1260,1500,1500,1500
1747549708.39845,0.52,-0.22,-0.27,0.002181661564992912,0.0,-0.007635815477475192,-0.008726701638815894,0.10110431249209603,-0.003375009337447324,0,-12.5,0,0,0,0,1220,1220,1253,1500,1500,1500
1747549708.4987288,0.52,-0.22,-0.27,0.002181661564992912,0.0,-0.007635815477475192,-0.008726701638815894,0.10110431249209603,-0.003375009337447324,0,-12.5,0,0,0,0,1198,1203,1253,1500,1500,1500
1747549708.5997975,-0.46,-0.51,-0.1,-0.001090830782496456,0.00545415391248228,-0.011999138607461015,-0.008732606703982512,0.10098124942032478,-0.0034969819298365837,0,-12.5,0,0,0,-6e-05,1198,1203,1253,1500,1500,1500
1747549708.683551,0.39,0.5,-1.04,0.015271630954950384,-0.00545415391248228,-0.01090830782496456,-0.008965873082672526,0.10122703261011425,-0.0032654503654821355,0,-12.5,0,0,0,-6e-05,1198,1203,1253,1500,1500,1500
1747549708.781873,0.39,0.5,-1.04,0.015271630954950384,-0.00545415391248228,-0.01090830782496456,-0.008965873082672526,0.10122703261011425,-0.0032654503654821355,0,-12.5,0,0,0,-6e-05,1198,1203,1253,1500,1500,1500
1747549708.8836915,-0.2,-0.45,0.58,-0.004363323129985824,0.002181661564992912,0.008726646259971648,-0.008977692101343256,0.1009808749838194,-0.0035093682129768633,0,-12.5,0,0,0,-6e-05,1198,1203,1253,1500,1500,1500
1747549708.9824905,0.73,0.64,-0.5700000000000001,0.01090830782496456,-0.00545415391248228,-0.013089969389957472,-0.009863416677285353,0.10231893254017056,-0.004049720929313474,0,-12.5,0,0,0,-6e-05,1198,1203,1253,1500,1500,1500
1747549709.0821652,0.73,0.64,-0.5700000000000001,0.01090830782496456,-0.00545415391248228,-0.013089969389957472,-0.009863416677285353,0.10231893254017056,-0.004049720929313474,0,-9.237412,0,0,0,-0.000215,1238,1243,1293,1500,1500,1500
1747549709.1655202,-0.08,-0.26,-1.2,0.00545415391248228,0.006544984694978736,-0.009817477042468103,-0.00996024117688808,0.1020760204363851,-0.0035645174916872253,0,0,0,0,0,0,1278,1283,1333,1500,1500,1500
1747549709.2658932,-0.08,-0.26,-1.2,0.00545415391248228,0.006544984694978736,-0.009817477042468103,-0.00996024117688808,0.1020760204363851,-0.0035645174916872253,0,0,0,0,0,0,1318,1323,1373,1500,1500,1500
1747549709.3667228,0.22,-0.5,-0.29,-0.015271630954950384,-0.007635815477475192,0.003272492347489368,-3.1410166812544,-1.5707963267948966,3.1392230277978923,0,0,0,0,0,0,1358,1363,1413,1500,1500,1500
1747549709.466143,0.19,0.11,-0.47000000000000003,-0.001090830782496456,-0.007635815477475192,0.003272492347489368,-0.009948313193000272,0.10232231041896522,-0.0033207094315146277,0,0,0,0,0,0,1398,1403,1453,1500,1500,1500
1747549709.565821,0.19,0.11,-0.47000000000000003,-0.001090830782496456,-0.007635815477475192,0.003272492347489368,-0.009948313193000272,0.10232231041896522,-0.0033207094315146277,0,0,0,0,0,0,1438,1443,1493,1500,1500,1500
1747549709.6487553,0.06,0.07,-0.37,-0.007635815477475192,-0.003272492347489368,0.0,-0.009702912994648509,0.10220010834727192,-0.0033075309766448084,0,0,0,0,0,0,1478,1483,1500,1500,1500,1500
1747549709.748274,0.06,0.07,-0.37,-0.007635815477475192,-0.003272492347489368,0.0,-0.009702912994648509,0.10220010834727192,-0.0033075309766448084,0,0,0,0,0,0,1500,1500,1500,1500,1500,1500
1747549709.849027,-0.2,0.13,-0.43,0.009817477042468103,0.003272492347489368,0.001090830782496456,-0.009948016137921093,0.10219976382288117,-0.0033200686029869423,0,11.096981,0,0,0,0,1540,1540,1540,1500,1500,1500
1747549709.932616,0.02,0.08,-0.36,-0.004363323129985824,-0.001090830782496456,0.003272492347489368,-0.009619339049284612,0.1180221895749314,-0.003381547197445427,0,12.5,0,0,0,0,1580,1580,1580,1500,1500,1500
1747549710.0323265,0.02,0.08,-0.36,-0.004363323129985824,-0.001090830782496456,0.003272492347489368,-0.009619339049284612,0.1180221895749314,-0.003381547197445427,0,12.5,0,0,0,0,1620,1620,1620,1500,1500,1500
1747549710.1320844,-0.3,-0.23,0.08,0.0,0.003272492347489368,0.00545415391248228,-0.009457810412443864,0.10220045287167484,-0.003294993349262835,0,12.5,0,0,0,0,1660,1660,1660,1500,1500,1500
1747549710.2152207,-0.3,-0.23,0.08,0.0,0.003272492347489368,0.00545415391248228,-0.009457810412443864,0.10220045287167484,-0.003294993349262835,0,12.5,0,0,0,0,1700,1700,1700,1500,1500,1500
1747549710.316022,0.5700000000000001,0.31,-0.39,0.007635815477475192,-0.003272492347489368,0.004363323129985824,-0.009948016137921093,0.10219976382288117,-0.0033200686029869423,0,12.5,0,0,0,0,1740,1740,1714,1500,1500,1500
1747549710.3990211,0.22,0.15,-0.28,0.008726646259971648,0.003272492347489368,-0.003272492347489368,-0.008837668427708435,0.10147282193609178,-0.0031378419313876226,0,12.5,0,0,0,0,1763,1754,1714,1500,1500,1500
1747549710.4985206,0.22,0.15,-0.28,0.008726646259971648,0.003272492347489368,-0.003272492347489368,-0.008837668427708435,0.10147282193609178,-0.0031378419313876226,0,12.5,0,0,0,0,1763,1754,1714,1500,1500,1500
1747549710.5989492,-1.27,-0.7000000000000001,-0.12,0.018544123302439753,0.006544984694978736,0.004363323129985824,-0.008837668427708435,0.10147282193609178,-0.0031378419313876226,0,12.5,0,0,0,0,1763,1754,1714,1500,1500,1500
1747549710.681917,-1.27,-0.7000000000000001,-0.12,0.018544123302439753,0.006544984694978736,0.004363323129985824,-0.008837668427708435,0.10147282193609178,-0.0031378419313876226,0,12.5,0,0,0,0,1763,1754,1714,1500,1500,1500
1747549710.7818263,0.71,1.19,-0.59,0.008726646259971648,-0.003272492347489368,-0.019634954084936207,-0.008966156715864674,0.1013495745216345,-0.003266030142026384,0,12.5,0,0,0,0,1763,1754,1714,1500,1500,1500
1747549710.8690553,1.08,-0.74,-0.08,-0.00545415391248228,-0.009817477042468103,-0.004363323129985824,-0.009081933524931873,0.10110486666506455,-0.0031485312975460377,0,12.5,0,0,0,0,1763,1754,1714,1500,1500,1500
1747549710.9656327,1.08,-0.74,-0.08,-0.00545415391248228,-0.009817477042468103,-0.004363323129985824,-0.009081933524931873,0.10110486666506455,-0.0031485312975460377,0,12.5,0,0,0,0,1763,1754,1714,1500,1500,1500
1747549711.0666373,0.32,0.37,-0.5,0.022907446432425576,0.002181661564992912,-0.003272492347489368,-0.00920447808711187,0.10110470191093551,-0.003154732012610023,0,12.5,0,0,0,0,1763,1754,1714,1500,1500,1500
1747549711.148903,0.32,0.37,-0.5,0.022907446432425576,0.002181661564992912,-0.003272492347489368,-0.00920447808711187,0.10110470191093551,-0.003154732012610023,0,12.5,0,0,0,0,1763,1754,1714,1500,1500,1500
1747549711.2480156,-0.21,0.11,-0.46,-0.003272492347489368,0.01090830782496456,0.018544123302439753,-0.009320822306025654,0.10110509881861467,-0.003038392698977893,0,2.978507,0,0,0,0,1723,1714,1674,1500,1500,1500
1747549711.3457386,1.42,0.58,-0.39,-0.001090830782496456,0.017453292519943295,-0.018544123302439753,-0.009326742441408199,0.10098199829337817,-0.003160331899393779,0,0,0,0,0,0,1683,1674,1634,1500,1500,1500
1747549711.4323506,1.42,0.58,-0.39,-0.001090830782496456,0.017453292519943295,-0.018544123302439753,-0.009326742441408199,0.10098199829337817,-0.003160331899393779,0,0,0,0,0,0,1643,1634,1594,1500,1500,1500
1747549711.5322807,0.64,0.1,-0.2,-0.003272492347489368,0.006544984694978736,0.00545415391248228,-0.009445824964819546,0.10244668608043095,-0.003051115765449087,0,0,0,0,0,0,1603,1594,1554,1500,1500,1500
1747549711.6331327,0.64,0.1,-0.2,-0.003272492347489368,0.006544984694978736,0.00545415391248228,-0.009445824964819546,0.10244668608043095,-0.003051115765449087,0,0,0,0,0,0,1563,1554,1514,1500,1500,1500
1747549711.731911,-0.14,0.04,-0.29,0.0,-0.002181661564992912,-0.002181661564992912,-0.009568101819999042,0.10232398063441185,-0.003056784611347202,0,0,0,0,0,0,1523,1514,1500,1500,1500,1500
1747549711.8320618,0.07,-0.07,-0.29,0.001090830782496456,-0.001090830782496456,0.003272492347489368,-0.00931645359897302,0.102202310307796,-0.0029210856646117024,0,0,0,0,0,0,1500,1500,1500,1500,1500,1500
1747549711.9158573,0.07,-0.07,-0.29,0.001090830782496456,-0.001090830782496456,0.003272492347489368,-0.00931645359897302,0.102202310307796,-0.0029210856646117024,0,0,0,0,0,0,1500,1500,1500,1500,1500,1500
1747549712.0161786,0.02,0.07,-0.32,-0.004363323129985824,0.001090830782496456,0.001090830782496456,-0.009193637643237431,0.10207991501124548,-0.0029142260933912316,0,0,0,0,0,0,1500,1500,1500,1500,1500,1500
1747549712.115828,0.02,0.07,-0.32,-0.004363323129985824,0.001090830782496456,0.001090830782496456,-0.009193637643237431,0.10207991501124548,-0.0029142260933912316,0,0,0,0,0,0,1500,1500,1500,1500,1500,1500
1747549712.1984165,0.03,-0.02,-0.35000000000000003,-0.004363323129985824,0.002181661564992912,0.001090830782496456,-0.009193637643237431,0.10207991501124548,-0.0029142260933912316,0,0,0,0,0,0,1500,1500,1500,1500,1500,1500
1747549712.2897024,0.02,0.03,-0.28,-0.001090830782496456,0.002181661564992912,0.0,-0.009071088339622266,0.10208006480261729,-0.002907964838650353,0,0,0,0,0,0,1500,1500,1500,1500,1500,1500
1747549712.3989449,0.02,0.03,-0.28,-0.001090830782496456,0.002181661564992912,0.0,-0.009071088339622266,0.10208006480261729,-0.002907964838650353,0,0,0,0,0,0,1500,1500,1500,1500,1500,1500
1747549712.4983425,0.02,0.0,-0.34,0.001090830782496456,-0.001090830782496456,0.001090830782496456,-0.009071088339622266,0.10208006480261729,-0.002907964838650353,0,0,0,0,0,0,1500,1500,1500,1500,1500,1500
1747549712.5991862,0.02,0.0,-0.34,0.001090830782496456,-0.001090830782496456,0.001090830782496456,-0.009071088339622266,0.10208006480261729,-0.002907964838650353,0,0,0,0,0,0,1500,1500,1500,1500,1500,1500
1747549712.6819553,0.02,0.03,-0.35000000000000003,-0.003272492347489368,-0.002181661564992912,-0.002181661564992912,-0.009071088339622266,0.10208006480261729,-0.002907964838650353,0,0,0,0,0,0,1500,1500,1500,1500,1500,1500
1747549712.7823682,0.02,0.02,-0.28,0.002181661564992912,0.002181661564992912,-0.001090830782496456,-0.009071088339622266,0.10208006480261729,-0.002907964838650353,0,0,0,0,0,0,1500,1500,1500,1500,1500,1500
1747549712.8822484,0.02,0.02,-0.28,0.002181661564992912,0.002181661564992912,-0.001090830782496456,-0.009071088339622266,0.10208006480261729,-0.002907964838650353,0,0,0,0,0,0,1500,1500,1500,1500,1500,1500
1747549712.9811027,0.04,0.0,-0.35000000000000003,-0.003272492347489368,-0.002181661564992912,-0.001090830782496456,-0.009071088339622266,0.10208006480261729,-0.002907964838650353,0,0,0,0,0,0,1500,1500,1500,1500,1500,1500
1747549713.0779433,0.03,0.0,-0.35000000000000003,0.001090830782496456,-0.003272492347489368,0.0,-0.009071088339622266,0.10208006480261729,-0.002907964838650353,0,0,0,0,0,0,1500,1500,1500,1500,1500,1500
1747549713.1645918,0.03,0.0,-0.35000000000000003,0.001090830782496456,-0.003272492347489368,0.0,-0.009071088339622266,0.10208006480261729,-0.002907964838650353,0,0,0,0,0,0,1500,1500,1500,1500,1500,1500
1747549713.180448,0.03,0.0,-0.35000000000000003,0.001090830782496456,-0.003272492347489368,0.0,-0.009071088339622266,0.10208006480261729,-0.002907964838650353,0,0,0,0,0,0,1500,1500,1500,1500,1500,1500
1747549713.2655678,0.03,0.02,-0.33,-0.006544984694978736,-0.001090830782496456,-0.001090830782496456,-0.009071088339622266,0.10208006480261729,-0.002907964838650353,0,0,0,0,0,0,1500,1500,1500,1500,1500,1500
1747549713.2824833,0.03,0.02,-0.33,-0.006544984694978736,-0.001090830782496456,-0.001090830782496456,-0.009071088339622266,0.10208006480261729,-0.002907964838650353,0,0,0,0,0,0,1500,1500,1500,1500,1500,1500
1747549713.3630574,0.05,0.0,-0.33,-0.001090830782496456,-0.002181661564992912,-0.002181661564992912,-0.009071088339622266,0.10208006480261729,-0.002907964838650353,0,0,0,0,0,0,1500,1500,1500,1500,1500,1500
1747549713.38314,0.05,0.0,-0.33,-0.001090830782496456,-0.002181661564992912,-0.002181661564992912,-0.009071088339622266,0.10208006480261729,-0.002907964838650353,0,0,0,0,0,0,1500,1500,1500,1500,1500,1500
1747549713.450096,0.04,0.02,-0.36,-0.002181661564992912,-0.001090830782496456,-0.001090830782496456,-0.009071088339622266,0.10208006480261729,-0.002907964838650353,0,0,0,0,0,0,1500,1500,1500,1500,1500,1500
1747549713.4824436,0.04,0.02,-0.36,-0.002181661564992912,-0.001090830782496456,-0.001090830782496456,-0.009071088339622266,0.10208006480261729,-0.002907964838650353,0,0,0,0,0,0,1500,1500,1500,1500,1500,1500
1747549713.5496545,0.04,0.01,-0.34,-0.002181661564992912,-0.001090830782496456,0.001090830782496456,-0.009071088339622266,0.10208006480261729,-0.002907964838650353,0,0,0,0,0,-0.080689,1500,1500,1500,1500,1500,1500
1747549713.5809717,0.02,0.01,-0.33,-0.002181661564992912,-0.00545415391248228,0.0,-0.009071088339622266,0.10208006480261729,-0.002907964838650353,0,0,0,0,0,-0.227977,1460,1540,1500,1500,1500,1500
1747549713.6490183,0.02,0.01,-0.33,-0.002181661564992912,-0.00545415391248228,0.0,-0.009071088339622266,0.10208006480261729,-0.002907964838650353,0,0,0,0,0,-0.665754,1420,1580,1500,1500,1500,1500
1747549713.6653798,0.02,0.01,-0.33,-0.002181661564992912,-0.00545415391248228,0.0,-0.009071088339622266,0.10208006480261729,-0.002907964838650353,0,0,0,0,0,-0.7,1380,1620,1500,1500,1500,1500
1747549713.7486818,0.03,0.02,-0.35000000000000003,0.0,0.0,0.0,-0.009071088339622266,0.10208006480261729,-0.002907964838650353,0,0,0,0,0,-0.7,1340,1660,1500,1500,1500,1500
1747549713.7647283,0.03,0.02,-0.35000000000000003,0.0,0.0,0.0,-0.009071088339622266,0.10208006480261729,-0.002907964838650353,0,0,0,0,0,-0.7,1300,1678,1500,1500,1500,1500
1747549713.8379252,-0.1,-0.06,-0.2,-0.006544984694978736,-0.004363323129985824,-0.001090830782496456,-0.009071088339622266,0.10208006480261729,-0.002907964838650353,0,0,0,0,0,-0.7,1293,1678,1500,1500,1500,1500
1747549713.865709,-0.1,-0.06,-0.2,-0.006544984694978736,-0.004363323129985824,-0.001090830782496456,-0.009071088339622266,0.10208006480261729,-0.002907964838650353,0,0,0,0,0,-0.7,1293,1678,1500,1500,1500,1500
1747549713.9315088,0.06,0.31,-0.5,0.01090830782496456,0.002181661564992912,-0.002181661564992912,-0.008948539167430606,0.1020802145939914,-0.00290170358368147,0,0,0,0,0,-0.7,1293,1678,1500,1500,1500,1500
1747549713.9503694,0.06,0.31,-0.5,0.01090830782496456,0.002181661564992912,-0.002181661564992912,-0.008948539167430606,0.1020802145939914,-0.00290170358368147,0,0,0,0,0,-0.7,1293,1678,1500,1500,1500,1500
1747549714.0324397,0.26,-0.02,-0.56,0.004363323129985824,0.008726646259971648,-0.002181661564992912,-0.008948539167430606,0.1020802145939914,-0.00290170358368147,0,0,0,0,0,-0.7,1293,1678,1500,1500,1500,1500
1747549714.0422337,-0.1,-0.09,-0.43,-0.008726646259971648,-0.002181661564992912,0.001090830782496456,-0.008948539167430606,0.1020802145939914,-0.00290170358368147,0,0,0,0,0,-0.7,1293,1678,1500,1500,1500,1500
1747549714.1324828,-0.1,-0.09,-0.43,-0.008726646259971648,-0.002181661564992912,0.001090830782496456,-0.008948539167430606,0.1020802145939914,-0.00290170358368147,0,0,0,0,0,-0.7,1293,1678,1500,1500,1500,1500
1747549714.1324828,-0.1,-0.09,-0.43,-0.008726646259971648,-0.002181661564992912,0.001090830782496456,-0.008948539167430606,0.1020802145939914,-0.00290170358368147,0,0,0,0,0,-0.7,1293,1678,1500,1500,1500,1500
1747549714.2314186,0.14,0.23,-0.41000000000000003,-0.003272492347489368,-0.014180800172453928,0.008726646259971648,-0.008826261618213217,0.10196407454177939,-0.0028950241305632568,0,0,0,0,0,-0.7,1293,1678,1500,1500,1500,1500
1747549714.2325585,0.14,0.23,-0.41000000000000003,-0.003272492347489368,-0.014180800172453928,0.008726646259971648,-0.008826261618213217,0.10196407454177939,-0.0028950241305632568,0,0,0,0,0,-0.7,1293,1678,1500,1500,1500,1500
1747549714.332236,-0.64,0.08,-0.23,-0.003272492347489368,0.008726646259971648,-0.016362461737446838,-0.008824184646743853,0.10098372070161662,-0.002890482291010073,0,0,0,0,0,-0.7,1293,1678,1500,1500,1500,1500
1747549714.332236,-0.64,0.08,-0.23,-0.003272492347489368,0.008726646259971648,-0.016362461737446838,-0.008824184646743853,0.10098372070161662,-0.002890482291010073,0,0,0,0,0,-0.7,1293,1678,1500,1500,1500,1500
1747549714.4146695,-0.18,0.1,-0.44,0.008726646259971648,-0.002181661564992912,-0.001090830782496456,-0.008952920376415397,0.10098303173828517,-0.0030192139327148144,0,0,0,0,0,-0.7,1293,1678,1500,1500,1500,1500
1747549714.4156933,-0.18,0.1,-0.44,0.008726646259971648,-0.002181661564992912,-0.001090830782496456,-0.008952920376415397,0.10098303173828517,-0.0030192139327148144,0,0,0,0,0,-0.7,1293,1678,1500,1500,1500,1500
1747549714.5138228,0.49,-0.24,-0.3,-0.00545415391248228,-0.007635815477475192,0.015271630954950384,-0.008692956007427461,0.09975908912601704,-0.00275616925644592,0,0,0,0,0,-0.7,1293,1678,1500,1500,1500,1500
1747549714.5153213,0.49,-0.24,-0.3,-0.00545415391248228,-0.007635815477475192,0.015271630954950384,-0.008692956007427461,0.09975908912601704,-0.00275616925644592,0,0,0,0,0,-0.7,1293,1678,1500,1500,1500,1500
1747549714.6155214,0.49,-0.24,-0.3,-0.00545415391248228,-0.007635815477475192,0.015271630954950384,-0.008692956007427461,0.09975908912601704,-0.00275616925644592,0,0,0,0,0,-0.7,1293,1678,1500,1500,1500,1500
1747549714.6155214,0.49,-0.24,-0.3,-0.00545415391248228,-0.007635815477475192,0.015271630954950384,-0.008692956007427461,0.09975908912601704,-0.00275616925644592,0,0,0,0,0,-0.7,1293,1678,1500,1500,1500,1500
1747549714.6988604,-0.27,-0.01,-0.41000000000000003,0.0,-0.006544984694978736,-0.004363323129985824,-0.00870360911564762,0.09878396180837756,-0.0029968882329943665,0,0,0,0,0,-0.202355,1333,1638,1500,1500,1500,1500
1747549714.6998572,-0.27,-0.01,-0.41000000000000003,0.0,-0.006544984694978736,-0.004363323129985824,-0.00870360911564762,0.09878396180837756,-0.0029968882329943665,0,0,0,0,0,-0.202355,1373,1598,1500,1500,1500,1500
1747549714.799634,-0.27,0.12,-0.22,-0.002181661564992912,0.003272492347489368,-0.004363323129985824,-0.00870858615808021,0.09829337522008362,-0.0031171601853786255,0,0,0,0,0,0,1413,1558,1500,1500,1500,1500
1747549714.8007064,-0.27,0.12,-0.22,-0.002181661564992912,0.003272492347489368,-0.004363323129985824,-0.00870858615808021,0.09829337522008362,-0.0031171601853786255,0,0,0,0,0,0,1453,1518,1500,1500,1500,1500
1747549714.898476,0.17,0.33,-0.5,-0.007635815477475192,0.002181661564992912,-0.006544984694978736,-0.008708047091459952,0.09804835286188676,-0.003116037024283216,0,0,0,0,0,0.017454,1493,1500,1500,1500,1500,1500
1747549714.899883,0.17,0.33,-0.5,-0.007635815477475192,0.002181661564992912,-0.006544984694978736,-0.008708047091459952,0.09804835286188676,-0.003116037024283216,0,0,0,0,0,0.017454,1500,1500,1500,1500,1500,1500
1747549714.9976332,0.0,-0.17,-0.08,0.003272492347489368,-0.001090830782496456,-0.001090830782496456,-0.008585265103752522,0.0979260086000373,-0.0031094714314617326,0,0,0,0,0,0.7,1540,1460,1500,1500,1500,1500
1747549714.999001,0.0,-0.17,-0.08,0.003272492347489368,-0.001090830782496456,-0.001090830782496456,-0.008585265103752522,0.0979260086000373,-0.0031094714314617326,0,0,0,0,0,0.7,1580,1420,1500,1500,1500,1500
1747549715.0983083,0.0,-0.17,-0.08,0.003272492347489368,-0.001090830782496456,-0.001090830782496456,-0.008585265103752522,0.0979260086000373,-0.0031094714314617326,0,0,0,0,0,0.7,1620,1380,1500,1500,1500,1500
1747549715.0983083,0.0,-0.17,-0.08,0.003272492347489368,-0.001090830782496456,-0.001090830782496456,-0.008585265103752522,0.0979260086000373,-0.0031094714314617326,0,0,0,0,0,0.7,1660,1340,1500,1500,1500,1500
1747549715.182178,-0.11,0.0,-0.34,-0.003272492347489368,0.001090830782496456,0.003272492347489368,-0.008585532959896966,0.09804851756571563,-0.0031100253631333743,0,0,0,0,0,0.7,1678,1300,1500,1500,1500,1500
1747549715.1832016,-0.11,0.0,-0.34,-0.003272492347489368,0.001090830782496456,0.003272492347489368,-0.008585532959896966,0.09804851756571563,-0.0031100253631333743,0,0,0,0,0,0.7,1678,1293,1500,1500,1500,1500
1747549715.2820778,-0.01,-0.52,-0.34,-0.003272492347489368,-0.006544984694978736,-0.001090830782496456,-0.008469304503222499,0.09817068362281883,-0.0032270717743914943,0,0,0,0,0,0.7,1678,1293,1500,1500,1500,1500
1747549715.2820778,-0.01,-0.52,-0.34,-0.003272492347489368,-0.006544984694978736,-0.001090830782496456,-0.008469304503222499,0.09817068362281883,-0.0032270717743914943,0,0,0,0,0,0.7,1678,1293,1500,1500,1500,1500
1747549715.381818,0.27,-0.32,0.66,0.0,-0.008726646259971648,0.00545415391248228,-0.008346789150346959,0.09817085581525871,-0.0032210525565301543,0,0,0,0,0,0.7,1678,1293,1500,1500,1500,1500
1747549715.381818,0.27,-0.32,0.66,0.0,-0.008726646259971648,0.00545415391248228,-0.008346789150346959,0.09817085581525871,-0.0032210525565301543,0,0,0,0,0,0.7,1678,1293,1500,1500,1500,1500
1747549715.464651,-0.58,-0.51,-0.21,-0.018544123302439753,-0.002181661564992912,0.002181661564992912,-0.008463018952303676,0.09804868226954716,-0.0031040137017587384,0,0,0,0,0,0.7,1678,1293,1500,1500,1500,1500
1747549715.464651,-0.58,-0.51,-0.21,-0.018544123302439753,-0.002181661564992912,0.002181661564992912,-0.008463018952303676,0.09804868226954716,-0.0031040137017587384,0,0,0,0,0,0.7,1678,1293,1500,1500,1500,1500
1747549715.5647893,-0.58,-0.51,-0.21,-0.018544123302439753,-0.002181661564992912,0.002181661564992912,-0.008463018952303676,0.09804868226954716,-0.0031040137017587384,0,0,0,0,0,0.7,1678,1293,1500,1500,1500,1500
1747549715.5647893,-0.58,-0.51,-0.21,-0.018544123302439753,-0.002181661564992912,0.002181661564992912,-0.008463018952303676,0.09804868226954716,-0.0031040137017587384,0,0,0,0,0,0.7,1678,1293,1500,1500,1500,1500
1747549715.6650963,-0.05,-0.45,-0.08,0.003272492347489368,0.009817477042468103,0.006544984694978736,-0.008585265103752522,0.0979260086000373,-0.0031094714314617326,0,0,0,0,0,0.7,1678,1293,1500,1500,1500,1500
1747549715.6650963,-0.05,-0.45,-0.08,0.003272492347489368,0.009817477042468103,0.006544984694978736,-0.008585265103752522,0.0979260086000373,-0.0031094714314617326,0,0,0,0,0,0.7,1678,1293,1500,1500,1500,1500
1747549715.7646022,-0.14,0.66,-0.6,0.01090830782496456,-0.002181661564992912,-0.003272492347489368,-0.008959087182533647,0.09804748442356051,-0.0032505705015729545,0,0,0,0,0,0.7,1678,1293,1500,1500,1500,1500
1747549715.7646022,-0.14,0.66,-0.6,0.01090830782496456,-0.002181661564992912,-0.003272492347489368,-0.008959087182533647,0.09804748442356051,-0.0032505705015729545,0,0,0,0,0,0.7,1678,1293,1500,1500,1500,1500
1747549715.8646367,0.21,0.11,-0.3,-0.003272492347489368,0.006544984694978736,0.008726646259971648,-0.009326062756125547,0.09780195143288287,-0.0032674040271923168,0,0,0,0,0,0,1638,1333,1500,1500,1500,1500
1747549715.8666763,0.21,0.11,-0.3,-0.003272492347489368,0.006544984694978736,0.008726646259971648,-0.009326062756125547,0.09780195143288287,-0.0032674040271923168,0,0,0,0,0,0,1598,1373,1500,1500,1500,1500
1747549715.948152,-0.45,0.18,-0.61,0.001090830782496456,-0.001090830782496456,-0.002181661564992912,-0.009577377716676456,0.0979235380726366,-0.003402521621195919,0,0,0,0,0,0,1558,1413,1500,1500,1500,1500
1747549715.96454,-0.45,0.18,-0.61,0.001090830782496456,-0.001090830782496456,-0.002181661564992912,-0.009577377716676456,0.0979235380726366,-0.003402521621195919,0,0,0,0,0,0,1518,1453,1500,1500,1500,1500
1747549716.0484467,-0.45,0.18,-0.61,0.001090830782496456,-0.001090830782496456,-0.002181661564992912,-0.009577377716676456,0.0979235380726366,-0.003402521621195919,0,0,0,0,0,0,1500,1493,1500,1500,1500,1500
1747549716.0594804,0.38,-0.32,-0.8,-0.00545415391248228,0.004363323129985824,0.0,-0.009700780534835104,0.09829088962991943,-0.0034104006231153684,0,0,0,0,0,0,1500,1500,1500,1500,1500,1500
1747549716.1478152,0.34,0.3,-0.32,0.002181661564992912,-0.003272492347489368,0.003272492347489368,-0.009700780534835104,0.09829088962991943,-0.0034104006231153684,0,0,0,0,0,0,1500,1500,1500,1500,1500,1500
1747549716.14896,0.34,0.3,-0.32,0.002181661564992912,-0.003272492347489368,0.003272492347489368,-0.009700780534835104,0.09829088962991943,-0.0034104006231153684,0,0,0,0,0,0,1500,1500,1500,1500,1500,1500
1747549716.2482796,0.01,0.05,-0.41000000000000003,0.002181661564992912,0.0,0.003272492347489368,-0.009700780534835104,0.09829088962991943,-0.0034104006231153684,0,0,0,0,0,0,1500,1500,1500,1500,1500,1500
1747549716.2492766,0.01,0.05,-0.41000000000000003,0.002181661564992912,0.0,0.003272492347489368,-0.009700780534835104,0.09829088962991943,-0.0034104006231153684,0,0,0,0,0,0,1500,1500,1500,1500,1500,1500
1747549716.3486269,-0.03,-0.01,-0.33,0.003272492347489368,-0.002181661564992912,0.003272492347489368,-0.009701077211405331,0.0984134029981585,-0.0034110257242471694,0,0,0,0,0,0,1500,1500,1500,1500,1500,1500
1747549716.3501077,-0.03,-0.01,-0.33,0.003272492347489368,-0.002181661564992912,0.003272492347489368,-0.009701077211405331,0.0984134029981585,-0.0034110257242471694,0,0,0,0,0,0,1500,1500,1500,1500,1500,1500
1747549716.4320772,-0.02,0.06,-0.33,-0.002181661564992912,0.002181661564992912,-0.001090830782496456,-0.00957885295979699,0.09853609753388452,-0.0034056090005673825,0,0,0,0,0,0,1500,1500,1500,1500,1500,1500
1747549716.433074,-0.02,0.06,-0.33,-0.002181661564992912,0.002181661564992912,-0.001090830782496456,-0.00957885295979699,0.09853609753388452,-0.0034056090005673825,0,0,0,0,0,0,1500,1500,1500,1500,1500,1500
1747549716.5323365,-0.02,0.06,-0.33,-0.002181661564992912,0.002181661564992912,-0.001090830782496456,-0.00957885295979699,0.09853609753388452,-0.0034056090005673825,0,0,0,0,0,0,1500,1500,1500,1500,1500,1500
1747549716.5323365,-0.02,0.06,-0.33,-0.002181661564992912,0.002181661564992912,-0.001090830782496456,-0.00957885295979699,0.09853609753388452,-0.0034056090005673825,0,0,0,0,0,0,1500,1500,1500,1500,1500,1500
1747549716.6317387,0.0,0.02,-0.38,0.0,0.0,0.0,-0.00957885295979699,0.09853609753388452,-0.0034056090005673825,0,0,0,0,0,0,1500,1500,1500,1500,1500,1500
1747549716.633207,0.0,0.02,-0.38,0.0,0.0,0.0,-0.00957885295979699,0.09853609753388452,-0.0034056090005673825,0,0,0,0,0,0,1500,1500,1500,1500,1500,1500
1747549716.7154403,0.01,0.03,-0.3,0.0,0.002181661564992912,0.002181661564992912,-0.00957914846005021,0.09865861387008151,-0.003406226674078879,0,0,0,0,0,0,1500,1500,1500,1500,1500,1500
1747549716.7314537,0.01,0.03,-0.3,0.0,0.002181661564992912,0.002181661564992912,-0.00957914846005021,0.09865861387008151,-0.003406226674078879,0,0,0,0,0,0,1500,1500,1500,1500,1500,1500
1747549716.8150516,0.0,0.0,-0.33,0.0,-0.003272492347489368,0.001090830782496456,-0.009456626036653653,0.09865879355780555,-0.0034001772228816206,0,0,0,0,0,0,1500,1500,1500,1500,1500,1500
1747549716.8314092,0.0,0.0,-0.33,0.0,-0.003272492347489368,0.001090830782496456,-0.009456626036653653,0.09865879355780555,-0.0034001772228816206,0,0,0,0,0,0,1500,1500,1500,1500,1500,1500
1747549716.8990488,0.02,0.0,-0.36,0.001090830782496456,-0.002181661564992912,0.002181661564992912,-0.009456626036653653,0.09865879355780555,-0.0034001772228816206,0,0,0,0,0,0,1500,1500,1500,1500,1500,1500
1747549716.9155684,0.02,0.0,-0.36,0.001090830782496456,-0.002181661564992912,0.002181661564992912,-0.009456626036653653,0.09865879355780555,-0.0034001772228816206,0,0,0,0,0,0,1500,1500,1500,1500,1500,1500
1747549716.9990208,0.02,0.0,-0.36,0.001090830782496456,-0.002181661564992912,0.002181661564992912,-0.009456626036653653,0.09865879355780555,-0.0034001772228816206,0,0,0,0,0,0,1500,1500,1500,1500,1500,1500
1747549717.0096183,0.01,0.05,-0.3,-0.001090830782496456,-0.00545415391248228,0.002181661564992912,-0.009456626036653653,0.09865879355780555,-0.0034001772228816206,0,0,0,0,0,0,1500,1500,1500,1500,1500,1500
1747549717.098609,0.0,0.03,-0.36,0.001090830782496456,-0.004363323129985824,0.001090830782496456,-0.009456920204445713,0.09878131138191523,-0.003400787402093864,0,0,0,0,0,0,1500,1500,1500,1500,1500,1500
1747549717.1147144,0.0,0.03,-0.36,0.001090830782496456,-0.004363323129985824,0.001090830782496456,-0.009456920204445713,0.09878131138191523,-0.003400787402093864,0,0,0,0,0,0,1500,1500,1500,1500,1500,1500
1747549717.1822982,0.0,0.01,-0.36,-0.002181661564992912,-0.001090830782496456,0.002181661564992912,-0.009456920204445713,0.09878131138191523,-0.003400787402093864,0,0,0,0,0,0,1500,1500,1500,1500,1500,1500
1747549717.1985958,0.0,0.01,-0.36,-0.002181661564992912,-0.001090830782496456,0.002181661564992912,-0.009456920204445713,0.09878131138191523,-0.003400787402093864,0,0,0,0,0,0,1500,1500,1500,1500,1500,1500
1747549717.2829366,0.0,0.01,-0.36,0.002181661564992912,-0.001090830782496456,0.001090830782496456,2.622002982882328,0.10467114323393029,0.19265808198676856,0,0,0,0,0,0,1500,1500,1500,1500,1500,1500
1747549717.2997818,0.0,0.01,-0.36,0.002181661564992912,-0.001090830782496456,0.001090830782496456,2.622002982882328,0.10467114323393029,0.19265808198676856,0,0,0,0,0,0,1500,1500,1500,1500,1500,1500
1747549717.36888,0.01,0.01,-0.32,-0.001090830782496456,0.003272492347489368,0.001090830782496456,-0.009456920204445713,0.09878131138191523,-0.003400787402093864,0,0,0,0,0,0,1500,1500,1500,1500,1500,1500
1747549717.400123,0.01,0.01,-0.32,-0.001090830782496456,0.003272492347489368,0.001090830782496456,-0.009456920204445713,0.09878131138191523,-0.003400787402093864,0,0,0,0,0,0,1500,1500,1500,1500,1500,1500
1747549717.4669201,0.01,0.01,-0.32,-0.001090830782496456,0.003272492347489368,0.001090830782496456,-0.009456920204445713,0.09878131138191523,-0.003400787402093864,0,0,0,0,0,0,1500,1500,1500,1500,1500,1500
1747549717.4989138,0.0,0.0,-0.36,0.0,-0.002181661564992912,0.0,-0.009456920204445713,0.09878131138191523,-0.003400787402093864,0,0,0,0,0,0,1500,1500,1500,1500,1500,1500
1747549717.565462,0.03,0.02,-0.35000000000000003,-0.001090830782496456,0.0,0.002181661564992912,-0.009456920204445713,0.09878131138191523,-0.003400787402093864,0,0,0,0,0,0,1500,1500,1500,1500,1500,1500
1747549717.5987036,0.03,0.02,-0.35000000000000003,-0.001090830782496456,0.0,0.002181661564992912,-0.009456920204445713,0.09878131138191523,-0.003400787402093864,0,0,0,0,0,0,1500,1500,1500,1500,1500,1500
1747549717.6479855,0.0,0.03,-0.29,-0.003272492347489368,0.001090830782496456,0.0,-0.009456920204445713,0.09878131138191523,-0.003400787402093864,0,0,0,0.007013,0,0,1500,1500,1500,1500,1500,1500
1747549717.6814861,0.0,0.03,-0.29,-0.003272492347489368,0.001090830782496456,0.0,-0.009456920204445713,0.09878131138191523,-0.003400787402093864,0,0,0,0.221428,0.000502,0,1540,1540,1460,1500,1500,1500
1747549717.7485275,0.0,0.02,-0.38,0.002181661564992912,0.001090830782496456,0.001090830782496456,-0.009456920204445713,0.09878131138191523,-0.003400787402093864,0,0,0,0.7,0.006271,0,1580,1580,1420,1500,1500,1500
1747549717.7810664,0.0,0.02,-0.38,0.002181661564992912,0.001090830782496456,0.001090830782496456,-0.009456920204445713,0.09878131138191523,-0.003400787402093864,0,0,0,0.7,0.006271,0,1620,1620,1380,1500,1500,1500
1747549717.8459575,0.0,0.01,-0.31,-0.001090830782496456,0.003272492347489368,0.001090830782496456,-0.009456920204445713,0.09878131138191523,-0.003400787402093864,0,0,0,0.7,0.006271,0,1646,1646,1340,1500,1500,1500
1747549717.8813558,0.0,0.01,-0.31,-0.001090830782496456,0.003272492347489368,0.001090830782496456,-0.009456920204445713,0.09878131138191523,-0.003400787402093864,0,0,0,0.7,0.006271,0,1646,1646,1300,1500,1500,1500
1747549717.931704,0.0,0.01,-0.31,-0.001090830782496456,0.003272492347489368,0.001090830782496456,-0.009456920204445713,0.09878131138191523,-0.003400787402093864,0,0,0,0.7,0.006271,0,1646,1646,1260,1500,1500,1500
1747549717.964714,0.0,0.01,-0.31,-0.001090830782496456,0.003272492347489368,0.001090830782496456,-0.009456920204445713,0.09878131138191523,-0.003400787402093864,0,0,0,0.7,0.006271,0,1646,1646,1236,1500,1500,1500
1747549718.0318127,0.04,0.03,-0.2,-0.002181661564992912,0.002181661564992912,0.003272492347489368,-0.009567330572377622,0.09878228470228662,-0.0031618063542802654,0,0,0,0.7,0.006271,0,1646,1646,1236,1500,1500,1500
1747549718.0645185,0.04,0.03,-0.2,-0.002181661564992912,0.002181661564992912,0.003272492347489368,-0.009567330572377622,0.09878228470228662,-0.0031618063542802654,0,0,0,0.7,0.006271,0,1646,1646,1236,1500,1500,1500
1747549718.1268594,0.17,0.44,-0.51,0.001090830782496456,0.007635815477475192,-0.014180800172453928,-0.009824492340723776,0.09878077231221148,-0.0034189584356811398,0,0,0,0.7,0.006271,0,1646,1646,1236,1500,1500,1500
1747549718.1611123,0.43,0.86,-0.41000000000000003,0.009817477042468103,0.004363323129985824,-0.009817477042468103,-0.010057427659400592,0.09878162583925572,-0.003186034420011651,0,0,0,0.7,0.006271,0,1646,1646,1236,1500,1500,1500
1747549718.214427,0.43,0.86,-0.41000000000000003,0.009817477042468103,0.004363323129985824,-0.009817477042468103,-0.010057427659400592,0.09878162583925572,-0.003186034420011651,0,0,0,0.7,0.006271,0,1646,1646,1236,1500,1500,1500
1747549718.2481632,0.43,0.86,-0.41000000000000003,0.009817477042468103,0.004363323129985824,-0.009817477042468103,-0.010057427659400592,0.09878162583925572,-0.003186034420011651,0,0,0,0.7,0.006271,0,1646,1646,1236,1500,1500,1500
1747549718.3148215,-0.07,0.28,-0.39,0.00545415391248228,-0.001090830782496456,0.004363323129985824,-0.00955495161998909,0.09866091986278261,-0.0029161566201621907,0,0,0,0.7,0.006271,0,1646,1646,1236,1500,1500,1500
1747549718.3484054,-0.07,0.28,-0.39,0.00545415391248228,-0.001090830782496456,0.004363323129985824,-0.00955495161998909,0.09866091986278261,-0.0029161566201621907,0,0,0,0.214975,0.000716,0,1606,1606,1276,1500,1500,1500
1747549718.4027503,-0.11,0.04,-0.52,-0.002181661564992912,0.002181661564992912,-0.007635815477475192,-0.00967800815045526,0.0989058073068287,-0.002923444876083392,0,0,0,0,0,0,1566,1566,1316,1500,1500,1500
1747549718.4320652,-0.11,0.04,-0.52,-0.002181661564992912,0.002181661564992912,-0.007635815477475192,-0.00967800815045526,0.0989058073068287,-0.002923444876083392,0,0,0,0,0,0,1526,1526,1356,1500,1500,1500
1747549718.4981415,0.12,-0.23,-0.25,-0.00545415391248228,0.0,0.001090830782496456,-0.00967800815045526,0.0989058073068287,-0.002923444876083392,0,0,0,0,0,0,1500,1500,1396,1500,1500,1500
1747549718.5322132,0.12,-0.23,-0.25,-0.00545415391248228,0.0,0.001090830782496456,-0.00967800815045526,0.0989058073068287,-0.002923444876083392,0,0,0,0,0,0,1500,1500,1436,1500,1500,1500
1747549718.5986605,0.27,-0.42,-0.06,-0.009817477042468103,0.004363323129985824,0.0,-0.009801340360972051,0.0992732245100685,-0.002931390774032991,0,0,0,0,0,0,1500,1500,1476,1500,1500,1500
1747549718.6315105,0.27,-0.42,-0.06,-0.009817477042468103,0.004363323129985824,0.0,-0.009801340360972051,0.0992732245100685,-0.002931390774032991,0,0,0,0,0,0,1500,1500,1500,1500,1500,1500
1747549718.681508,0.0,0.14,-0.29,-0.004363323129985824,-0.003272492347489368,0.002181661564992912,-0.009556502567856255,0.09963499444480878,-0.002920902965562922,0,0,0,0,0,0,1500,1500,1500,1500,1500,1500
1747549718.7310631,0.0,0.14,-0.29,0.00545415391248228,-0.001090830782496456,-0.003272492347489368,2.622015121463317,0.10454336766500891,0.19479006728495743,0,0,0,0,0,0,1500,1500,1500,1500,1500,1500
1747549718.7814627,0.0,0.14,-0.29,0.00545415391248228,-0.001090830782496456,-0.003272492347489368,2.622015121463317,0.10454336766500891,0.19479006728495743,0,0,0,0,0,0,1500,1500,1500,1500,1500,1500
1747549718.828094,-0.03,0.03,-0.33,-0.001090830782496456,0.002181661564992912,0.0,-0.009311712544629402,0.09975781619863983,-0.002909280211293376,0,0,0,0,0,0,1500,1500,1500,1500,1500,1500
1747549718.8817458,-0.01,-0.05,-0.3,0.001090830782496456,0.0,0.001090830782496456,-0.00943424078807844,0.09975766644248846,-0.002915397725747685,0,0,0,0,0,0,1500,1500,1500,1500,1500,1500
1747549718.9155726,-0.01,-0.05,-0.3,0.001090830782496456,0.0,0.001090830782496456,-0.00943424078807844,0.09975766644248846,-0.002915397725747685,0,0,0,0,0,0,1500,1500,1500,1500,1500,1500
1747549718.9645789,0.01,0.02,-0.36,-0.003272492347489368,0.001090830782496456,0.002181661564992912,2.622049785623075,0.10466625123200436,0.19503976772147177,0,0,0,0,0,0,1500,1500,1500,1500,1500,1500
1747549719.0147321,0.03,0.02,-0.3,-0.003272492347489368,0.001090830782496456,0.002181661564992912,-0.009311712544629402,0.09975781619863983,-0.002909280211293376,0,0,0,0,0,0,1500,1500,1500,1500,1500,1500
1747549719.0647588,0.03,0.02,-0.3,-0.003272492347489368,0.001090830782496456,0.002181661564992912,-0.009311712544629402,0.09975781619863983,-0.002909280211293376,0,0,0,0,0,0,1500,1500,1500,1500,1500,1500
