time,ay,ax,az,gy,gx,gz,roll,pitch,yaw,cmd_fx,cmd_fy,cmd_fz,cmd_tx,cmd_ty,cmd_tz,pwm_1,pwm_2,pwm_3,pwm_4,pwm_5,pwm_6
1748737837.0821888,0.0,0.0,0.0,0.0,0.0,0.0,0.0,0.0,0.0,0,0,0,0,0,0,1500,1500,1500,1500,1500,1500
1748737837.1817312,0.03,-0.02,-0.02,0.0,0.0,0.0,0.010920022382608204,0.04942023551550268,1.3599772916674173,0,0,0,0,0,0,1500,1500,1500,1500,1500,1500
1748737837.2818394,0.03,-0.02,-0.02,0.0,0.0,0.0,0.010920022382608204,0.04942023551550268,1.3599772916674173,0,0,0,0,0,0,1500,1500,1500,1500,1500,1500
1748737837.3659132,0.04,-0.05,0.0,0.002181661564992912,0.0,0.002181661564992912,0.010920022382608204,0.04942023551550268,1.3599772916674173,0,0,0,0,0,0,1500,1500,1500,1500,1500,1500
1748737837.465928,0.05,-0.05,-0.06,0.0,-0.001090830782496456,0.002181661564992912,0.010920022382608204,0.04942023551550268,1.3599772916674173,0,0,0,0,0,0,1500,1500,1500,1500,1500,1500
1748737837.5650961,0.05,-0.05,-0.06,0.0,-0.001090830782496456,0.002181661564992912,0.010920022382608204,0.04942023551550268,1.3599772916674173,0,0,0,0,0,0,1500,1500,1500,1500,1500,1500
1748737837.648433,0.04,-0.03,-0.03,-0.001090830782496456,0.0,0.0,0.010920022382608204,0.04942023551550268,1.3599772916674173,0,0,0,0,0,0,1500,1500,1500,1500,1500,1500
1748737837.7492294,0.04,-0.03,-0.03,-0.001090830782496456,0.0,0.0,0.010920022382608204,0.04942023551550268,1.3599772916674173,0,0,0,0,0,0,1500,1500,1500,1500,1500,1500
1748737837.8486018,0.04,-0.06,-0.01,0.002181661564992912,0.001090830782496456,-0.001090830782496456,0.010920022382608204,0.04942023551550268,1.3599772916674173,0,0,0,0,0,0,1500,1500,1500,1500,1500,1500
1748737837.94922,0.05,-0.07,-0.06,0.001090830782496456,0.0,0.001090830782496456,0.010920022382608204,0.04942023551550268,1.3599772916674173,0,0,0,0,0,0,1500,1500,1500,1500,1500,1500
1748737838.0490565,0.05,-0.07,-0.06,0.001090830782496456,0.0,0.001090830782496456,0.010920022382608204,0.04942023551550268,1.3599772916674173,0,0,0,0,0,0,1500,1500,1500,1500,1500,1500
1748737838.1332924,0.05,-0.07,-0.05,0.0,0.0,0.001090830782496456,0.010920022382608204,0.04942023551550268,1.3599772916674173,0,0,0,0,0,0,1500,1500,1500,1500,1500,1500
1748737838.2319498,0.05,-0.07,-0.05,0.0,0.0,0.001090830782496456,0.010920022382608204,0.04942023551550268,1.3599772916674173,0,0,0,0,0,0,1500,1500,1500,1500,1500,1500
1748737838.3315787,0.05,-0.05,-0.01,0.0,0.0,-0.001090830782496456,0.010920022382608204,0.04942023551550268,1.3599772916674173,0,0,0,0,0,0,1500,1500,1500,1500,1500,1500
1748737838.4158087,0.04,-0.06,-0.01,0.002181661564992912,0.002181661564992912,-0.001090830782496456,0.010920022382608204,0.04942023551550268,1.3599772916674173,0,0,0,0,0,0,1500,1500,1500,1500,1500,1500
1748737838.5155003,0.04,-0.06,-0.01,0.002181661564992912,0.002181661564992912,-0.001090830782496456,0.010920022382608204,0.04942023551550268,1.3599772916674173,0,0,0,0,0,0,1500,1500,1500,1500,1500,1500
1748737838.6156347,0.03,-0.07,-0.03,-0.003272492347489368,0.002181661564992912,0.0,0.010920022382608204,0.04942023551550268,1.3599772916674173,0,0,0,0,0,0,1500,1500,1500,1500,1500,1500
1748737838.714911,0.03,-0.07,-0.03,-0.003272492347489368,0.002181661564992912,0.0,0.010920022382608204,0.04942023551550268,1.3599772916674173,0,0,0,0,0,0,1500,1500,1500,1500,1500,1500
1748737838.8152888,0.03,-0.05,-0.04,0.00545415391248228,0.004363323129985824,0.0,0.010920022382608204,0.04942023551550268,1.3599772916674173,0,0,0,0,0,0,1500,1500,1500,1500,1500,1500
1748737838.8990545,0.03,-0.06,0.0,0.004363323129985824,-0.002181661564992912,-0.002181661564992912,0.010920022382608204,0.04942023551550268,1.3599772916674173,0,0,0,0,0,0,1500,1500,1500,1500,1500,1500
1748737838.9986205,0.03,-0.06,0.0,0.004363323129985824,-0.002181661564992912,-0.002181661564992912,0.010920022382608204,0.04942023551550268,1.3599772916674173,0,0,0,0,0,0,1500,1500,1500,1500,1500,1500
1748737839.0977457,0.04,-0.04,0.0,0.0,-0.001090830782496456,0.001090830782496456,0.010920022382608204,0.04942023551550268,1.3599772916674173,0,0,0,0,0,0,1500,1500,1500,1500,1500,1500
1748737839.1986523,0.04,-0.04,0.0,0.0,-0.001090830782496456,0.001090830782496456,0.010920022382608204,0.04942023551550268,1.3599772916674173,0,0,0,0,0,0,1500,1500,1500,1500,1500,1500
1748737839.2982116,0.01,-0.05,0.0,-0.001090830782496456,0.003272492347489368,-0.001090830782496456,0.010920022382608204,0.04942023551550268,1.3599772916674173,0,0,0,0,0,0,1500,1500,1500,1500,1500,1500
1748737839.3822575,0.03,-0.03,0.0,0.002181661564992912,0.003272492347489368,0.0,0.010920022382608204,0.04942023551550268,1.3599772916674173,0,0,0,0,0,0,1500,1500,1500,1500,1500,1500
1748737839.4819858,0.03,-0.03,0.0,0.002181661564992912,0.003272492347489368,0.0,0.010920022382608204,0.04942023551550268,1.3599772916674173,0,0,0,0,0,0,1500,1500,1500,1500,1500,1500
1748737839.5821297,0.04,-0.05,-0.03,0.002181661564992912,-0.003272492347489368,0.001090830782496456,0.010920022382608204,0.04942023551550268,1.3599772916674173,0,0,0,0,0,0,1500,1500,1500,1500,1500,1500
1748737839.682226,0.04,-0.05,-0.03,0.002181661564992912,-0.003272492347489368,0.001090830782496456,0.010920022382608204,0.04942023551550268,1.3599772916674173,0,0,0,0,0,0,1500,1500,1500,1500,1500,1500
1748737839.7820258,0.02,-0.05,-0.03,0.002181661564992912,0.001090830782496456,0.001090830782496456,0.010920022382608204,0.04942023551550268,1.3599772916674173,0,0,0,0,0,0,1500,1500,1500,1500,1500,1500
1748737839.8655214,0.04,-0.05,-0.03,0.0,0.003272492347489368,-0.001090830782496456,0.010920022382608204,0.04942023551550268,1.3599772916674173,0,0,0,0,0,0,1500,1500,1500,1500,1500,1500
1748737839.9655836,0.04,-0.05,-0.03,0.0,0.003272492347489368,-0.001090830782496456,0.010920022382608204,0.04942023551550268,1.3599772916674173,0,0,0,0,0,0,1500,1500,1500,1500,1500,1500
1748737840.065217,0.05,-0.07,-0.03,-0.001090830782496456,0.0,0.0,0.010920022382608204,0.04942023551550268,1.3599772916674173,0,0,0,0,0,0,1500,1500,1500,1500,1500,1500
1748737840.1529498,0.05,-0.07,-0.03,-0.001090830782496456,0.0,0.0,0.010920022382608204,0.04942023551550268,1.3599772916674173,0,0,0,0,0,0,1500,1500,1500,1500,1500,1500
1748737840.2486908,0.04,-0.05,-0.02,-0.001090830782496456,0.001090830782496456,0.001090830782496456,0.010920022382608204,0.04942023551550268,1.3599772916674173,0,0,0,0,0,0,1500,1500,1500,1500,1500,1500
1748737840.348802,0.04,-0.06,-0.03,-0.003272492347489368,-0.002181661564992912,0.002181661564992912,0.010920022382608204,0.04942023551550268,1.3599772916674173,0,0,0,0,0,0,1500,1500,1500,1500,1500,1500
1748737840.4489925,0.04,-0.06,-0.03,-0.003272492347489368,-0.002181661564992912,0.002181661564992912,0.010920022382608204,0.04942023551550268,1.3599772916674173,0,0,0,0,0,0,1500,1500,1500,1500,1500,1500
1748737840.5486803,0.05,-0.05,-0.02,0.001090830782496456,0.001090830782496456,0.0,0.010920022382608204,0.04942023551550268,1.3599772916674173,0,0,0,0,0,0,1500,1500,1500,1500,1500,1500
1748737840.6314309,0.05,-0.05,-0.02,0.001090830782496456,0.001090830782496456,0.0,0.010920022382608204,0.04942023551550268,1.3599772916674173,0,0,0,0,0,0,1500,1500,1500,1500,1500,1500
1748737840.7319596,0.04,-0.04,0.0,0.0,0.001090830782496456,0.001090830782496456,0.010920022382608204,0.04942023551550268,1.3599772916674173,0,0,0,0,0,0,1500,1500,1500,1500,1500,1500
1748737840.8320937,0.05,-0.04,0.0,0.001090830782496456,-0.001090830782496456,0.001090830782496456,0.010920022382608204,0.04942023551550268,1.3599772916674173,0,0,0,0,0,0,1500,1500,1500,1500,1500,1500
1748737840.932488,0.05,-0.04,0.0,0.001090830782496456,-0.001090830782496456,0.001090830782496456,0.010920022382608204,0.04942023551550268,1.3599772916674173,0,0,0,0,0,0,1500,1500,1500,1500,1500,1500
1748737841.0317707,0.06,-0.04,0.02,0.001090830782496456,-0.00545415391248228,0.001090830782496456,0.010920022382608204,0.04942023551550268,1.3599772916674173,0,0,0,0,0,0,1500,1500,1500,1500,1500,1500
1748737841.115461,0.06,-0.04,0.02,0.001090830782496456,-0.00545415391248228,0.001090830782496456,0.010920022382608204,0.04942023551550268,1.3599772916674173,0,0,0,0,0,0,1500,1500,1500,1500,1500,1500
1748737841.2150393,0.02,-0.04,0.0,0.0,-0.002181661564992912,-0.001090830782496456,0.010920022382608204,0.04942023551550268,1.3599772916674173,0,0,0,0,0,0,1500,1500,1500,1500,1500,1500
1748737841.3149345,0.03,-0.05,-0.02,-0.001090830782496456,-0.003272492347489368,-0.002181661564992912,0.010920022382608204,0.04942023551550268,1.3599772916674173,0,0,0,0,0,0,1500,1500,1500,1500,1500,1500
1748737841.3978956,0.03,-0.05,-0.02,-0.001090830782496456,-0.003272492347489368,-0.002181661564992912,0.010920022382608204,0.04942023551550268,1.3599772916674173,0,0,0,0,0,0,1500,1500,1500,1500,1500,1500
1748737841.4988794,0.03,-0.04,-0.03,0.0,0.00545415391248228,0.0,0.010920022382608204,0.04942023551550268,1.3599772916674173,0,0,0,0,0,0,1500,1500,1500,1500,1500,1500
1748737841.5979464,0.03,-0.04,-0.03,0.0,0.00545415391248228,0.0,0.010920022382608204,0.04942023551550268,1.3599772916674173,0,0,0,0,0,0,1500,1500,1500,1500,1500,1500
1748737841.6986592,0.03,-0.06,-0.02,-0.001090830782496456,-0.001090830782496456,0.0,0.010920022382608204,0.04942023551550268,1.3599772916674173,0,0,0,0,0,0,1500,1500,1500,1500,1500,1500
1748737841.7979417,0.04,-0.06,-0.04,0.0,-0.003272492347489368,0.002181661564992912,0.010920022382608204,0.04942023551550268,1.3599772916674173,0,0,0,0,0,0,1500,1500,1500,1500,1500,1500
1748737841.8818057,0.04,-0.06,-0.04,0.0,-0.003272492347489368,0.002181661564992912,0.010920022382608204,0.04942023551550268,1.3599772916674173,0,0,0,0,0,0,1500,1500,1500,1500,1500,1500
1748737841.9816804,0.03,-0.07,-0.06,0.002181661564992912,0.001090830782496456,0.001090830782496456,0.010920022382608204,0.04942023551550268,1.3599772916674173,0,0,0,0,0,0,1500,1500,1500,1500,1500,1500
1748737842.0819633,0.03,-0.07,-0.06,0.002181661564992912,0.001090830782496456,0.001090830782496456,0.010920022382608204,0.04942023551550268,1.3599772916674173,0,0,0,0,0,0,1500,1500,1500,1500,1500,1500
1748737842.165454,0.04,-0.05,0.0,0.0,0.0,0.0,0.010920022382608204,0.04942023551550268,1.3599772916674173,0,0,0,0,0,0,1500,1500,1500,1500,1500,1500
1748737842.2652717,0.11,-0.37,-0.06,0.001090830782496456,0.003272492347489368,0.003272492347489368,0.010996891100412258,0.04951524978959592,1.359982422790874,0,0,0,0,0,0,1500,1500,1500,1500,1500,1500
1748737842.348903,0.11,-0.37,-0.06,0.001090830782496456,0.003272492347489368,0.003272492347489368,0.010996891100412258,0.04951524978959592,1.359982422790874,0,0,0,0,0,0,1500,1500,1500,1500,1500,1500
1748737842.4487007,0.44,0.51,-0.34,-0.009817477042468103,0.001090830782496456,0.019634954084936207,0.010752323519436386,0.049400661302709606,1.3601256398053647,0,0,0,0,0,0,1500,1500,1500,1500,1500,1500
1748737842.5478625,0.44,0.51,-0.34,-0.009817477042468103,0.001090830782496456,0.019634954084936207,0.010752323519436386,0.049400661302709606,1.3601256398053647,0,0,0,0,0,0,1500,1500,1500,1500,1500,1500
1748737842.6324806,-0.27,-0.19,-0.12,0.007635815477475192,-0.003272492347489368,0.0,0.008445917125649011,0.049851544391210284,1.360070682856575,0,0,0,0,0,0,1500,1500,1500,1500,1500,1500
1748737842.732069,-0.31,-0.1,-0.25,-0.008726646259971648,-0.006544984694978736,0.009817477042468103,0.008197210638541022,0.04973834897407079,1.3600602513728293,0,0,0,0,0,0,1500,1500,1500,1500,1500,1500
1748737842.8316317,-0.31,-0.1,-0.25,-0.008726646259971648,-0.006544984694978736,0.009817477042468103,0.008197210638541022,0.04973834897407079,1.3600602513728293,0,0,0,0,0,0,1500,1500,1500,1500,1500,1500
1748737842.9157004,-0.19,-0.45,0.59,0.006544984694978736,0.009817477042468103,-0.015271630954950384,0.008104908374389751,0.04981669947056414,1.3602298107892787,0,0,0,0,0,0,1500,1500,1500,1500,1500,1500
1748737843.0155237,-0.19,-0.45,0.59,0.006544984694978736,0.009817477042468103,-0.015271630954950384,0.008104908374389751,0.04981669947056414,1.3602298107892787,0,0,0,0,0,0,1500,1500,1500,1500,1500,1500
1748737843.114937,0.03,-0.07,-0.07,-0.002181661564992912,0.001090830782496456,-0.001090830782496456,0.007860389808058229,0.0497023852809772,1.3603735134231463,0,0,0,0,0,0,1500,1500,1500,1500,1500,1500
1748737843.2155154,0.01,-0.01,-0.04,0.001090830782496456,0.001090830782496456,0.001090830782496456,0.007706640778456871,0.04951238525599277,1.360363767131182,0,0,0,0,0,0,1500,1500,1500,1500,1500,1500
1748737843.3147774,0.01,-0.01,-0.04,0.001090830782496456,0.001090830782496456,0.001090830782496456,0.007706640778456871,0.04951238525599277,1.360363767131182,0,0,0,0,0,0,1500,1500,1500,1500,1500,1500
1748737843.3989718,0.04,0.0,-0.05,-0.001090830782496456,0.0,0.0,0.00762976752226146,0.04941738591474843,1.3603589159085976,0,0,0,0,0,0,1500,1500,1500,1500,1500,1500
1748737843.4988058,0.04,0.0,-0.05,-0.001090830782496456,0.0,0.0,0.00762976752226146,0.04941738591474843,1.3603589159085976,0,0,0,0,0,0,1500,1500,1500,1500,1500,1500
1748737843.5987659,0.04,-0.05,-0.02,0.0,0.001090830782496456,0.003272492347489368,0.007552895101744407,0.049322387019851116,1.3603540793013986,0,0,0,0,0,0,1500,1500,1500,1500,1500,1500
1748737843.69867,0.03,-0.04,-0.02,0.003272492347489368,0.001090830782496456,0.001090830782496456,0.007570995806627265,0.04915055465707349,1.3603498058252266,0,0,0,0,0,0,1500,1500,1500,1500,1500,1500
1748737843.7988424,0.03,-0.04,-0.02,0.003272492347489368,0.001090830782496456,0.001090830782496456,0.007570995806627265,0.04915055465707349,1.3603498058252266,0,0,0,0,0,0,1500,1500,1500,1500,1500,1500
1748737843.8820887,0.05,-0.02,-0.03,-0.003272492347489368,0.0,0.003272492347489368,0.007494124896756139,0.04905555701125386,1.3603449969009307,0,0,0,0,0,0,1500,1500,1500,1500,1500,1500
1748737843.9826012,0.05,-0.02,-0.03,-0.003272492347489368,0.0,0.003272492347489368,0.007494124896756139,0.04905555701125386,1.3603449969009307,0,0,0,0,0,0,1500,1500,1500,1500,1500,1500
1748737844.081141,0.04,-0.03,-0.01,0.0,-0.003272492347489368,0.001090830782496456,0.007494124896756139,0.04905555701125386,1.3603449969009307,0,0,0,0,0,0,1500,1500,1500,1500,1500,1500
1748737844.1656346,0.04,0.01,-0.02,-0.001090830782496456,-0.002181661564992912,0.001090830782496456,0.007494124896756139,0.04905555701125386,1.3603449969009307,0,0,0,0,0,0,1500,1500,1500,1500,1500,1500
1748737844.264374,0.04,0.01,-0.02,-0.001090830782496456,-0.002181661564992912,0.001090830782496456,0.007494124896756139,0.04905555701125386,1.3603449969009307,0,0,0,0,0,0,1500,1500,1500,1500,1500,1500
1748737844.365449,0.03,-0.02,-0.01,0.003272492347489368,-0.001090830782496456,0.001090830782496456,0.007494124896756139,0.04905555701125386,1.3603449969009307,0,0,0,0,0,0,1500,1500,1500,1500,1500,1500
1748737844.4652162,0.03,-0.02,-0.01,0.003272492347489368,-0.001090830782496456,0.001090830782496456,0.007494124896756139,0.04905555701125386,1.3603449969009307,0,0,0,0,0,0,1500,1500,1500,1500,1500,1500
1748737844.5653348,0.02,-0.02,-0.03,0.001090830782496456,-0.001090830782496456,0.0,0.007494124896756139,0.04905555701125386,1.3603449969009307,0,0,0,0,0,0,1500,1500,1500,1500,1500,1500
1748737844.647928,0.02,-0.01,-0.03,-0.002181661564992912,0.0,-0.002181661564992912,0.007494124896756139,0.04905555701125386,1.3603449969009307,0,0,0,0,0,0,1500,1500,1500,1500,1500,1500
1748737844.7480092,0.02,-0.01,-0.03,-0.002181661564992912,0.0,-0.002181661564992912,0.007494124896756139,0.04905555701125386,1.3603449969009307,0,0,0,0,0,0,1500,1500,1500,1500,1500,1500
1748737844.8483965,0.04,-0.01,-0.06,0.0,0.002181661564992912,0.001090830782496456,0.007494124896756139,0.04905555701125386,1.3603449969009307,0,0,0,0,0,0,1500,1500,1500,1500,1500,1500
1748737844.9460204,0.03,-0.04,-0.02,0.002181661564992912,-0.004363323129985824,-0.002181661564992912,0.007494124896756139,0.04905555701125386,1.3603449969009307,0,0,0,0,0,0,1500,1500,1500,1500,1500,1500
1748737845.048915,0.03,-0.04,-0.02,0.002181661564992912,-0.004363323129985824,-0.002181661564992912,0.007494124896756139,0.04905555701125386,1.3603449969009307,0,0,0,0,0,0,1500,1500,1500,1500,1500,1500
1748737845.1312943,0.02,-0.03,-0.03,0.001090830782496456,0.004363323129985824,0.0,0.007494124896756139,0.04905555701125386,1.3603449969009307,0,0,0,0,0,0,1500,1500,1500,1500,1500,1500
1748737845.230938,0.02,-0.03,-0.03,0.001090830782496456,0.004363323129985824,0.0,0.007494124896756139,0.04905555701125386,1.3603449969009307,0,0,0,0,0,0,1500,1500,1500,1500,1500,1500
1748737845.331427,0.04,-0.03,-0.02,-0.002181661564992912,-0.002181661564992912,-0.001090830782496456,0.007494124896756139,0.04905555701125386,1.3603449969009307,0,0,0,0,0,0,1500,1500,1500,1500,1500,1500
1748737845.414879,0.04,-0.03,-0.02,-0.002181661564992912,-0.002181661564992912,-0.001090830782496456,0.007494124896756139,0.04905555701125386,1.3603449969009307,0,0,0,0,0,0,1500,1500,1500,1500,1500,1500
1748737845.515357,0.02,-0.03,0.0,0.0,0.002181661564992912,0.0,0.007494124896756139,0.04905555701125386,1.3603449969009307,0,0,0,0,0,0,1500,1500,1500,1500,1500,1500
1748737845.614764,0.03,-0.01,0.0,0.003272492347489368,-0.002181661564992912,0.001090830782496456,0.007494124896756139,0.04905555701125386,1.3603449969009307,0,0,0,0,0,0,1500,1500,1500,1500,1500,1500
1748737845.7149332,0.03,-0.01,0.0,0.003272492347489368,-0.002181661564992912,0.001090830782496456,0.007494124896756139,0.04905555701125386,1.3603449969009307,0,0,0,0,0,0,1500,1500,1500,1500,1500,1500
1748737845.8152666,0.06,-0.01,0.01,0.001090830782496456,0.004363323129985824,-0.001090830782496456,0.007494124896756139,0.04905555701125386,1.3603449969009307,0,0,0,0,0,0,1500,1500,1500,1500,1500,1500
1748737845.897902,0.06,-0.01,0.01,0.001090830782496456,0.004363323129985824,-0.001090830782496456,0.007494124896756139,0.04905555701125386,1.3603449969009307,0,0,0,0,0,0,1500,1500,1500,1500,1500,1500
1748737845.9984474,0.03,-0.03,-0.06,-0.001090830782496456,0.0,0.001090830782496456,0.007494124896756139,0.04905555701125386,1.3603449969009307,0,0,0,0,0,0,1500,1500,1500,1500,1500,1500
1748737846.0989156,0.04,-0.02,-0.03,0.002181661564992912,0.001090830782496456,0.0,0.007494124896756139,0.04905555701125386,1.3603449969009307,0,0,0,0,0,0,1500,1500,1500,1500,1500,1500
1748737846.1979043,0.04,-0.02,-0.03,0.002181661564992912,0.001090830782496456,0.0,0.007494124896756139,0.04905555701125386,1.3603449969009307,0,0,0,0,0,0,1500,1500,1500,1500,1500,1500
1748737846.2976134,0.04,-0.02,-0.06,-0.003272492347489368,-0.003272492347489368,0.001090830782496456,0.007494124896756139,0.04905555701125386,1.3603449969009307,0,0,0,0,0,0,1500,1500,1500,1500,1500,1500
1748737846.3823888,0.03,0.0,-0.01,0.0,0.004363323129985824,0.0,0.007494124896756139,0.04905555701125386,1.3603449969009307,0,0,0,0,0,0,1500,1500,1500,1500,1500,1500
1748737846.4818614,0.03,0.0,-0.01,0.0,0.004363323129985824,0.0,0.007494124896756139,0.04905555701125386,1.3603449969009307,0,0,0,0,0,0,1500,1500,1500,1500,1500,1500
1748737846.5810966,0.0,-0.02,0.02,-0.001090830782496456,0.002181661564992912,-0.001090830782496456,0.007494124896756139,0.04905555701125386,1.3603449969009307,0,0,0,0,0,0,1500,1500,1500,1500,1500,1500
1748737846.6652455,0.0,-0.02,0.02,-0.001090830782496456,0.002181661564992912,-0.001090830782496456,0.007494124896756139,0.04905555701125386,1.3603449969009307,0,0,0,0,0,0,1500,1500,1500,1500,1500,1500
1748737846.7647748,0.03,0.0,-0.03,-0.001090830782496456,0.004363323129985824,-0.001090830782496456,0.007494124896756139,0.04905555701125386,1.3603449969009307,0,0,0,0,0,0,1500,1500,1500,1500,1500,1500
1748737846.8502038,0.03,0.0,0.02,0.002181661564992912,-0.002181661564992912,0.002181661564992912,0.007494124896756139,0.04905555701125386,1.3603449969009307,0,0,0,0,0,0,1500,1500,1500,1500,1500,1500
1748737846.9486878,0.03,0.0,0.02,0.002181661564992912,-0.002181661564992912,0.002181661564992912,0.007494124896756139,0.04905555701125386,1.3603449969009307,0,0,0,0,0,0,1500,1500,1500,1500,1500,1500
1748737847.047683,0.04,-0.01,-0.01,-0.003272492347489368,0.0,0.0,0.007494124896756139,0.04905555701125386,1.3603449969009307,0,0,0,0,0,0,1500,1500,1500,1500,1500,1500
1748737847.1317284,0.04,-0.01,-0.01,-0.003272492347489368,0.0,0.0,0.007494124896756139,0.04905555701125386,1.3603449969009307,0,0,0,0,0,0,1500,1500,1500,1500,1500,1500
1748737847.2311172,0.02,-0.01,-0.03,-0.001090830782496456,-0.004363323129985824,0.001090830782496456,0.007494124896756139,0.04905555701125386,1.3603449969009307,0,0,0,0,0,0,1500,1500,1500,1500,1500,1500
1748737847.3313813,0.02,-0.01,-0.03,-0.001090830782496456,-0.004363323129985824,0.001090830782496456,0.007494124896756139,0.04905555701125386,1.3603449969009307,0,0,0,0,0,0,1500,1500,1500,1500,1500,1500
1748737847.4151025,0.04,-0.03,-0.05,-0.003272492347489368,-0.002181661564992912,-0.001090830782496456,0.007494124896756139,0.04905555701125386,1.3603449969009307,0,0,0,0,0,0,1500,1500,1500,1500,1500,1500
1748737847.514385,0.04,-0.04,-0.01,-0.002181661564992912,-0.001090830782496456,-0.002181661564992912,0.007494124896756139,0.04905555701125386,1.3603449969009307,0,0,0,0,0,0,1500,1500,1500,1500,1500,1500
1748737847.598981,0.04,-0.04,-0.01,-0.002181661564992912,-0.001090830782496456,-0.002181661564992912,0.007494124896756139,0.04905555701125386,1.3603449969009307,0,0,0,0,0,0,1500,1500,1500,1500,1500,1500
1748737847.697861,0.03,0.0,-0.01,0.0,0.00545415391248228,-0.001090830782496456,0.007494124896756139,0.04905555701125386,1.3603449969009307,0,0,0,0,0,0,1500,1500,1500,1500,1500,1500
1748737847.798422,0.03,0.0,-0.01,0.0,0.00545415391248228,-0.001090830782496456,0.007494124896756139,0.04905555701125386,1.3603449969009307,0,0,0,0,0,0,1500,1500,1500,1500,1500,1500
1748737847.8819485,-0.19,-0.25,0.02,-0.002181661564992912,0.002181661564992912,0.006544984694978736,0.007494124896756139,0.04905555701125386,1.3603449969009307,0,0,0,0,0,0,1500,1500,1500,1500,1500,1500
1748737847.982079,-0.18,-0.5,0.01,-0.002181661564992912,0.0,0.001090830782496456,0.007077713079774238,0.04892318019023017,1.3604836513896712,0,0,0,0,0,0,1500,1500,1500,1500,1500,1500
1748737848.0816758,-0.18,-0.5,0.01,-0.002181661564992912,0.0,0.001090830782496456,0.007077713079774238,0.04892318019023017,1.3604836513896712,0,0,0,0,0,0,1500,1500,1500,1500,1500,1500
1748737848.1653082,-0.25,-0.55,0.1,0.002181661564992912,0.007635815477475192,0.008726646259971648,0.007307913792129156,0.04842477936431639,1.3606304173802086,0,0,0,0,0,0,1500,1500,1500,1500,1500,1500
1748737848.2648678,-0.25,-0.55,0.1,0.002181661564992912,0.007635815477475192,0.008726646259971648,0.007307913792129156,0.04842477936431639,1.3606304173802086,0,0,0,0,0,0,1500,1500,1500,1500,1500,1500
1748737848.360849,-0.26,-0.31,-0.16,-0.001090830782496456,-0.003272492347489368,0.006544984694978736,0.007514402393944761,0.04810183787817122,1.3606433341596504,0,0,0,0,0,0,1500,1500,1500,1500,1500,1500
1748737848.448798,-0.26,-0.33,0.38,-0.006544984694978736,-0.00545415391248228,0.006544984694978736,0.007419441644282671,0.04817868278575198,1.3606427973320436,0,0,0,0,0,0,1500,1500,1500,1500,1500,1500
1748737848.5482783,-0.26,-0.33,0.38,-0.006544984694978736,-0.00545415391248228,0.006544984694978736,0.007419441644282671,0.04817868278575198,1.3606427973320436,0,0,0,0,0,0,1500,1500,1500,1500,1500,1500
1748737848.6314363,-0.16,-0.65,-0.43,0.013089969389957472,-0.006544984694978736,0.007635815477475192,0.007574704789527766,0.04836606710235485,1.3606362372599243,0,0,0,0,0,0,1500,1500,1500,1500,1500,1500
1748737848.7309225,-0.16,-0.65,-0.43,0.013089969389957472,-0.006544984694978736,0.007635815477475192,0.007574704789527766,0.04836606710235485,1.3606362372599243,0,0,0,0,0,0,1500,1500,1500,1500,1500,1500
1748737848.8309646,0.29,-0.56,0.34,0.002181661564992912,-0.004363323129985824,-0.006544984694978736,0.007665578269310756,0.04829031801326719,1.3604826862825272,0,0,0,0,0,0,1500,1500,1500,1500,1500,1500
1748737848.9147258,0.29,-0.56,0.34,0.002181661564992912,-0.004363323129985824,-0.006544984694978736,0.007665578269310756,0.04829031801326719,1.3604826862825272,0,0,0,0,0,0,1500,1500,1500,1500,1500,1500
1748737849.0146601,-0.34,-0.02,-0.77,-0.014180800172453928,0.016362461737446838,-0.006544984694978736,0.00737659076730864,0.04852190746121155,1.3603269888978058,0,0,0,0,0,0,1500,1500,1500,1500,1500,1500
1748737849.1145186,0.18,0.51,-0.15,0.007635815477475192,-0.02181661564992912,0.016362461737446838,0.007496323169877669,0.04827366891536447,1.3606475253660177,0,0,0,0,0,0,1500,1500,1500,1500,1500,1500
1748737849.2148523,0.18,0.51,-0.15,0.007635815477475192,-0.02181661564992912,0.016362461737446838,0.007496323169877669,0.04827366891536447,1.3606475253660177,0,0,0,0,0,0,1500,1500,1500,1500,1500,1500
1748737849.3152628,-0.15,-0.29,-0.58,0.001090830782496456,0.015271630954950384,-0.018544123302439753,0.007412795647849342,0.04817825760930105,1.3603186009616821,0,0,0,0,0,0,1500,1500,1500,1500,1500,1500
1748737849.3992307,-0.15,-0.29,-0.58,0.001090830782496456,0.015271630954950384,-0.018544123302439753,0.007412795647849342,0.04817825760930105,1.3603186009616821,0,0,0,0,0,0,1500,1500,1500,1500,1500,1500
1748737849.4983099,0.13,0.67,-0.08,-0.009817477042468103,-0.006544984694978736,0.01090830782496456,0.0074153690135493975,0.0481797569157721,1.3604887166853665,0,0,0,0,0,0,1500,1500,1500,1500,1500,1500
1748737849.5981112,0.18,-0.76,0.56,0.01090830782496456,-0.008726646259971648,-0.00545415391248228,0.007423514274769819,0.04817760865578749,1.360796893869321,0,0,0,0,0,0,1500,1500,1500,1500,1500,1500
1748737849.6982565,0.18,-0.76,0.56,0.01090830782496456,-0.008726646259971648,-0.00545415391248228,0.007423514274769819,0.04817760865578749,1.360796893869321,0,0,0,0,0,0,1500,1500,1500,1500,1500,1500
1748737849.7979863,-0.21,-0.79,0.4,-0.016362461737446838,0.008726646259971648,0.003272492347489368,0.007051900309553425,0.04848293234239071,1.3611029918470363,0,0,0,0,0,0,1500,1500,1500,1500,1500,1500
1748737849.8808413,-0.21,-0.79,0.4,-0.016362461737446838,0.008726646259971648,0.003272492347489368,0.007051900309553425,0.04848293234239071,1.3611029918470363,0,0,0,0,0,0,1500,1500,1500,1500,1500,1500
1748737849.9817421,0.24,-0.11,0.54,0.01090830782496456,-0.004363323129985824,-0.003272492347489368,0.007146841013550713,0.048406063926893714,1.3611035275447882,0,0,0,0,0,0,1500,1500,1500,1500,1500,1500
1748737850.0828233,-0.21,0.63,-0.65,-0.006544984694978736,0.009817477042468103,-0.00545415391248228,0.007255745004525581,0.04815842351051278,1.3609457574348984,0,0,0,0,0,0,1500,1500,1500,1500,1500,1500
1748737850.1819932,-0.21,0.63,-0.65,-0.006544984694978736,0.009817477042468103,-0.00545415391248228,0.007255745004525581,0.04815842351051278,1.3609457574348984,0,0,0,0,0,0,1500,1500,1500,1500,1500,1500
1748737850.2810907,0.32,-0.12,0.62,0.002181661564992912,-0.008726646259971648,0.01090830782496456,0.007262383543066267,0.04815887106424398,1.3612700199777246,0,0,0,0,0,0,1500,1500,1500,1500,1500,1500
1748737850.3647428,-0.26,-0.6,0.03,0.007635815477475192,0.0,-0.007635815477475192,0.007072504255128075,0.04831262126128995,1.3612689525938813,0,0,0,0,0,0,1500,1500,1500,1500,1500,1500
1748737850.4646442,-0.26,-0.6,0.03,0.007635815477475192,0.0,-0.007635815477475192,0.007072504255128075,0.04831262126128995,1.3612689525938813,0,0,0,0,0,0,1500,1500,1500,1500,1500,1500
1748737850.5650399,0.08,0.71,-0.3,-0.013089969389957472,0.002181661564992912,0.013089969389957472,0.006730341858381912,0.04827389269347329,1.3612425234727668,0,0,0,0,0,0,1500,1500,1500,1500,1500,1500
1748737850.6484354,0.08,0.71,-0.3,-0.013089969389957472,0.002181661564992912,0.013089969389957472,0.006730341858381912,0.04827389269347329,1.3612425234727668,0,0,0,0,0,0,1500,1500,1500,1500,1500,1500
1748737850.7528367,0.07,-0.35000000000000003,0.65,0.014180800172453928,-0.007635815477475192,-0.009817477042468103,0.006938232306718192,0.0479483130167259,1.361239447230945,0,0,0,0,0,0,1500,1500,1500,1500,1500,1500
1748737850.8476446,0.07,-0.35000000000000003,0.65,0.014180800172453928,-0.007635815477475192,-0.009817477042468103,0.006938232306718192,0.0479483130167259,1.361239447230945,0,0,0,0,0,0,1500,1500,1500,1500,1500,1500
1748737850.931755,-0.07,0.59,-0.46,-0.008726646259971648,0.015271630954950384,-0.004363323129985824,0.007223744515188481,0.04850102872331827,1.361108252329805,0,0,0,0,0,0,1500,1500,1500,1500,1500,1500
1748737851.0329988,0.44,-0.43,0.47000000000000003,0.001090830782496456,-0.004363323129985824,0.01090830782496456,0.007033862203256751,0.048654766550098066,1.3611071778471897,0,0,0,0,0,0,1500,1500,1500,1500,1500,1500
1748737851.1148462,0.44,-0.43,0.47000000000000003,0.001090830782496456,-0.004363323129985824,0.01090830782496456,0.007033862203256751,0.048654766550098066,1.3611071778471897,0,0,0,0,0,0,1500,1500,1500,1500,1500,1500
1748737851.2148292,-0.32,-0.33,-0.44,0.00545415391248228,-0.002181661564992912,-0.008726646259971648,0.007197472847192384,0.048674981556088064,1.3608042072989,0,0,0,0,0,0,1500,1500,1500,1500,1500,1500
1748737851.3147593,-0.32,-0.33,-0.44,0.00545415391248228,-0.002181661564992912,-0.008726646259971648,0.007197472847192384,0.048674981556088064,1.3608042072989,0,0,0,0,0,0,1500,1500,1500,1500,1500,1500
1748737851.3987722,0.26,0.58,-0.19,-0.01090830782496456,0.003272492347489368,0.01090830782496456,0.00683313166193115,0.04880901277132828,1.3606277250423064,0,0,0,0,0,0,1500,1500,1500,1500,1500,1500
1748737851.4977708,0.4,0.31,0.12,0.014180800172453928,0.0,-0.009817477042468103,0.007140661739402656,0.04918894173901504,1.360646741314071,0,0,0,0,0,0,1500,1500,1500,1500,1500,1500
1748737851.5986865,0.4,0.31,0.12,0.014180800172453928,0.0,-0.009817477042468103,0.007140661739402656,0.04918894173901504,1.360646741314071,0,0,0,0,0,0,1500,1500,1500,1500,1500,1500
1748737851.697815,0.42,0.02,0.47000000000000003,0.009817477042468103,-0.018544123302439753,0.002181661564992912,0.006526005828177089,0.04921239474509991,1.360476201519003,0,0,0,0,0,0,1500,1500,1500,1500,1500,1500
1748737851.7977076,0.42,0.02,0.47000000000000003,0.009817477042468103,-0.018544123302439753,0.002181661564992912,0.006526005828177089,0.04921239474509991,1.360476201519003,0,0,0,0,0,0,1500,1500,1500,1500,1500,1500
1748737851.8822255,0.03,-0.38,-0.18,-0.020725784867432664,0.0,-0.011999138607461015,0.006003747229168043,0.04915730558636179,1.360136254069897,0,0,0,0,0,0,1500,1500,1500,1500,1500,1500
1748737851.9821687,0.06,0.07,-0.02,0.00545415391248228,-0.003272492347489368,0.001090830782496456,0.006024426907613788,0.048987078417739,1.3603022402581437,0,0,0,0,0,0,1500,1500,1500,1500,1500,1500
1748737852.0816674,0.06,0.07,-0.02,0.00545415391248228,-0.003272492347489368,0.001090830782496456,0.006024426907613788,0.048987078417739,1.3603022402581437,0,0,0,0,0,0,1500,1500,1500,1500,1500,1500
1748737852.16519,0.04,-0.06,0.0,0.0,-0.001090830782496456,-0.001090830782496456,0.006024426907613788,0.048987078417739,1.3603022402581437,0,0,0,0,0,0,1500,1500,1500,1500,1500,1500
1748737852.2653015,0.04,-0.06,0.0,0.0,-0.001090830782496456,-0.001090830782496456,0.006024426907613788,0.048987078417739,1.3603022402581437,0,0,0,0,0,0,1500,1500,1500,1500,1500,1500
1748737852.3639722,0.02,0.02,-0.01,-0.003272492347489368,0.0,0.001090830782496456,0.00604254040733521,0.04881524888438905,1.3602981098551836,0,0,0,0,0,0,1500,1500,1500,1500,1500,1500
1748737852.4644032,0.03,0.03,0.0,-0.001090830782496456,0.1407171709420428,0.0,0.00604254040733521,0.04881524888438905,1.3602981098551836,0,0,0,0,0,0,1500,1500,1500,1500,1500,1500
1748737852.5650196,0.03,0.03,0.0,-0.001090830782496456,0.1407171709420428,0.0,0.00604254040733521,0.04881524888438905,1.3602981098551836,0,0,0,0,0,0,1500,1500,1500,1500,1500,1500
1748737852.6485195,0.03,-0.01,-0.02,0.0,-0.001090830782496456,-0.003272492347489368,0.005965678874448847,0.048720252798550495,1.3602934594591929,0,0,0,0,0,0,1500,1500,1500,1500,1500,1500
1748737852.7481477,0.03,-0.01,-0.02,0.0,-0.001090830782496456,-0.003272492347489368,0.005965678874448847,0.048720252798550495,1.3602934594591929,0,0,0,0,0,0,1500,1500,1500,1500,1500,1500
1748737852.8476303,0.04,0.0,-0.04,0.001090830782496456,0.001090830782496456,-0.001090830782496456,0.006060653783422628,0.048643420793462115,1.3602939909668732,0,0,0,0,0,0,1500,1500,1500,1500,1500,1500
1748737852.9312117,0.04,-0.02,-0.05,0.002181661564992912,0.001090830782496456,-0.001090830782496456,0.006060653783422628,0.048643420793462115,1.3602939909668732,0,0,0,0,0,0,1500,1500,1500,1500,1500,1500
1748737853.031425,0.04,-0.02,-0.05,0.002181661564992912,0.001090830782496456,-0.001090830782496456,0.006060653783422628,0.048643420793462115,1.3602939909668732,0,0,0,0,0,0,1500,1500,1500,1500,1500,1500
1748737853.1150668,0.01,-0.02,0.0,0.0,0.002181661564992912,0.0,0.006060653783422628,0.048643420793462115,1.3602939909668732,0,0,0,0,0,0,1500,1500,1500,1500,1500,1500
1748737853.2149029,0.01,-0.02,0.0,0.0,0.002181661564992912,0.0,0.006060653783422628,0.048643420793462115,1.3602939909668732,0,0,0,0,0,0,1500,1500,1500,1500,1500,1500
1748737853.3141809,0.02,-0.02,0.0,0.0,-0.003272492347489368,0.001090830782496456,0.006060653783422628,0.048643420793462115,1.3602939909668732,0,0,0,0,0,0,1500,1500,1500,1500,1500,1500
1748737853.3979907,0.02,-0.01,0.0,-0.001090830782496456,0.004363323129985824,0.0,0.006060653783422628,0.048643420793462115,1.3602939909668732,0,0,0,0,0,0,1500,1500,1500,1500,1500,1500
1748737853.4978392,0.02,-0.01,0.0,-0.001090830782496456,0.004363323129985824,0.0,0.006060653783422628,0.048643420793462115,1.3602939909668732,0,0,0,0,0,0,1500,1500,1500,1500,1500,1500
1748737853.597942,0.01,0.0,-0.03,0.002181661564992912,0.0,-0.001090830782496456,0.006060653783422628,0.048643420793462115,1.3602939909668732,0,0,0,0,0,0,1500,1500,1500,1500,1500,1500
1748737853.6985476,0.01,0.0,-0.03,0.002181661564992912,0.0,-0.001090830782496456,0.006060653783422628,0.048643420793462115,1.3602939909668732,0,0,0,0,0,0,1500,1500,1500,1500,1500,1500
1748737853.7978122,0.03,0.01,-0.02,-0.002181661564992912,0.001090830782496456,0.001090830782496456,0.006060653783422628,0.048643420793462115,1.3602939909668732,0,0,0,0,0,0,1500,1500,1500,1500,1500,1500
1748737853.881594,0.02,0.0,-0.06,-0.003272492347489368,-0.001090830782496456,-0.001090830782496456,0.006060653783422628,0.048643420793462115,1.3602939909668732,0,0,0,0,0,0,1500,1500,1500,1500,1500,1500
1748737853.982398,0.02,0.0,-0.06,-0.003272492347489368,-0.001090830782496456,-0.001090830782496456,0.006060653783422628,0.048643420793462115,1.3602939909668732,0,0,0,0,0,0,1500,1500,1500,1500,1500,1500
1748737854.0815237,0.03,-0.03,-0.04,-0.002181661564992912,-0.002181661564992912,0.002181661564992912,0.006060653783422628,0.048643420793462115,1.3602939909668732,0,0,0,0,0,0,1500,1500,1500,1500,1500,1500
1748737854.1638296,0.03,-0.03,-0.04,-0.002181661564992912,-0.002181661564992912,0.002181661564992912,0.006060653783422628,0.048643420793462115,1.3602939909668732,0,0,0,0,0,0,1500,1500,1500,1500,1500,1500
1748737854.264985,0.05,-0.01,-0.01,0.001090830782496456,-0.003272492347489368,0.001090830782496456,0.006060653783422628,0.048643420793462115,1.3602939909668732,0,0,0,0,0,0,1500,1500,1500,1500,1500,1500
1748737854.3646493,0.02,0.0,-0.03,0.0,0.0,0.002181661564992912,0.006060653783422628,0.048643420793462115,1.3602939909668732,0,0,0,0,0,0,1500,1500,1500,1500,1500,1500
1748737854.4642942,0.02,0.0,-0.03,0.0,0.0,0.002181661564992912,0.006060653783422628,0.048643420793462115,1.3602939909668732,0,0,0,0,0,0,1500,1500,1500,1500,1500,1500
1748737854.5659287,0.03,0.0,0.02,0.0,0.0,0.002181661564992912,0.006060653783422628,0.048643420793462115,1.3602939909668732,0,0,0,0,0,0,1500,1500,1500,1500,1500,1500
1748737854.647943,0.03,0.0,0.02,0.0,0.0,0.002181661564992912,0.006060653783422628,0.048643420793462115,1.3602939909668732,0,0,0,0,0,0,1500,1500,1500,1500,1500,1500
1748737854.7480261,0.04,0.01,-0.01,-0.002181661564992912,0.002181661564992912,0.0,0.006060653783422628,0.048643420793462115,1.3602939909668732,0,0,0,0,0,0,1500,1500,1500,1500,1500,1500
1748737854.8485363,0.03,-0.01,-0.01,-0.001090830782496456,-0.003272492347489368,-0.001090830782496456,0.006060653783422628,0.048643420793462115,1.3602939909668732,0,0,0,0,0,0,1500,1500,1500,1500,1500,1500
1748737854.9479933,0.03,-0.01,-0.01,-0.001090830782496456,-0.003272492347489368,-0.001090830782496456,0.006060653783422628,0.048643420793462115,1.3602939909668732,0,0,0,0,0,0,1500,1500,1500,1500,1500,1500
1748737855.0479138,0.03,-0.01,-0.04,0.001090830782496456,0.001090830782496456,0.001090830782496456,0.006060653783422628,0.048643420793462115,1.3602939909668732,0,0,0,0,0,0,1500,1500,1500,1500,1500,1500
1748737855.1313477,0.03,-0.01,-0.04,0.001090830782496456,0.001090830782496456,0.001090830782496456,0.006060653783422628,0.048643420793462115,1.3602939909668732,0,0,0,0,0,0,1500,1500,1500,1500,1500,1500
1748737855.2314472,0.03,-0.02,0.0,0.0,-0.001090830782496456,-0.002181661564992912,0.006060653783422628,0.048643420793462115,1.3602939909668732,0,0,0,0,0,0,1500,1500,1500,1500,1500,1500
1748737855.3309138,0.04,-0.01,-0.06,-0.002181661564992912,-0.001090830782496456,-0.001090830782496456,0.006060653783422628,0.048643420793462115,1.3602939909668732,0,0,0,0,0,0,1500,1500,1500,1500,1500,1500
1748737855.4148617,0.04,-0.01,-0.06,-0.002181661564992912,-0.001090830782496456,-0.001090830782496456,0.006060653783422628,0.048643420793462115,1.3602939909668732,0,0,0,0,0,0,1500,1500,1500,1500,1500,1500
1748737855.5148306,-0.01,0.05,-0.06,0.002181661564992912,0.0,-0.002181661564992912,0.006060653783422628,0.048643420793462115,1.3602939909668732,0,0,0,0,0,0,1500,1500,1500,1500,1500,1500
1748737855.6104019,0.1,-0.13,-0.01,-0.011999138607461015,0.001090830782496456,0.001090830782496456,0.0058888181421264015,0.048625257152722166,1.360288823677201,0,0,0,0,0,0,1500,1500,1500,1500,1500,1500
1748737855.698212,0.1,-0.13,-0.01,-0.011999138607461015,0.001090830782496456,0.001090830782496456,0.0058888181421264015,0.048625257152722166,1.360288823677201,0,0,0,0,0,0,1500,1500,1500,1500,1500,1500
1748737855.7977524,0.01,0.05,-0.04,0.007635815477475192,0.0,-0.002181661564992912,0.005622007127734327,0.048683925397193115,1.360283145680269,0,0,0,0,0,0,1500,1500,1500,1500,1500,1500
1748737855.8815758,0.01,0.05,-0.04,0.007635815477475192,0.0,-0.002181661564992912,0.005622007127734327,0.048683925397193115,1.360283145680269,0,0,0,0,0,0,1500,1500,1500,1500,1500,1500
1748737855.981029,0.01,-0.12,0.0,-0.017453292519943295,-0.006544984694978736,-0.002181661564992912,0.005011525112546623,0.04870626636844142,1.3602672840484318,0,0,0,0,0,0,1500,1500,1500,1500,1500,1500
1748737856.0805814,0.01,-0.12,0.0,-0.017453292519943295,-0.006544984694978736,-0.002181661564992912,0.005011525112546623,0.04870626636844142,1.3602672840484318,0,0,0,0,0,0,1500,1500,1500,1500,1500,1500
1748737856.1644661,0.06,0.0,-0.02,-0.018544123302439753,-0.00545415391248228,-0.002181661564992912,0.004839690847734052,0.048688102672105334,1.3602622083957483,0,0,0,0,0,0,1500,1500,1500,1500,1500,1500
1748737856.264971,0.01,0.1,-0.02,0.011999138607461015,0.004363323129985824,-0.001090830782496456,0.005106503030942961,0.04862943441570052,1.3602678078277908,0,0,0,0,0,0,1500,1500,1500,1500,1500,1500
1748737856.3649917,0.01,0.1,-0.02,0.011999138607461015,0.004363323129985824,-0.001090830782496456,0.005106503030942961,0.04862943441570052,1.3602678078277908,0,0,0,0,0,0,1500,1500,1500,1500,1500,1500
1748737856.4643598,0.17,0.27,-0.05,-0.003272492347489368,-0.001090830782496456,0.004363323129985824,0.005278337267082465,0.048647598060133634,1.3602729027362717,0,0,0,0,0,0,1500,1500,1500,1500,1500,1500
1748737856.565158,0.17,0.27,-0.05,-0.003272492347489368,-0.001090830782496456,0.004363323129985824,0.005278337267082465,0.048647598060133634,1.3602729027362717,0,0,0,0,0,0,1500,1500,1500,1500,1500,1500
1748737856.648139,-0.15,0.02,-0.09,-0.004363323129985824,0.002181661564992912,-0.004363323129985824,0.005106503030942961,0.04862943441570052,1.3602678078277908,0,0,0,0,0,0,1500,1500,1500,1500,1500,1500
1748737856.7475953,0.04,0.06,-0.07,0.003272492347489368,0.004363323129985824,-0.003272492347489368,0.004916546557859743,0.04878309860893132,1.360266760266505,0,0,0,0,0,0,1500,1500,1500,1500,1500,1500
1748737856.847632,0.04,0.06,-0.07,0.003272492347489368,0.004363323129985824,-0.003272492347489368,0.004916546557859743,0.04878309860893132,1.360266760266505,0,0,0,0,0,0,1500,1500,1500,1500,1500,1500
1748737856.947612,0.06,-0.11,0.0,-0.006544984694978736,-0.002181661564992912,-0.002181661564992912,0.004916546557859743,0.04878309860893132,1.360266760266505,0,0,0,0,0,0,1500,1500,1500,1500,1500,1500
1748737857.0477366,-0.14,0.6,-0.08,0.02945243112740431,0.009817477042468103,-0.006544984694978736,0.005260217419624806,0.048819426186066474,1.3602769616069872,0,0,0,0,0,0,1500,1500,1500,1500,1500,1500
1748737857.1315625,-0.14,0.6,-0.08,0.02945243112740431,0.009817477042468103,-0.006544984694978736,0.005260217419624806,0.048819426186066474,1.3602769616069872,0,0,0,0,0,0,1500,1500,1500,1500,1500,1500
1748737857.2313907,0.18,-0.16,0.0,0.009817477042468103,0.001090830782496456,0.003272492347489368,0.004835550917814255,0.04868896050545146,1.3601081472895198,0,0,0,0,0,0,1500,1500,1500,1500,1500,1500
1748737857.3315077,0.18,-0.16,0.0,0.009817477042468103,0.001090830782496456,0.003272492347489368,0.004835550917814255,0.04868896050545146,1.3601081472895198,0,0,0,0,0,0,1500,1500,1500,1500,1500,1500
1748737857.4145703,-0.26,-0.13,0.17,0.04145156973486533,-0.01090830782496456,-0.00545415391248228,0.005237935063936583,0.04899215089825948,1.3601269693592772,0,0,0,0,0,0,1500,1500,1500,1500,1500,1500
1748737857.5141468,0.71,0.28,0.66,-0.06654067773228381,-0.32179508083645453,0.04799655442984406,0.01828146241197741,0.0154991320273266,1.366370348566292,0,0,0,0,0,0,1500,1500,1500,1500,1500,1500
1748737857.6150053,0.71,0.28,0.66,-0.06654067773228381,-0.32179508083645453,0.04799655442984406,0.01828146241197741,0.0154991320273266,1.366370348566292,0,0,0,0,0,0,1500,1500,1500,1500,1500,1500
1748737857.7150893,-0.09,-0.32,0.27,-0.061086523819801536,0.43960480534607177,-0.08072147790473774,-0.01231722845606424,0.022825837344496565,1.3595093819022013,0,0,0,0,0,0,1500,1500,1500,1500,1500,1500
1748737857.81476,-0.09,-0.32,0.27,-0.061086523819801536,0.43960480534607177,-0.08072147790473774,-0.01231722845606424,0.022825837344496565,1.3595093819022013,0,0,0,0,0,0,1500,1500,1500,1500,1500,1500
1748737857.8987195,-0.13,0.32,-0.51,0.34143003492139073,0.3097959422289935,-0.11999138607461016,0.03112527950807985,0.09159793230521587,1.3477780439863027,0,0,0,0,0,0,1500,1500,1500,1500,1500,1500
1748737857.999342,0.39,-0.18,-0.05,-0.17889624832941878,-0.26398104936414235,-0.24870941840919197,0.04234811382950341,0.08496309748076246,1.3207164113752607,0,0,0,0,0,0,1500,1500,1500,1500,1500,1500
1748737858.098256,0.39,-0.18,-0.05,-0.17889624832941878,-0.26398104936414235,-0.24870941840919197,0.04234811382950341,0.08496309748076246,1.3207164113752607,0,0,0,0,0,0,1500,1500,1500,1500,1500,1500
1748737858.1983435,-0.02,-0.2,0.23,-0.1265363707695889,0.02181661564992912,-0.2628902185816459,0.012230829855095085,0.05888683403257563,1.276862663073499,0,0,0,0,0,0,1500,1500,1500,1500,1500,1500
1748737858.29758,-0.43,-0.3,-0.37,0.1189005552921137,0.17671458676442586,-0.013089969389957472,0.0025828981702893383,0.08320404413032677,1.2550852733743951,0,0,0,0,0,0,1500,1500,1500,1500,1500,1500
1748737858.3814209,-0.43,-0.3,-0.37,0.1189005552921137,0.17671458676442586,-0.013089969389957472,0.0025828981702893383,0.08320404413032677,1.2550852733743951,0,0,0,0,0,0,1500,1500,1500,1500,1500,1500
1748737858.481374,-0.26,-0.12,-0.3,-0.2083486794568231,0.10253809355466686,0.16580627893946132,-0.0016196970394330508,0.10555874993637533,1.266122117478226,0,0,0,0,0,0,1500,1500,1500,1500,1500,1500
1748737858.5814004,-0.26,-0.12,-0.3,-0.2083486794568231,0.10253809355466686,0.16580627893946132,-0.0016196970394330508,0.10555874993637533,1.266122117478226,0,0,0,0,0,0,1500,1500,1500,1500,1500,1500
1748737858.6643958,-0.19,-0.11,-0.08,-0.19962203319685143,0.22907446432425577,0.17889624832941878,-0.032255315089208356,0.13499704688419573,1.2955756311250157,0,0,0,0,0,0,1500,1500,1500,1500,1500,1500
1748737858.7643905,-0.19,-0.11,-0.08,-0.19962203319685143,0.22907446432425577,0.17889624832941878,-0.032255315089208356,0.13499704688419573,1.2955756311250157,0,0,0,0,0,0,1500,1500,1500,1500,1500,1500
1748737858.864495,-0.12,0.28,-0.4,-0.03490658503988659,0.05781403147231216,0.13744467859455345,-0.037292752863669405,0.16460428999083818,1.3241321330083906,0,0,0,0,0,0,1500,1500,1500,1500,1500,1500
1748737858.9642615,0.04,0.37,0.19,-0.06217735460229799,-0.10035643198967395,-0.07744898555724837,-0.0420782883381768,0.1591925659297906,1.3298050193928692,0,0,0,0,0,0,1500,1500,1500,1500,1500,1500
1748737859.0643067,0.04,0.37,0.19,-0.06217735460229799,-0.10035643198967395,-0.07744898555724837,-0.0420782883381768,0.1591925659297906,1.3298050193928692,0,0,0,0,0,0,1500,1500,1500,1500,1500,1500
1748737859.148249,0.16,0.09,0.11,0.06435901616729091,0.06544984694978735,-0.2301652951067522,-0.03737549234473681,0.16800150856117435,1.3047762684634645,0,0,0,0,0,0,1500,1500,1500,1500,1500,1500
1748737859.24831,0.11,0.13,0.01,0.1538071403320003,0.02181661564992912,-0.14944381720201447,-0.02715189708913226,0.16485990791404515,1.2729755520605892,0,0,0,0,0,0,1500,1500,1500,1500,1500,1500
1748737859.3475683,0.11,0.13,0.01,0.1538071403320003,0.02181661564992912,-0.14944381720201447,-0.02715189708913226,0.16485990791404515,1.2729755520605892,0,0,0,0,0,0,1500,1500,1500,1500,1500,1500
1748737859.4318368,0.2,-0.06,0.15,0.061086523819801536,-0.136353847812057,-0.12980886311707826,-0.019127306557239314,0.15226397910198688,1.2526101625987371,0,0,0,0,0,0,1500,1500,1500,1500,1500,1500
1748737859.5311208,0.2,-0.06,0.15,0.061086523819801536,-0.136353847812057,-0.12980886311707826,-0.019127306557239314,0.15226397910198688,1.2526101625987371,0,0,0,0,0,0,1500,1500,1500,1500,1500,1500
1748737859.6306887,0.19,-0.31,-0.1,0.001090830782496456,0.04799655442984406,-0.06872233929727672,-0.023132133252571765,0.1429488999638755,1.2361237606771907,0,0,0,0,0,0,1500,1500,1500,1500,1500,1500
1748737859.7310169,-0.05,-0.11,-0.23,0.10362892433716332,0.01090830782496456,0.04363323129985824,-0.012460450680169776,0.15011004775410658,1.2342911602310351,0,0,0,0,0,0,1500,1500,1500,1500,1500,1500
1748737859.8306923,-0.05,-0.11,-0.23,0.10362892433716332,0.01090830782496456,0.04363323129985824,-0.012460450680169776,0.15011004775410658,1.2342911602310351,0,0,0,0,0,0,1500,1500,1500,1500,1500,1500
1748737859.9147468,0.2,0.1,-0.13,-0.13853550937704992,-0.13744467859455345,0.12871803233458182,-0.0069857369390792946,0.13336931955871448,1.249862383313085,0,0,0,0,0,0,1500,1500,1500,1500,1500,1500
1748737860.015049,0.2,0.1,-0.13,-0.13853550937704992,-0.13744467859455345,0.12871803233458182,-0.0069857369390792946,0.13336931955871448,1.249862383313085,0,0,0,0,0,0,1500,1500,1500,1500,1500,1500
1748737860.114412,-0.01,-0.21,-0.1,-0.10253809355466686,0.004363323129985824,0.16689710972195776,-0.033790474030019536,0.12438187322152366,1.271925280440275,0,0,0,0,0,0,1500,1500,1500,1500,1500,1500
1748737860.2148418,-0.04,0.28,0.0,0.06435901616729091,0.031634092692397225,0.14508049407202864,-0.025199910961295747,0.12715865165870893,1.2973953445581092,0,0,0,0,0,0,1500,1500,1500,1500,1500,1500
1748737860.3145983,-0.04,0.28,0.0,0.06435901616729091,0.031634092692397225,0.14508049407202864,-0.025199910961295747,0.12715865165870893,1.2973953445581092,0,0,0,0,0,0,1500,1500,1500,1500,1500,1500
1748737860.398428,-0.17,-0.04,-0.09,-0.06654067773228381,-0.00545415391248228,-0.013089969389957472,-0.02865593520228826,0.13310233854597983,1.3060216198578674,0,0,0,0,0,0,1500,1500,1500,1500,1500,1500
1748737860.4975348,0.08,0.18,0.1,0.06654067773228381,0.019634954084936207,-0.1090830782496456,-0.02284488761442661,0.13149963759289293,1.2972331018769714,0,0,0,0,0,0,1500,1500,1500,1500,1500,1500
1748737860.598028,0.08,0.18,0.1,0.06654067773228381,0.019634954084936207,-0.1090830782496456,-0.02284488761442661,0.13149963759289293,1.2972331018769714,0,0,0,0,0,0,1500,1500,1500,1500,1500,1500
1748737860.6977832,0.02,-0.02,0.09,0.08399397025222712,0.08072147790473774,-0.14835298641951802,-0.0182047224079599,0.1414099207624225,1.2738798990221498,0,0,0,0,0,0,1500,1500,1500,1500,1500,1500
1748737860.7978778,0.02,-0.02,0.09,0.08399397025222712,0.08072147790473774,-0.14835298641951802,-0.0182047224079599,0.1414099207624225,1.2738798990221498,0,0,0,0,0,0,1500,1500,1500,1500,1500,1500
1748737860.8806744,0.0,-0.05,0.0,0.02945243112740431,-0.001090830782496456,-0.032724923474893676,-0.00935992276615295,0.14921639670120043,1.25935240521789,0,0,0,0,0,0,1500,1500,1500,1500,1500,1500
1748737860.976244,0.1,-0.01,0.08,-0.04254240051736178,-0.06326818538479445,0.0545415391248228,-0.013833646021401864,0.14254898292170537,1.2629891996083904,0,0,0,0,0,0,1500,1500,1500,1500,1500,1500
1748737861.0804136,0.1,-0.01,0.08,-0.04254240051736178,-0.06326818538479445,0.0545415391248228,-0.013833646021401864,0.14254898292170537,1.2629891996083904,0,0,0,0,0,0,1500,1500,1500,1500,1500,1500
1748737861.1647947,0.07,0.02,0.11,-0.0272707695624114,-0.003272492347489368,0.02181661564992912,-0.017704610068170566,0.135630504005553,1.269871278858917,0,0,0,0,0,0,1500,1500,1500,1500,1500,1500
1748737861.2643006,0.07,0.02,0.11,-0.0272707695624114,-0.003272492347489368,0.02181661564992912,-0.017704610068170566,0.135630504005553,1.269871278858917,0,0,0,0,0,0,1500,1500,1500,1500,1500,1500
1748737861.3645196,0.0,-0.01,-0.09,0.026179938779914945,0.039269908169872414,0.015271630954950384,-0.018113225429459753,0.1400300983160828,1.2723166773211958,0,0,0,0,0,0,1500,1500,1500,1500,1500,1500
1748737861.4650645,-0.01,0.0,-0.06,-0.02399827721492203,-0.017453292519943295,-0.01090830782496456,-0.01449185695640431,0.14145192182039326,1.2721668762913136,0,0,0,0,0,0,1500,1500,1500,1500,1500,1500
1748737861.5647643,-0.01,0.0,-0.06,-0.02399827721492203,-0.017453292519943295,-0.01090830782496456,-0.01449185695640431,0.14145192182039326,1.2721668762913136,0,0,0,0,0,0,1500,1500,1500,1500,1500,1500
1748737861.647733,0.07,-0.01,0.03,-0.05345070834232634,-0.044724062082354694,-0.04908738521234052,-0.022462913979810862,0.1349163986346568,1.2679028118532198,0,0,0,0,0,0,1500,1500,1500,1500,1500,1500
1748737861.7478683,0.07,-0.01,0.03,-0.05345070834232634,-0.044724062082354694,-0.04908738521234052,-0.022462913979810862,0.1349163986346568,1.2679028118532198,0,0,0,0,0,0,1500,1500,1500,1500,1500,1500
1748737861.8477752,0.02,0.0,-0.13,0.10471975511965978,-0.0545415391248228,-0.07635815477475191,-0.020036868566198348,0.1288013043511357,1.2585391846177711,0,0,0,0,0,0,1500,1500,1500,1500,1500,1500
1748737861.9480686,0.15,0.14,-0.07,-0.0916297857297023,-0.08072147790473774,-0.11671889372712078,-0.018334834529221605,0.11532749287423517,1.2439886166996281,0,0,0,0,0,0,1500,1500,1500,1500,1500,1500
1748737862.049158,0.15,0.14,-0.07,-0.0916297857297023,-0.08072147790473774,-0.11671889372712078,-0.018334834529221605,0.11532749287423517,1.2439886166996281,0,0,0,0,0,0,1500,1500,1500,1500,1500,1500
1748737862.1312413,0.04,-0.14,0.05,0.05235987755982989,0.00545415391248228,-0.020725784867432664,-0.02829779447071359,0.10748833882798167,1.23068005944017,0,0,0,0,0,0,1500,1500,1500,1500,1500,1500
1748737862.231922,0.04,-0.14,0.05,0.05235987755982989,0.00545415391248228,-0.020725784867432664,-0.02829779447071359,0.10748833882798167,1.23068005944017,0,0,0,0,0,0,1500,1500,1500,1500,1500,1500
1748737862.3314335,-0.07,-0.04,-0.09,-0.008726646259971648,0.04799655442984406,0.00545415391248228,-0.020413742885004492,0.11313191435578751,1.2305842212478626,0,0,0,0,0,0,1500,1500,1500,1500,1500,1500
1748737862.4137077,0.01,-0.01,-0.09,0.009817477042468103,-0.009817477042468103,0.02181661564992912,-0.020247864002730754,0.11597141167225057,1.2327896115661285,0,0,0,0,0,0,1500,1500,1500,1500,1500,1500
1748737862.5147665,0.01,-0.01,-0.09,0.009817477042468103,-0.009817477042468103,0.02181661564992912,-0.020247864002730754,0.11597141167225057,1.2327896115661285,0,0,0,0,0,0,1500,1500,1500,1500,1500,1500
1748737862.6145988,0.01,-0.01,-0.11,-0.04363323129985824,0.008726646259971648,0.08072147790473774,-0.022307352671868116,0.11580705208428477,1.2418318933655423,0,0,0,0,0,0,1500,1500,1500,1500,1500,1500
1748737862.7148135,0.0,0.02,0.04,-0.022907446432425576,0.004363323129985824,0.055632369907319255,-0.027511596731082964,0.11709411736019498,1.252014211231424,0,0,0,0,0,0,1500,1500,1500,1500,1500,1500
1748737862.8146837,0.0,0.02,0.04,-0.022907446432425576,0.004363323129985824,0.055632369907319255,-0.027511596731082964,0.11709411736019498,1.252014211231424,0,0,0,0,0,0,1500,1500,1500,1500,1500,1500
1748737862.8977618,0.09,0.0,0.1,-0.04363323129985824,0.032724923474893676,0.0545415391248228,-0.031127581679063248,0.11813858091031104,1.2586919002053734,0,0,0,0,0,0,1500,1500,1500,1500,1500,1500
1748737862.9976552,0.09,0.0,0.1,-0.04363323129985824,0.032724923474893676,0.0545415391248228,-0.031127581679063248,0.11813858091031104,1.2586919002053734,0,0,0,0,0,0,1500,1500,1500,1500,1500,1500
1748737863.0974858,0.03,0.0,-0.16,0.025089107997418487,0.02399827721492203,0.03490658503988659,-0.03296126810206444,0.12561499134872228,1.2674527775740665,0,0,0,0,0,0,1500,1500,1500,1500,1500,1500
1748737863.1980999,0.01,0.0,0.09,-0.002181661564992912,0.00545415391248228,-0.001090830782496456,-0.03069992083309973,0.12718555691122826,1.268216479717325,0,0,0,0,0,0,1500,1500,1500,1500,1500,1500
1748737863.297625,0.01,0.0,0.09,-0.002181661564992912,0.00545415391248228,-0.001090830782496456,-0.03069992083309973,0.12718555691122826,1.268216479717325,0,0,0,0,0,0,1500,1500,1500,1500,1500,1500
1748737863.3818352,0.07,0.04,-0.12,0.04799655442984406,0.02945243112740431,-0.013089969389957472,-0.02663681827747671,0.1294597703837223,1.267440458142573,0,0,0,0,0,0,1500,1500,1500,1500,1500,1500
1748737863.4815197,0.07,0.04,-0.12,0.04799655442984406,0.02945243112740431,-0.013089969389957472,-0.02663681827747671,0.1294597703837223,1.267440458142573,0,0,0,0,0,0,1500,1500,1500,1500,1500,1500
1748737863.5809824,0.01,0.0,-0.08,0.028361600344907856,0.022907446432425576,-0.001090830782496456,-0.020389384412125157,0.1323379592802557,1.2654801737288304,0,0,0,0,0,0,1500,1500,1500,1500,1500,1500
1748737863.6648848,0.01,0.0,-0.2,-0.006544984694978736,-0.002181661564992912,0.016362461737446838,-0.020691790876633503,0.1355293354820518,1.2669491029235096,0,0,0,0,0,0,1500,1500,1500,1500,1500,1500
1748737863.764476,0.01,0.0,-0.2,-0.006544984694978736,-0.002181661564992912,0.016362461737446838,-0.020691790876633503,0.1355293354820518,1.2669491029235096,0,0,0,0,0,0,1500,1500,1500,1500,1500,1500
1748737863.864321,0.02,0.0,-0.05,-0.017453292519943295,-0.0272707695624114,-0.015271630954950384,-0.021660161199045954,0.13276046252956417,1.2671029812507986,0,0,0,0,0,0,1500,1500,1500,1500,1500,1500
1748737863.963943,0.02,0.0,-0.05,-0.017453292519943295,-0.0272707695624114,-0.015271630954950384,-0.021660161199045954,0.13276046252956417,1.2671029812507986,0,0,0,0,0,0,1500,1500,1500,1500,1500,1500
1748737864.0643332,0.13,0.08,-0.09,-0.03381575425739013,-0.031634092692397225,-0.031634092692397225,-0.0250362623030907,0.1285606952542409,1.2644722161943556,0,0,0,0,0,0,1500,1500,1500,1500,1500,1500
1748737864.1476333,0.03,-0.04,-0.01,0.016362461737446838,0.008726646259971648,-0.031634092692397225,-0.027460203090716274,0.12606674583476055,1.25895442026609,0,0,0,0,0,0,1500,1500,1500,1500,1500,1500
1748737864.2476616,0.03,-0.04,-0.01,0.016362461737446838,0.008726646259971648,-0.031634092692397225,-0.027460203090716274,0.12606674583476055,1.25895442026609,0,0,0,0,0,0,1500,1500,1500,1500,1500,1500
1748737864.3483386,-0.03,0.01,-0.08,0.022907446432425576,-0.004363323129985824,-0.02399827721492203,-0.022775690973765705,0.12661641259534787,1.2542283537596268,0,0,0,0,0,0,1500,1500,1500,1500,1500,1500
1748737864.4477391,0.0,-0.05,0.04,-0.006544984694978736,-0.025089107997418487,0.00545415391248228,-0.02246950312481647,0.12420845675511379,1.252945721474711,0,0,0,0,0,0,1500,1500,1500,1500,1500,1500
1748737864.5480392,0.0,-0.05,0.04,-0.006544984694978736,-0.025089107997418487,0.00545415391248228,-0.02246950312481647,0.12420845675511379,1.252945721474711,0,0,0,0,0,0,1500,1500,1500,1500,1500,1500
1748737864.6319256,0.02,0.0,0.03,0.011999138607461015,0.002181661564992912,0.002181661564992912,-0.021638565227460153,0.12285227926089984,1.252946111992019,0,0,0,0,0,0,1500,1500,1500,1500,1500,1500
1748737864.7311273,0.02,0.0,0.03,0.011999138607461015,0.002181661564992912,0.002181661564992912,-0.021638565227460153,0.12285227926089984,1.252946111992019,0,0,0,0,0,0,1500,1500,1500,1500,1500,1500
1748737864.8317778,0.06,0.08,-0.08,0.0,-0.013089969389957472,-0.002181661564992912,-0.02114600652197582,0.12249743103487956,1.2529769646227584,0,0,0,0,0,0,1500,1500,1500,1500,1500,1500
1748737864.914604,0.08,-0.01,0.07,-0.016362461737446838,-0.015271630954950384,-0.018544123302439753,-0.023864255975983087,0.11969060466564291,1.2512180274722766,0,0,0,0,0,0,1500,1500,1500,1500,1500,1500
1748737865.0139022,0.08,-0.01,0.07,-0.016362461737446838,-0.015271630954950384,-0.018544123302439753,-0.023864255975983087,0.11969060466564291,1.2512180274722766,0,0,0,0,0,0,1500,1500,1500,1500,1500,1500
1748737865.113871,0.02,-0.01,-0.04,0.01090830782496456,0.02399827721492203,-0.015271630954950384,-0.024082858809868535,0.1214928010470299,1.2482614687297964,0,0,0,0,0,0,1500,1500,1500,1500,1500,1500
1748737865.2145884,0.02,-0.01,-0.04,0.01090830782496456,0.02399827721492203,-0.015271630954950384,-0.024082858809868535,0.1214928010470299,1.2482614687297964,0,0,0,0,0,0,1500,1500,1500,1500,1500,1500
1748737865.3145442,0.04,0.05,-0.06,0.02399827721492203,0.001090830782496456,-0.018544123302439753,-0.022310775106998717,0.12229861500686835,1.2450526571159997,0,0,0,0,0,0,1500,1500,1500,1500,1500,1500
1748737865.397685,0.06,0.0,0.02,0.022907446432425576,-0.009817477042468103,-0.017453292519943295,2.690473803378169,-1.5707963267948966,1.29092999962546,0,0,0,0,0,0,1500,1500,1500,1500,1500,1500
1748737865.4976158,0.06,0.0,0.02,0.022907446432425576,-0.009817477042468103,-0.017453292519943295,2.690473803378169,-1.5707963267948966,1.29092999962546,0,0,0,0,0,0,1500,1500,1500,1500,1500,1500
1748737865.5963683,0.04,0.0,0.05,-0.022907446432425576,0.006544984694978736,-0.02945243112740431,-0.02054197239785264,0.12171374793604743,1.2382197720545443,0,0,0,0,0,0,1500,1500,1500,1500,1500,1500
1748737865.6982627,0.04,0.0,0.05,-0.022907446432425576,0.006544984694978736,-0.02945243112740431,-0.02054197239785264,0.12171374793604743,1.2382197720545443,0,0,0,0,0,0,1500,1500,1500,1500,1500,1500
1748737865.7976468,-0.01,0.01,-0.07,-0.003272492347489368,-0.014180800172453928,-0.022907446432425576,-0.021501109201883428,0.12146573478760284,1.2348636087662546,0,0,0,0,0,0,1500,1500,1500,1500,1500,1500
1748737865.8806622,-0.03,0.2,-0.22,-0.10362892433716332,-0.06872233929727672,-0.03599741582238305,-0.02630507354884734,0.11458388971405536,1.230207843706346,0,0,0,0,0,0,1500,1500,1500,1500,1500,1500
1748737865.9816563,-0.03,0.2,-0.22,-0.10362892433716332,-0.06872233929727672,-0.03599741582238305,-0.02630507354884734,0.11458388971405536,1.230207843706346,0,0,0,0,0,0,1500,1500,1500,1500,1500,1500
1748737866.0814602,-0.08,-0.06,-0.04,-0.18653206380689397,-0.039269908169872414,-0.0719948316447661,-0.05011072923634072,0.10583560137900991,1.223043591848858,0,0,0,0,0,0,1500,1500,1500,1500,1500,1500
1748737866.1644273,-0.08,-0.06,-0.04,-0.18653206380689397,-0.039269908169872414,-0.0719948316447661,-0.05011072923634072,0.10583560137900991,1.223043591848858,0,0,0,0,0,0,1500,1500,1500,1500,1500,1500
1748737866.2650418,0.13,-0.02,-0.07,0.0545415391248228,0.02181661564992912,-0.13199052468207118,-0.05457811520751041,0.10100435218018812,1.207793889555579,0,0,0,0,0,0,1500,1500,1500,1500,1500,1500
1748737866.3645358,0.23,-0.3,0.13,-0.031634092692397225,0.1461713248545251,-0.08399397025222712,-0.05487948356260894,0.11159881080651009,1.1874321532007273,0,0,0,0,0,0,1500,1500,1500,1500,1500,1500
1748737866.464338,0.23,-0.3,0.13,-0.031634092692397225,0.1461713248545251,-0.08399397025222712,-0.05487948356260894,0.11159881080651009,1.1874321532007273,0,0,0,0,0,0,1500,1500,1500,1500,1500,1500
