time,ay,ax,az,gy,gx,gz,roll,pitch,yaw,cmd_fx,cmd_fy,cmd_fz,cmd_tx,cmd_ty,cmd_tz,pwm_1,pwm_2,pwm_3,pwm_4,pwm_5,pwm_6
1747544983.748385,0.0,0.0,0.0,0.0,0.0,0.0,0.0,0.0,0.0,0,0,0,0,0,0,1500,1500,1500,1500,1500,1500
1747544983.8428335,-0.39,0.0,0.05,0.0,-0.001090830782496456,0.0,-2.8267163698263973,-1.4750056816518575,2.7956853410631823,0,0,0,0,0,0,1500,1500,1500,1500,1500,1500
1747544983.9470885,-0.39,0.0,0.05,0.0,-0.001090830782496456,0.0,-2.8267163698263973,-1.4750056816518575,2.7956853410631823,0,0,0,0,0,0,1500,1500,1500,1500,1500,1500
1747544984.0444944,-0.42,0.0,0.08,0.002181661564992912,-0.002181661564992912,0.0,-2.8258186338316422,-1.4749777200110006,2.7948740335107987,0,0,0,0,0,0,1500,1500,1500,1500,1500,1500
1747544984.133427,-0.4,0.0,0.02,-0.004363323129985824,-0.001090830782496456,0.003272492347489368,-2.8250165461109145,-1.474977642134783,2.7939863489329517,0,0,0,0,0,0,1500,1500,1500,1500,1500,1500
1747544984.226992,-0.4,0.0,0.02,-0.004363323129985824,-0.001090830782496456,0.003272492347489368,-2.8250165461109145,-1.474977642134783,2.7939863489329517,0,0,0,0,0,0,1500,1500,1500,1500,1500,1500
1747544984.3272307,-0.41000000000000003,-0.01,0.01,-0.003272492347489368,-0.001090830782496456,0.001090830782496456,2.8165496558900984,-1.477564298771744,-1.6015244592714282,0,0,0,0,0,0,1500,1500,1500,1500,1500,1500
1747544984.4272995,-0.41000000000000003,-0.01,0.01,-0.003272492347489368,-0.001090830782496456,0.001090830782496456,2.8165496558900984,-1.477564298771744,-1.6015244592714282,0,0,0,0,0,0,1500,1500,1500,1500,1500,1500
1747544984.5109982,-0.37,0.0,0.03,0.002181661564992912,-0.001090830782496456,-0.001090830782496456,-2.8250165461109145,-1.474977642134783,2.7939863489329517,0,0,0,0,0,0,1500,1500,1500,1500,1500,1500
1747544984.6055532,-0.39,0.01,0.05,0.001090830782496456,-0.002181661564992912,0.0,-2.8250165461109145,-1.474977642134783,2.7939863489329517,0,0,0,0,0,0,1500,1500,1500,1500,1500,1500
1747544984.7103179,-0.39,0.01,0.05,0.001090830782496456,-0.002181661564992912,0.0,-2.8250165461109145,-1.474977642134783,2.7939863489329517,0,0,0,0,0,0,1500,1500,1500,1500,1500,1500
1747544984.8102918,-0.35000000000000003,0.0,0.06,-0.003272492347489368,-0.003272492347489368,0.001090830782496456,-2.8250165461109145,-1.474977642134783,2.7939863489329517,0,0,0,0,0,0,1500,1500,1500,1500,1500,1500
1747544984.9106324,-0.35000000000000003,0.0,0.06,-0.003272492347489368,-0.003272492347489368,0.001090830782496456,-2.8250165461109145,-1.474977642134783,2.7939863489329517,0,0,0,0,0,0,1500,1500,1500,1500,1500,1500
1747544984.9942255,-0.39,-0.03,0.02,-0.001090830782496456,-0.001090830782496456,0.0,-2.8250165461109145,-1.474977642134783,2.7939863489329517,0,0,0,0,0,0,1500,1500,1500,1500,1500,1500
1747544985.0895863,-0.36,0.0,0.01,0.0,0.006544984694978736,0.0,-2.8250165461109145,-1.474977642134783,2.7939863489329517,0,0,0,0,0,0,1500,1500,1500,1500,1500,1500
1747544985.193836,-0.36,0.0,0.01,0.0,0.006544984694978736,0.0,-2.8250165461109145,-1.474977642134783,2.7939863489329517,0,0,0,0,0,0,1500,1500,1500,1500,1500,1500
1747544985.2767036,-0.42,0.02,0.03,-0.003272492347489368,-0.003272492347489368,0.001090830782496456,-2.8250165461109145,-1.474977642134783,2.7939863489329517,0,0,0,0,0,0,1500,1500,1500,1500,1500,1500
1747544985.3776994,-0.42,0.02,0.03,-0.003272492347489368,-0.003272492347489368,0.001090830782496456,-2.8250165461109145,-1.474977642134783,2.7939863489329517,0,0,0,0,0,0,1500,1500,1500,1500,1500,1500
1747544985.476633,-0.38,0.0,0.05,-0.001090830782496456,0.002181661564992912,0.0,-2.8250165461109145,-1.474977642134783,2.7939863489329517,0,0,0,0,0,0,1500,1500,1500,1500,1500,1500
1747544985.576448,-0.4,-0.01,0.02,0.0,0.0,0.001090830782496456,-2.8250165461109145,-1.474977642134783,2.7939863489329517,0,0,0,0,0,0,1500,1500,1500,1500,1500,1500
1747544985.6769087,-0.4,-0.01,0.02,0.0,0.0,0.001090830782496456,-2.8250165461109145,-1.474977642134783,2.7939863489329517,0,0,0,0,0,0,1500,1500,1500,1500,1500,1500
1747544985.7598186,-0.39,0.0,0.06,0.0,-0.001090830782496456,0.002181661564992912,-2.8250165461109145,-1.474977642134783,2.7939863489329517,0,0,0,0,0,0,1500,1500,1500,1500,1500,1500
1747544985.8600526,-0.39,0.0,0.06,0.0,-0.001090830782496456,0.002181661564992912,-2.8250165461109145,-1.474977642134783,2.7939863489329517,0,0,0,0,0,0,1500,1500,1500,1500,1500,1500
1747544985.9599874,-0.39,-0.04,0.07,0.002181661564992912,0.00545415391248228,0.0,-2.8250165461109145,-1.474977642134783,2.7939863489329517,0,0,0,0,0,0,1500,1500,1500,1500,1500,1500
1747544986.043415,-0.39,0.0,0.01,0.002181661564992912,0.002181661564992912,0.001090830782496456,-2.8250165461109145,-1.474977642134783,2.7939863489329517,0,0,0,0,0,0,1500,1500,1500,1500,1500,1500
1747544986.1438422,-0.39,0.0,0.01,0.002181661564992912,0.002181661564992912,0.001090830782496456,-2.8250165461109145,-1.474977642134783,2.7939863489329517,0,0,0,0,0,0,1500,1500,1500,1500,1500,1500
1747544986.2435346,-0.36,0.01,0.03,0.002181661564992912,0.003272492347489368,0.001090830782496456,-2.8250165461109145,-1.474977642134783,2.7939863489329517,0,0,0,0,0,0,1500,1500,1500,1500,1500,1500
1747544986.3434181,-0.36,0.03,0.01,0.001090830782496456,0.001090830782496456,-0.001090830782496456,-2.8250165461109145,-1.474977642134783,2.7939863489329517,0,0,0,0,0,0,1500,1500,1500,1500,1500,1500
1747544986.4437296,-0.36,0.03,0.01,0.001090830782496456,0.001090830782496456,-0.001090830782496456,-2.8250165461109145,-1.474977642134783,2.7939863489329517,0,0,0,0,0,0,1500,1500,1500,1500,1500,1500
1747544986.5270014,-0.38,0.0,0.09,0.001090830782496456,0.002181661564992912,-0.002181661564992912,-2.8250165461109145,-1.474977642134783,2.7939863489329517,0,0,0,0,0,0,1500,1500,1500,1500,1500,1500
1747544986.6266623,-0.38,0.0,0.09,0.001090830782496456,0.002181661564992912,-0.002181661564992912,-2.8250165461109145,-1.474977642134783,2.7939863489329517,0,0,0,0,0,0,1500,1500,1500,1500,1500,1500
1747544986.7269392,-0.37,0.0,0.0,0.003272492347489368,0.0,0.0,-2.8250165461109145,-1.474977642134783,2.7939863489329517,0,0,0,0,0,0,1500,1500,1500,1500,1500,1500
1747544986.8274455,-0.37,-0.03,0.08,-0.003272492347489368,0.001090830782496456,0.001090830782496456,-2.8250165461109145,-1.474977642134783,2.7939863489329517,0,0,0,0,0,0,1500,1500,1500,1500,1500,1500
1747544986.926558,-0.37,-0.03,0.08,-0.003272492347489368,0.001090830782496456,0.001090830782496456,-2.8250165461109145,-1.474977642134783,2.7939863489329517,0,0,0,0,0,0,1500,1500,1500,1500,1500,1500
1747544987.0102932,-0.4,0.0,0.05,-0.002181661564992912,-0.002181661564992912,0.0,-2.8250165461109145,-1.474977642134783,2.7939863489329517,0,0,0,0,0,0,1500,1500,1500,1500,1500,1500
1747544987.1105359,-0.4,0.0,0.05,-0.002181661564992912,-0.002181661564992912,0.0,-2.8250165461109145,-1.474977642134783,2.7939863489329517,0,0,0,0,0,0,1500,1500,1500,1500,1500,1500
1747544987.210561,-0.39,0.0,0.05,0.001090830782496456,0.004363323129985824,0.001090830782496456,-2.8250165461109145,-1.474977642134783,2.7939863489329517,0,0,0,0,0,0,1500,1500,1500,1500,1500,1500
1747544987.3114705,-0.41000000000000003,0.0,0.0,-0.001090830782496456,0.0,0.0,-2.7148168826343384,-1.4714537019552254,2.6948609797675904,0,0,0,0,0,0,1500,1500,1500,1500,1500,1500
1747544987.4099405,-0.41000000000000003,0.0,0.0,-0.001090830782496456,0.0,0.0,-2.7148168826343384,-1.4714537019552254,2.6948609797675904,0,0,0,0,0,0,1500,1500,1500,1500,1500,1500
1747544987.494145,-0.39,0.0,0.05,0.0,-0.002181661564992912,0.0,-2.8250165461109145,-1.474977642134783,2.7939863489329517,0,0,0,0,0,0,1500,1500,1500,1500,1500,1500
1747544987.5933764,-0.39,0.0,0.05,0.0,-0.002181661564992912,0.0,-2.8250165461109145,-1.474977642134783,2.7939863489329517,0,0,0,0,0,0,1500,1500,1500,1500,1500,1500
1747544987.694015,-0.37,0.0,0.03,0.0,0.002181661564992912,-0.001090830782496456,-2.8250165461109145,-1.474977642134783,2.7939863489329517,0,0,0,0,0,0,1500,1500,1500,1500,1500,1500
1747544987.777203,-0.4,0.01,0.02,-0.001090830782496456,0.003272492347489368,0.001090830782496456,-2.8250165461109145,-1.474977642134783,2.7939863489329517,0,0,0,0,0,0,1500,1500,1500,1500,1500,1500
1747544987.8767824,-0.4,0.01,0.02,-0.001090830782496456,0.003272492347489368,0.001090830782496456,-2.8250165461109145,-1.474977642134783,2.7939863489329517,0,0,0,0,0,0,1500,1500,1500,1500,1500,1500
1747544987.9761143,-0.41000000000000003,-0.02,0.09,0.002181661564992912,0.0,0.0,-2.8250165461109145,-1.474977642134783,2.7939863489329517,0,0,0,0,0,0,1500,1500,1500,1500,1500,1500
1747544988.0767682,-0.39,0.0,0.01,-0.001090830782496456,-0.004363323129985824,-0.001090830782496456,-2.8250165461109145,-1.474977642134783,2.7939863489329517,0,0,0,0,0,0,1500,1500,1500,1500,1500,1500
1747544988.1768217,-0.39,0.0,0.01,-0.001090830782496456,-0.004363323129985824,-0.001090830782496456,-2.8250165461109145,-1.474977642134783,2.7939863489329517,0,0,0,0,0,0,1500,1500,1500,1500,1500,1500
1747544988.2606764,-0.41000000000000003,0.01,0.07,-0.003272492347489368,0.002181661564992912,0.0,-2.8250165461109145,-1.474977642134783,2.7939863489329517,0,0,0,0,0,0,1500,1500,1500,1500,1500,1500
1747544988.3598063,-0.41000000000000003,0.01,0.07,-0.003272492347489368,0.002181661564992912,0.0,-2.8250165461109145,-1.474977642134783,2.7939863489329517,0,0,0,0,0,0,1500,1500,1500,1500,1500,1500
1747544988.4598875,-0.41000000000000003,0.03,0.01,-0.001090830782496456,-0.003272492347489368,0.002181661564992912,-2.8250165461109145,-1.474977642134783,2.7939863489329517,0,0,0,0,0,0,1500,1500,1500,1500,1500,1500
1747544988.5438051,-0.41000000000000003,0.03,0.01,-0.001090830782496456,-0.003272492347489368,0.002181661564992912,-2.8250165461109145,-1.474977642134783,2.7939863489329517,0,0,0,0,0,0,1500,1500,1500,1500,1500,1500
1747544988.6442945,-0.36,-0.03,0.08,-0.001090830782496456,0.004363323129985824,0.0,-2.8250165461109145,-1.474977642134783,2.7939863489329517,0,0,0,0,0,0,1500,1500,1500,1500,1500,1500
1747544988.7439437,-0.39,0.0,0.05,-0.002181661564992912,0.0,0.001090830782496456,-2.8250165461109145,-1.474977642134783,2.7939863489329517,0,0,0,0,0,0,1500,1500,1500,1500,1500,1500
1747544988.8440812,-0.39,0.0,0.05,-0.002181661564992912,0.0,0.001090830782496456,-2.8250165461109145,-1.474977642134783,2.7939863489329517,0,0,0,0,0,0,1500,1500,1500,1500,1500,1500
1747544988.9434948,-0.41000000000000003,0.01,0.07,-0.002181661564992912,-0.001090830782496456,0.001090830782496456,-2.8250165461109145,-1.474977642134783,2.7939863489329517,0,0,0,0,0,0,1500,1500,1500,1500,1500,1500
1747544989.0269704,-0.4,0.0,0.05,0.002181661564992912,0.002181661564992912,0.001090830782496456,-2.8250165461109145,-1.474977642134783,2.7939863489329517,0,0,0,0,0,0,1500,1500,1500,1500,1500,1500
1747544989.1270704,-0.4,0.0,0.05,0.002181661564992912,0.002181661564992912,0.001090830782496456,-2.8250165461109145,-1.474977642134783,2.7939863489329517,0,0,0,0,0,0,1500,1500,1500,1500,1500,1500
1747544989.226165,-0.36,0.0,0.05,0.001090830782496456,0.001090830782496456,0.001090830782496456,-2.8250165461109145,-1.474977642134783,2.7939863489329517,0,0,0,0,0,0,1500,1500,1500,1500,1500,1500
1747544989.3265235,-0.36,0.0,0.05,0.001090830782496456,0.001090830782496456,0.001090830782496456,-2.8250165461109145,-1.474977642134783,2.7939863489329517,0,0,0,0,0,0,1500,1500,1500,1500,1500,1500
1747544989.4268386,-0.39,0.0,0.06,-0.001090830782496456,0.0,0.0,-2.8250165461109145,-1.474977642134783,2.7939863489329517,0,0,0,0,0,0,1500,1500,1500,1500,1500,1500
1747544989.5102918,-0.39,0.01,0.05,-0.002181661564992912,-0.001090830782496456,0.001090830782496456,-2.8250165461109145,-1.474977642134783,2.7939863489329517,0,0,0,0,0,0,1500,1500,1500,1500,1500,1500
1747544989.6098638,-0.39,0.01,0.05,-0.002181661564992912,-0.001090830782496456,0.001090830782496456,-2.8250165461109145,-1.474977642134783,2.7939863489329517,0,0,0,0,0,0,1500,1500,1500,1500,1500,1500
1747544989.7102675,-0.4,0.0,0.01,-0.001090830782496456,0.002181661564992912,0.002181661564992912,-2.8250165461109145,-1.474977642134783,2.7939863489329517,0,0,0,0,0,0,1500,1500,1500,1500,1500,1500
1747544989.8101473,-0.4,0.0,0.01,-0.001090830782496456,0.002181661564992912,0.002181661564992912,-2.8250165461109145,-1.474977642134783,2.7939863489329517,0,0,0,0,0,0,1500,1500,1500,1500,1500,1500
1747544989.9096828,-0.37,0.0,0.03,-0.001090830782496456,0.002181661564992912,0.002181661564992912,-2.8250165461109145,-1.474977642134783,2.7939863489329517,0,0,0,0,0,0,1500,1500,1500,1500,1500,1500
1747544989.993306,-0.34,-0.01,0.06,0.003272492347489368,-0.003272492347489368,0.0,-2.8250165461109145,-1.474977642134783,2.7939863489329517,0,0,0,0,0,0,1500,1500,1500,1500,1500,1500
1747544990.0936937,-0.34,-0.01,0.06,0.003272492347489368,-0.003272492347489368,0.0,-2.8250165461109145,-1.474977642134783,2.7939863489329517,0,0,0,0,0,0,1500,1500,1500,1500,1500,1500
1747544990.1933153,-0.4,0.01,0.03,0.002181661564992912,-0.002181661564992912,-0.002181661564992912,-2.8250165461109145,-1.474977642134783,2.7939863489329517,0,0,0,0,0,0,1500,1500,1500,1500,1500,1500
1747544990.2767217,-0.4,0.01,0.03,0.002181661564992912,-0.002181661564992912,-0.002181661564992912,-2.8250165461109145,-1.474977642134783,2.7939863489329517,0,0,0,0,0,0,1500,1500,1500,1500,1500,1500
1747544990.3765001,-0.41000000000000003,0.0,0.06,0.002181661564992912,0.001090830782496456,-0.001090830782496456,-2.8250165461109145,-1.474977642134783,2.7939863489329517,0,0,0,0,0,0,1500,1500,1500,1500,1500,1500
1747544990.477249,-0.38,0.0,0.02,-0.002181661564992912,0.001090830782496456,0.001090830782496456,-2.8250165461109145,-1.474977642134783,2.7939863489329517,0,0,0,0,0,0,1500,1500,1500,1500,1500,1500
1747544990.5769742,-0.38,0.0,0.02,-0.002181661564992912,0.001090830782496456,0.001090830782496456,-2.8250165461109145,-1.474977642134783,2.7939863489329517,0,0,0,0,0,0,1500,1500,1500,1500,1500,1500
1747544990.6762934,-0.42,0.01,0.08,0.0,0.001090830782496456,-0.001090830782496456,-2.8250165461109145,-1.474977642134783,2.7939863489329517,0,0,0,0,0,0,1500,1500,1500,1500,1500,1500
1747544990.7597024,-0.42,0.01,0.08,0.0,0.001090830782496456,-0.001090830782496456,-2.8250165461109145,-1.474977642134783,2.7939863489329517,0,0,0,0,0,0,1500,1500,1500,1500,1500,1500
1747544990.8605618,-0.38,0.0,0.0,0.0,0.002181661564992912,0.001090830782496456,-2.8250165461109145,-1.474977642134783,2.7939863489329517,0,0,0,0,0,0,1500,1500,1500,1500,1500,1500
1747544990.9602318,-0.38,0.0,0.05,-0.002181661564992912,-0.002181661564992912,0.001090830782496456,-2.8250165461109145,-1.474977642134783,2.7939863489329517,0,0,0,0,0,0,1500,1500,1500,1500,1500,1500
1747544991.0601923,-0.38,0.0,0.05,-0.002181661564992912,-0.002181661564992912,0.001090830782496456,-2.8250165461109145,-1.474977642134783,2.7939863489329517,0,0,0,0,0,0,1500,1500,1500,1500,1500,1500
1747544991.1600988,-0.37,0.01,0.02,0.0,0.003272492347489368,-0.001090830782496456,-2.8250165461109145,-1.474977642134783,2.7939863489329517,0,0,0,0,0,0,1500,1500,1500,1500,1500,1500
1747544991.2434034,-0.4,0.0,0.08,0.00545415391248228,-0.002181661564992912,0.001090830782496456,-2.8250165461109145,-1.474977642134783,2.7939863489329517,0,0,0,0,0,0,1500,1500,1500,1500,1500,1500
1747544991.3434765,-0.4,0.0,0.08,0.00545415391248228,-0.002181661564992912,0.001090830782496456,-2.8250165461109145,-1.474977642134783,2.7939863489329517,0,0,0,0,0,0,1500,1500,1500,1500,1500,1500
1747544991.4434,-0.39,0.0,0.04,0.0,0.003272492347489368,0.0,-2.8250165461109145,-1.474977642134783,2.7939863489329517,0,0,0,0,0,0,1500,1500,1500,1500,1500,1500
1747544991.5274088,-0.39,0.0,0.04,0.0,0.003272492347489368,0.0,-2.8250165461109145,-1.474977642134783,2.7939863489329517,0,0,0,0,0,0,1500,1500,1500,1500,1500,1500
1747544991.6371388,-0.36,0.01,0.02,-0.001090830782496456,0.003272492347489368,-0.001090830782496456,-2.8250165461109145,-1.474977642134783,2.7939863489329517,0,0,0,0,0,0,1500,1500,1500,1500,1500,1500
1747544991.7272596,-0.39,0.01,0.0,-0.001090830782496456,-0.001090830782496456,-0.002181661564992912,-2.8250165461109145,-1.474977642134783,2.7939863489329517,0,-0.194868,0,0,0,0,1460,1460,1460,1500,1500,1500
1747544991.82715,-0.39,0.01,0.0,-0.001090830782496456,-0.001090830782496456,-0.002181661564992912,-2.8250165461109145,-1.474977642134783,2.7939863489329517,0,-0.380166,0,0,0,0,1448,1449,1452,1500,1500,1500
1747544991.9270687,-0.41000000000000003,0.0,0.03,0.002181661564992912,-0.002181661564992912,0.001090830782496456,-2.8250165461109145,-1.474977642134783,2.7939863489329517,0,-5.33412,0,0,0,0,1408,1409,1412,1500,1500,1500
1747544992.0099485,-0.41000000000000003,0.0,0.03,0.002181661564992912,-0.002181661564992912,0.001090830782496456,-2.8250165461109145,-1.474977642134783,2.7939863489329517,0,-3.613487,0,0,0,0,1368,1369,1384,1500,1500,1500
1747544992.1105306,-0.38,0.0,0.05,0.001090830782496456,-0.002181661564992912,0.001090830782496456,-2.8250165461109145,-1.474977642134783,2.7939863489329517,0,-3.288233,0,0,0,0,1354,1359,1384,1500,1500,1500
1747544992.210073,-0.44,0.0,0.06,0.002181661564992912,0.0,0.002181661564992912,-2.8250165461109145,-1.474977642134783,2.7939863489329517,0,-2.58895,0,0,0,0,1358,1362,1387,1500,1500,1500
1747544992.2935607,-0.44,0.0,0.06,0.002181661564992912,0.0,0.002181661564992912,-2.8250165461109145,-1.474977642134783,2.7939863489329517,0,-7.074784,0,0,0,-0.021289,1354,1359,1384,1500,1500,1500
1747544992.3934824,-0.38,0.0,0.08,0.0,0.001090830782496456,0.0,-2.8250165461109145,-1.474977642134783,2.7939863489329517,0,-12.090605,0,0,0,-0.084661,1354,1359,1384,1500,1500,1500
1747544992.4912562,-0.38,0.0,0.08,0.0,0.001090830782496456,0.0,-2.8250165461109145,-1.474977642134783,2.7939863489329517,0,-12.5,0,0,0,-0.088729,1354,1359,1384,1500,1500,1500
1747544992.5766647,-0.41000000000000003,-0.01,0.04,-0.001090830782496456,-0.00545415391248228,0.001090830782496456,-2.8250165461109145,-1.474977642134783,2.7939863489329517,0,0,0,0,0,0,1394,1399,1424,1500,1500,1500
1747544992.6769862,-0.37,0.0,0.06,0.0,-0.004363323129985824,0.0,-2.8250165461109145,-1.474977642134783,2.7939863489329517,0,0,0,0,0,0,1434,1439,1464,1500,1500,1500
1747544992.7597978,-0.37,0.0,0.06,0.0,-0.004363323129985824,0.0,-2.8250165461109145,-1.474977642134783,2.7939863489329517,0,0,0,0,0,0,1474,1479,1500,1500,1500,1500
1747544992.8598702,-0.4,0.01,0.05,0.0,0.001090830782496456,-0.001090830782496456,-2.8250165461109145,-1.474977642134783,2.7939863489329517,0,0,0,0,0,0,1500,1500,1500,1500,1500,1500
1747544992.9597318,-0.4,0.01,0.05,0.0,0.001090830782496456,-0.001090830782496456,-2.8250165461109145,-1.474977642134783,2.7939863489329517,0,2.315006,0,0,0,-0.015672,1540,1540,1540,1500,1500,1500
1747544993.043764,-0.39,0.0,0.04,0.001090830782496456,0.002181661564992912,-0.001090830782496456,-2.8250165461109145,-1.474977642134783,2.7939863489329517,0,12.5,0,0,0,-0.007013,1580,1580,1580,1500,1500,1500
1747544993.143654,-0.39,-0.01,-0.01,0.001090830782496456,-0.004363323129985824,0.001090830782496456,-2.8250165461109145,-1.474977642134783,2.7939863489329517,0,12.5,0,0,0,0,1620,1620,1615,1500,1500,1500
1747544993.2435026,-0.39,-0.01,-0.01,0.001090830782496456,-0.004363323129985824,0.001090830782496456,-2.8250165461109145,-1.474977642134783,2.7939863489329517,0,1.304304,0,0,0,0,1589,1586,1575,1500,1500,1500
1747544993.3428996,-0.39,0.03,0.04,0.001090830782496456,-0.001090830782496456,0.001090830782496456,-2.8250165461109145,-1.474977642134783,2.7939863489329517,0,0,0,0,0,0,1549,1546,1535,1500,1500,1500
1747544993.4386356,-0.36,0.01,0.07,-0.002181661564992912,0.002181661564992912,0.003272492347489368,-2.8250165461109145,-1.474977642134783,2.7939863489329517,0,0,0,0,0,0,1509,1506,1500,1500,1500,1500
1747544993.527173,-0.36,0.01,0.07,-0.002181661564992912,0.002181661564992912,0.003272492347489368,-2.8250165461109145,-1.474977642134783,2.7939863489329517,0,0,0,0,0,0,1500,1500,1500,1500,1500,1500
1747544993.6263285,-0.38,0.0,0.0,0.0,0.002181661564992912,0.001090830782496456,-2.8250165461109145,-1.474977642134783,2.7939863489329517,0,0,0,0,0,0,1500,1500,1500,1500,1500,1500
1747544993.7268708,-0.38,0.0,0.0,0.0,0.002181661564992912,0.001090830782496456,-2.8250165461109145,-1.474977642134783,2.7939863489329517,0,0,0,0,0,0,1500,1500,1500,1500,1500,1500
1747544993.8268583,-0.37,-0.02,0.05,-0.002181661564992912,0.0,0.0,-2.8250165461109145,-1.474977642134783,2.7939863489329517,0,0,0,0,0,0,1500,1500,1500,1500,1500,1500
1747544993.9271667,-0.43,0.0,0.04,0.0,-0.001090830782496456,0.003272492347489368,-2.8250165461109145,-1.474977642134783,2.7939863489329517,0,0,0,0,0,0,1500,1500,1500,1500,1500,1500
1747544994.0104117,-0.43,0.0,0.04,0.0,-0.001090830782496456,0.003272492347489368,-2.8250165461109145,-1.474977642134783,2.7939863489329517,0,0,0,0,0,0,1500,1500,1500,1500,1500,1500
1747544994.1101089,-0.39,0.0,0.08,0.0,0.002181661564992912,0.0,-2.8250165461109145,-1.474977642134783,2.7939863489329517,0,0,0,0,0,0,1500,1500,1500,1500,1500,1500
1747544994.2101097,-0.39,0.0,0.08,0.0,0.002181661564992912,0.0,-2.8250165461109145,-1.474977642134783,2.7939863489329517,0,0,0,0,0,0,1500,1500,1500,1500,1500,1500
1747544994.293077,-0.41000000000000003,-0.01,0.01,0.001090830782496456,-0.003272492347489368,0.001090830782496456,-2.8250165461109145,-1.474977642134783,2.7939863489329517,0,0,0,0,0,0,1500,1500,1500,1500,1500,1500
1747544994.3938007,-0.38,-0.01,0.04,0.004363323129985824,-0.001090830782496456,-0.001090830782496456,-2.8250165461109145,-1.474977642134783,2.7939863489329517,0,0,0,0,0,0,1500,1500,1500,1500,1500,1500
1747544994.4938633,-0.38,-0.01,0.04,0.004363323129985824,-0.001090830782496456,-0.001090830782496456,-2.8250165461109145,-1.474977642134783,2.7939863489329517,0,0,0,0,0,0,1500,1500,1500,1500,1500,1500
1747544994.5935388,-0.39,0.0,0.0,-0.001090830782496456,-0.003272492347489368,-0.001090830782496456,-2.8250165461109145,-1.474977642134783,2.7939863489329517,0,0,0,0,0,0,1500,1500,1500,1500,1500,1500
1747544994.6934183,-0.39,0.0,0.0,-0.001090830782496456,-0.003272492347489368,-0.001090830782496456,-2.8250165461109145,-1.474977642134783,2.7939863489329517,0,0,0,0,0,0,1500,1500,1500,1500,1500,1500
1747544994.7770767,-0.36,-0.01,0.05,0.0,-0.002181661564992912,-0.002181661564992912,-2.8250165461109145,-1.474977642134783,2.7939863489329517,0,0,0,0,0,0,1500,1500,1500,1500,1500,1500
1747544994.877427,-0.38,-0.01,0.02,-0.001090830782496456,0.003272492347489368,0.001090830782496456,-2.8250165461109145,-1.474977642134783,2.7939863489329517,0,0,0,0,0,0,1500,1500,1500,1500,1500,1500
1747544994.9770293,-0.38,-0.01,0.02,-0.001090830782496456,0.003272492347489368,0.001090830782496456,-2.8250165461109145,-1.474977642134783,2.7939863489329517,0,0,0,0,0,0,1500,1500,1500,1500,1500,1500
1747544995.075537,-0.39,0.0,0.02,0.001090830782496456,-0.003272492347489368,-0.002181661564992912,-2.8250165461109145,-1.474977642134783,2.7939863489329517,0,0,0,0,0,0,1500,1500,1500,1500,1500,1500
1747544995.1768315,-0.38,-0.01,0.02,0.0,0.002181661564992912,0.001090830782496456,-2.8250165461109145,-1.474977642134783,2.7939863489329517,0,0,0,0,0,0,1500,1500,1500,1500,1500,1500
1747544995.259424,-0.38,-0.01,0.02,0.0,0.002181661564992912,0.001090830782496456,-2.8250165461109145,-1.474977642134783,2.7939863489329517,0,0,0,0,0,0,1500,1500,1500,1500,1500,1500
1747544995.3601446,-0.39,0.02,0.06,-0.002181661564992912,0.004363323129985824,0.001090830782496456,-2.8250165461109145,-1.474977642134783,2.7939863489329517,0,0,0,0,0,0,1500,1500,1500,1500,1500,1500
1747544995.4599972,-0.39,0.02,0.06,-0.002181661564992912,0.004363323129985824,0.001090830782496456,-2.8250165461109145,-1.474977642134783,2.7939863489329517,0,0,0,0,0,0,1500,1500,1500,1500,1500,1500
1747544995.5436475,-0.39,0.0,0.08,0.001090830782496456,-0.002181661564992912,0.001090830782496456,-2.8250165461109145,-1.474977642134783,2.7939863489329517,0,0,0,0,0,0,1500,1500,1500,1500,1500,1500
1747544995.6443193,-0.39,0.0,0.08,0.001090830782496456,-0.002181661564992912,0.001090830782496456,-2.8250165461109145,-1.474977642134783,2.7939863489329517,0,0,0,0,0,0,1500,1500,1500,1500,1500,1500
1747544995.7271829,-0.38,0.0,0.04,-0.001090830782496456,0.001090830782496456,-0.001090830782496456,-2.8250165461109145,-1.474977642134783,2.7939863489329517,0,0,0,0,0,0,1500,1500,1500,1500,1500,1500
1747544995.826742,-0.42,-0.01,0.05,0.002181661564992912,-0.001090830782496456,0.0,-2.8250165461109145,-1.474977642134783,2.7939863489329517,0,0,0,0,0,0,1500,1500,1500,1500,1500,1500
1747544995.9276729,-0.42,-0.01,0.05,0.002181661564992912,-0.001090830782496456,0.0,-2.8250165461109145,-1.474977642134783,2.7939863489329517,0,0,0,0,0,0,1500,1500,1500,1500,1500,1500
1747544996.0101511,-0.42,-0.02,0.04,0.001090830782496456,0.002181661564992912,-0.001090830782496456,-2.8250165461109145,-1.474977642134783,2.7939863489329517,0,0,0,0,0,0,1500,1500,1500,1500,1500,1500
1747544996.1099477,-0.42,-0.02,0.04,0.001090830782496456,0.002181661564992912,-0.001090830782496456,-2.8250165461109145,-1.474977642134783,2.7939863489329517,0,0,0,0,0,0,1500,1500,1500,1500,1500,1500
1747544996.2099175,-0.41000000000000003,-0.01,0.07,0.002181661564992912,0.003272492347489368,-0.002181661564992912,-2.8250165461109145,-1.474977642134783,2.7939863489329517,0,0,0,0,0,0,1500,1500,1500,1500,1500,1500
1747544996.293106,-0.41000000000000003,0.0,0.05,0.0,-0.002181661564992912,-0.001090830782496456,-2.8250165461109145,-1.474977642134783,2.7939863489329517,0,0,0,0,0,0,1500,1500,1500,1500,1500,1500
1747544996.393252,-0.41000000000000003,0.0,0.05,0.0,-0.002181661564992912,-0.001090830782496456,-2.8250165461109145,-1.474977642134783,2.7939863489329517,0,0,0,0,0,0,1500,1500,1500,1500,1500,1500
1747544996.4934673,-0.37,0.0,0.06,-0.001090830782496456,-0.00545415391248228,0.003272492347489368,-2.8250165461109145,-1.474977642134783,2.7939863489329517,0,0,0,0,0,0,1500,1500,1500,1500,1500,1500
1747544996.592565,-0.37,0.0,0.06,-0.001090830782496456,-0.00545415391248228,0.003272492347489368,-2.8250165461109145,-1.474977642134783,2.7939863489329517,0,7.231054,0,0,0,0.119883,1540,1540,1540,1500,1500,1500
1747544996.6930687,-0.42,0.02,0.03,0.001090830782496456,-0.001090830782496456,0.002181661564992912,-2.8250165461109145,-1.474977642134783,2.7939863489329517,0,12.5,0,0.008217,-0.008516,0,1580,1580,1580,1500,1500,1500
1747544996.7763035,-0.38,0.02,0.05,0.0,0.002181661564992912,-0.001090830782496456,-2.8250165461109145,-1.474977642134783,2.7939863489329517,0,0.24991,0,0.008217,-0.28,-0.009517,1544,1551,1540,1500,1460,1460
1747544996.8757064,-0.38,0.02,0.05,0.0,0.002181661564992912,-0.001090830782496456,-2.8250165461109145,-1.474977642134783,2.7939863489329517,0,0,0,-0.459402,-0.071304,0,1504,1511,1580,1500,1452,1452
1747544996.9766853,-0.4,0.01,0.02,0.002181661564992912,-0.002181661564992912,0.001090830782496456,-2.8250165461109145,-1.474977642134783,2.7939863489329517,0,0,0,0,0,0,1500,1500,1540,1500,1492,1492
1747544997.076782,-0.36,-0.01,0.01,0.0,0.002181661564992912,0.001090830782496456,-2.8250165461109145,-1.474977642134783,2.7939863489329517,0,0,0,0,0,0,1500,1500,1500,1500,1500,1500
1747544997.1764362,-0.36,-0.01,0.01,0.0,0.002181661564992912,0.001090830782496456,-2.8250165461109145,-1.474977642134783,2.7939863489329517,0,0,0,0,0,0,1500,1500,1500,1500,1500,1500
1747544997.2598956,-0.42,0.0,0.01,0.003272492347489368,-0.003272492347489368,0.0,-2.8250165461109145,-1.474977642134783,2.7939863489329517,0,0,0,0,0,0,1500,1500,1500,1500,1500,1500
1747544997.3604982,-0.42,0.0,0.01,0.003272492347489368,-0.003272492347489368,0.0,-2.8250165461109145,-1.474977642134783,2.7939863489329517,0,0,0,0,0,0,1500,1500,1500,1500,1500,1500
1747544997.4605556,-0.37,-0.01,0.02,-0.002181661564992912,-0.001090830782496456,-0.002181661564992912,-2.8250165461109145,-1.474977642134783,2.7939863489329517,0,0,0,0,0,0,1500,1500,1500,1500,1500,1500
1747544997.5604322,-0.38,-0.02,0.05,-0.001090830782496456,0.006544984694978736,0.001090830782496456,-2.8250165461109145,-1.474977642134783,2.7939863489329517,0,0,0,0,0,0,1500,1500,1500,1500,1500,1500
1747544997.6596963,-0.38,-0.02,0.05,-0.001090830782496456,0.006544984694978736,0.001090830782496456,-2.8250165461109145,-1.474977642134783,2.7939863489329517,0,0,0,0,0,0,1500,1500,1500,1500,1500,1500
1747544997.7432706,-0.41000000000000003,0.0,0.06,-0.001090830782496456,0.001090830782496456,0.0,-2.8250165461109145,-1.474977642134783,2.7939863489329517,0,0,0,0,0,0,1500,1500,1500,1500,1500,1500
1747544997.8435247,-0.41000000000000003,0.0,0.06,-0.001090830782496456,0.001090830782496456,0.0,-2.8250165461109145,-1.474977642134783,2.7939863489329517,0,0,0,0,0,0,1500,1500,1500,1500,1500,1500
1747544997.9433331,-0.38,0.0,0.04,0.002181661564992912,0.003272492347489368,0.002181661564992912,-2.8250165461109145,-1.474977642134783,2.7939863489329517,0,0,0,0,0,0,1500,1500,1500,1500,1500,1500
1747544998.0271049,-0.38,0.0,0.04,0.002181661564992912,0.003272492347489368,0.002181661564992912,-2.8250165461109145,-1.474977642134783,2.7939863489329517,0,0,0,0,0,0,1500,1500,1500,1500,1500,1500
1747544998.12681,-0.41000000000000003,0.03,0.03,-0.002181661564992912,-0.002181661564992912,-0.001090830782496456,-2.8250165461109145,-1.474977642134783,2.7939863489329517,0,0,0,0,0,0,1500,1500,1500,1500,1500,1500
1747544998.226364,-0.39,0.0,0.05,0.0,0.0,-0.001090830782496456,-2.8250165461109145,-1.474977642134783,2.7939863489329517,0,0,0,0,0,0,1500,1500,1500,1500,1500,1500
1747544998.32627,-0.39,0.0,0.05,0.0,0.0,-0.001090830782496456,-2.8250165461109145,-1.474977642134783,2.7939863489329517,0,0,0,0,0,0,1500,1500,1500,1500,1500,1500
1747544998.4271412,-0.38,0.0,0.02,-0.002181661564992912,0.004363323129985824,-0.004363323129985824,-2.8250165461109145,-1.474977642134783,2.7939863489329517,0,0,0,0,0,0,1500,1500,1500,1500,1500,1500
1747544998.510823,-0.39,0.0,0.07,-0.004363323129985824,0.003272492347489368,-0.001090830782496456,-2.8250165461109145,-1.474977642134783,2.7939863489329517,0,0,0,0,0,0,1500,1500,1500,1500,1500,1500
1747544998.6108823,-0.39,0.0,0.07,-0.004363323129985824,0.003272492347489368,-0.001090830782496456,-2.8250165461109145,-1.474977642134783,2.7939863489329517,0,0,0,0,0,0,1500,1500,1500,1500,1500,1500
1747544998.712533,-0.4,0.0,0.05,-0.002181661564992912,-0.002181661564992912,0.002181661564992912,-2.8250165461109145,-1.474977642134783,2.7939863489329517,0,0,0,0,0,0,1500,1500,1500,1500,1500,1500
1747544998.8116398,-0.39,0.0,0.06,-0.003272492347489368,-0.001090830782496456,-0.001090830782496456,-2.8250165461109145,-1.474977642134783,2.7939863489329517,0,0,0,0,0,0,1500,1500,1500,1500,1500,1500
1747544998.910819,-0.39,0.0,0.06,-0.003272492347489368,-0.001090830782496456,-0.001090830782496456,-2.8250165461109145,-1.474977642134783,2.7939863489329517,0,0,0,0,0,0,1500,1500,1500,1500,1500,1500
1747544998.9944277,-0.39,0.0,0.04,0.0,0.004363323129985824,0.0,-2.8250165461109145,-1.474977642134783,2.7939863489329517,0,0,0,0,0,0,1500,1500,1500,1500,1500,1500
1747544999.0944655,-0.39,0.0,0.04,0.0,0.004363323129985824,0.0,-2.8250165461109145,-1.474977642134783,2.7939863489329517,0,0,0,0,0,0,1500,1500,1500,1500,1500,1500
1747544999.2265186,-0.4,0.0,0.06,0.003272492347489368,-0.001090830782496456,-0.001090830782496456,-2.8250165461109145,-1.474977642134783,2.7939863489329517,0,0,0,0,0,0,1500,1500,1500,1500,1500,1500
1747544999.3262935,-0.37,0.02,0.03,0.0,-0.004363323129985824,0.001090830782496456,-2.8250165461109145,-1.474977642134783,2.7939863489329517,0,0,0,0,0,0,1500,1500,1500,1500,1500,1500
1747544999.4265544,-0.37,0.02,0.03,0.0,-0.004363323129985824,0.001090830782496456,-2.8250165461109145,-1.474977642134783,2.7939863489329517,0,-0.417013,0,0,0,0,1460,1460,1460,1500,1500,1500
1747544999.5099945,-0.37,-0.01,0.0,0.001090830782496456,-0.006544984694978736,0.0,-2.8250165461109145,-1.474977642134783,2.7939863489329517,0,0,0,0,0,0,1500,1500,1500,1500,1500,1500
1747544999.6100657,-0.38,-0.03,0.07,0.001090830782496456,0.0,0.002181661564992912,-2.8250165461109145,-1.474977642134783,2.7939863489329517,0,0,0,0,0,0,1500,1500,1500,1500,1500,1500
1747544999.709982,-0.38,-0.03,0.07,0.001090830782496456,0.0,0.002181661564992912,-2.8250165461109145,-1.474977642134783,2.7939863489329517,0,-2.683736,0,0,0,0.065765,1460,1460,1460,1500,1500,1500
1747544999.793522,-0.39,-0.02,0.06,-0.001090830782496456,-0.001090830782496456,0.0,-2.8250165461109145,-1.474977642134783,2.7939863489329517,0,-11.489294,0,0,0,0.049244,1420,1420,1420,1500,1500,1500
1747544999.8935487,-0.39,-0.02,0.06,-0.001090830782496456,-0.001090830782496456,0.0,-2.8250165461109145,-1.474977642134783,2.7939863489329517,0,0,0,0,0,0,1460,1460,1460,1500,1500,1500
1747544999.9774795,-0.37,0.01,0.04,-0.002181661564992912,-0.002181661564992912,0.002181661564992912,-2.8250165461109145,-1.474977642134783,2.7939863489329517,0,0,0,0,0,0,1500,1500,1500,1500,1500,1500
1747545000.077015,-0.41000000000000003,-0.01,0.04,0.001090830782496456,0.004363323129985824,0.0,-2.8250165461109145,-1.474977642134783,2.7939863489329517,0,2.496058,0,0,0,0,1540,1540,1540,1500,1500,1500
1747545000.1771262,-0.41000000000000003,-0.01,0.04,0.001090830782496456,0.004363323129985824,0.0,-2.8250165461109145,-1.474977642134783,2.7939863489329517,0,12.5,0,0,0,-6e-05,1580,1580,1580,1500,1500,1500
1747545000.2606573,-0.36,-0.02,0.06,0.002181661564992912,0.006544984694978736,0.0,-2.7272549769972088,-1.474967674499813,2.6853188566787036,0,0,0,0,0,-6e-05,1540,1540,1540,1500,1500,1500
1747545000.360224,-0.36,-0.02,0.06,0.002181661564992912,0.006544984694978736,0.0,-2.7272549769972088,-1.474967674499813,2.6853188566787036,0,0,0,0,0,-6e-05,1500,1500,1500,1500,1500,1500
1747545000.4597619,-0.39,0.01,0.0,0.001090830782496456,0.006544984694978736,0.001090830782496456,-2.8250165461109145,-1.474977642134783,2.7939863489329517,0,0,0,-0.7,0,-6e-05,1460,1460,1540,1500,1500,1500
1747545000.5435834,-0.39,0.01,0.0,0.001090830782496456,0.006544984694978736,0.001090830782496456,-2.8250165461109145,-1.474977642134783,2.7939863489329517,0,0,0,-0.276499,0,-6e-05,1420,1420,1580,1500,1500,1500
1747545000.644605,-0.38,0.0,0.05,-0.002181661564992912,0.003272492347489368,-0.002181661564992912,-2.8250165461109145,-1.474977642134783,2.7939863489329517,0,0,0,0,0,-6e-05,1460,1460,1540,1500,1500,1500
1747545000.7277799,-0.39,0.0,0.06,0.002181661564992912,-0.007635815477475192,0.0,-2.8250165461109145,-1.474977642134783,2.7939863489329517,0,0,0,0,0,-6e-05,1500,1500,1500,1500,1500,1500
1747545000.8267205,-0.39,0.0,0.06,0.002181661564992912,-0.007635815477475192,0.0,-2.8250165461109145,-1.474977642134783,2.7939863489329517,0,0,0,0,0,-6e-05,1500,1500,1500,1500,1500,1500
1747545000.9266636,-0.39,0.0,0.06,-0.001090830782496456,0.00545415391248228,0.001090830782496456,-2.8250165461109145,-1.474977642134783,2.7939863489329517,0,0,0,0,0,-6e-05,1500,1500,1500,1500,1500,1500
1747545001.0107093,-0.39,0.0,0.06,-0.001090830782496456,0.00545415391248228,0.001090830782496456,-2.8250165461109145,-1.474977642134783,2.7939863489329517,0,0,0,0,0,-6e-05,1500,1500,1500,1500,1500,1500
1747545001.110768,-0.4,-0.01,0.03,0.001090830782496456,0.007635815477475192,-0.001090830782496456,-2.8250165461109145,-1.474977642134783,2.7939863489329517,0,0,0,0,0,-6e-05,1500,1500,1500,1500,1500,1500
1747545001.2106853,-0.4,0.0,0.06,-0.00545415391248228,-0.001090830782496456,0.002181661564992912,-2.8250165461109145,-1.474977642134783,2.7939863489329517,0,0,0,0,0,-6e-05,1500,1500,1500,1500,1500,1500
1747545001.3101323,-0.4,0.0,0.06,-0.00545415391248228,-0.001090830782496456,0.002181661564992912,-2.8250165461109145,-1.474977642134783,2.7939863489329517,0,0,0,0,0,-6e-05,1500,1500,1500,1500,1500,1500
1747545001.41082,-0.4,0.0,0.06,-0.003272492347489368,0.001090830782496456,0.001090830782496456,-2.8250165461109145,-1.474977642134783,2.7939863489329517,0,0,0,0,0,-6e-05,1500,1500,1500,1500,1500,1500
1747545001.493563,-0.4,0.0,0.06,-0.003272492347489368,0.001090830782496456,0.001090830782496456,-2.8250165461109145,-1.474977642134783,2.7939863489329517,0,0,0,0,0,-6e-05,1500,1500,1500,1500,1500,1500
1747545001.5929673,-0.4,-0.01,0.04,0.001090830782496456,0.0,0.001090830782496456,-2.8250165461109145,-1.474977642134783,2.7939863489329517,0,0,0,0,0,-6e-05,1500,1500,1500,1500,1500,1500
1747545001.693951,-0.38,0.0,0.08,0.001090830782496456,0.002181661564992912,0.0,-2.8250165461109145,-1.474977642134783,2.7939863489329517,0,0,0,0,0,-6e-05,1500,1500,1500,1500,1500,1500
1747545001.777308,-0.38,0.0,0.08,0.001090830782496456,0.002181661564992912,0.0,-2.8250165461109145,-1.474977642134783,2.7939863489329517,0,0,0,0,0,-6e-05,1500,1500,1500,1500,1500,1500
1747545001.8767412,-0.37,0.0,0.04,0.002181661564992912,0.0,-0.001090830782496456,-2.8250165461109145,-1.474977642134783,2.7939863489329517,0,0,0,0,0,-6e-05,1500,1500,1500,1500,1500,1500
1747545001.9731014,-0.39,0.0,0.04,0.001090830782496456,0.002181661564992912,-0.003272492347489368,-2.8250165461109145,-1.474977642134783,2.7939863489329517,0,0,0,0,0,-6e-05,1500,1500,1500,1500,1500,1500
1747545002.060153,-0.39,0.0,0.04,0.001090830782496456,0.002181661564992912,-0.003272492347489368,-2.8250165461109145,-1.474977642134783,2.7939863489329517,0,0,0,0,0,-6e-05,1500,1500,1500,1500,1500,1500
1747545002.1601794,-0.41000000000000003,0.0,0.01,-0.001090830782496456,-0.001090830782496456,0.0,-2.8250165461109145,-1.474977642134783,2.7939863489329517,0,0,0,0,0,-6e-05,1500,1500,1500,1500,1500,1500
1747545002.2432435,-0.41000000000000003,0.0,0.01,-0.001090830782496456,-0.001090830782496456,0.0,-2.8250165461109145,-1.474977642134783,2.7939863489329517,0,0,0,0,0,-6e-05,1500,1500,1500,1500,1500,1500
1747545002.343461,-0.4,0.0,0.08,0.0,0.004363323129985824,-0.002181661564992912,-2.8250165461109145,-1.474977642134783,2.7939863489329517,0,0,0,0,0,-6e-05,1500,1500,1500,1500,1500,1500
1747545002.4435885,-0.4,0.0,0.08,0.0,0.004363323129985824,-0.002181661564992912,-2.8250165461109145,-1.474977642134783,2.7939863489329517,0,0,0,0,0,-6e-05,1500,1500,1500,1500,1500,1500
1747545002.5269496,-0.4,0.0,0.0,-0.001090830782496456,0.002181661564992912,0.0,-2.8250165461109145,-1.474977642134783,2.7939863489329517,0,0,0,0,0,-6e-05,1500,1500,1500,1500,1500,1500
1747545002.6270494,-0.43,-0.01,0.08,-0.004363323129985824,0.0,-0.002181661564992912,-2.8250165461109145,-1.474977642134783,2.7939863489329517,0,0,0,0,0,-6e-05,1500,1500,1500,1500,1500,1500
1747545002.726592,-0.43,-0.01,0.08,-0.004363323129985824,0.0,-0.002181661564992912,-2.8250165461109145,-1.474977642134783,2.7939863489329517,0,0,0,0,0,-6e-05,1500,1500,1500,1500,1500,1500
1747545002.8268347,-0.4,-0.01,0.02,0.001090830782496456,0.0,-0.001090830782496456,-2.8250165461109145,-1.474977642134783,2.7939863489329517,0,0,0,0,0,-6e-05,1500,1500,1500,1500,1500,1500
1747545002.9178069,-0.39,0.0,0.04,-0.003272492347489368,-0.001090830782496456,0.0,-2.8250165461109145,-1.474977642134783,2.7939863489329517,0,0,0,0,0,-6e-05,1500,1500,1500,1500,1500,1500
1747545003.0103934,-0.39,0.0,0.04,-0.003272492347489368,-0.001090830782496456,0.0,-2.8250165461109145,-1.474977642134783,2.7939863489329517,0,0,0,0,0,-6e-05,1500,1500,1500,1500,1500,1500
1747545003.1099918,-0.37,-0.03,0.0,0.001090830782496456,0.001090830782496456,-0.001090830782496456,-2.8250165461109145,-1.474977642134783,2.7939863489329517,0,0,0,0,0,-6e-05,1500,1500,1500,1500,1500,1500
1747545003.2106504,-0.37,-0.03,0.0,0.001090830782496456,0.001090830782496456,-0.001090830782496456,-2.8250165461109145,-1.474977642134783,2.7939863489329517,0,0,0,0,0,-6e-05,1500,1500,1500,1500,1500,1500
1747545003.3107343,-0.38,-0.02,0.05,-0.003272492347489368,-0.002181661564992912,0.0,-2.8250165461109145,-1.474977642134783,2.7939863489329517,0,0,0,0,0,-6e-05,1500,1500,1500,1500,1500,1500
1747545003.4107618,-0.39,0.0,0.03,-0.001090830782496456,0.003272492347489368,0.001090830782496456,-2.8250165461109145,-1.474977642134783,2.7939863489329517,0,0,0,0,0,-6e-05,1500,1500,1500,1500,1500,1500
1747545003.4934866,-0.39,0.0,0.03,-0.001090830782496456,0.003272492347489368,0.001090830782496456,-2.8250165461109145,-1.474977642134783,2.7939863489329517,0,0,0,0,0,-6e-05,1500,1500,1500,1500,1500,1500
1747545003.5949984,-0.38,0.0,0.03,-0.002181661564992912,0.002181661564992912,0.001090830782496456,-2.8250165461109145,-1.474977642134783,2.7939863489329517,0,0,0,0,0,-6e-05,1500,1500,1500,1500,1500,1500
1747545003.6946876,-0.38,0.0,0.03,-0.002181661564992912,0.002181661564992912,0.001090830782496456,-2.8250165461109145,-1.474977642134783,2.7939863489329517,0,0,0,0,0,-6e-05,1500,1500,1500,1500,1500,1500
1747545003.7953627,-0.39,0.0,0.02,0.001090830782496456,0.0,-0.001090830782496456,-2.8250165461109145,-1.474977642134783,2.7939863489329517,0,0,0,0,0,-6e-05,1500,1500,1500,1500,1500,1500
1747545003.893977,-0.39,0.01,0.03,0.001090830782496456,0.003272492347489368,-0.002181661564992912,-2.8250165461109145,-1.474977642134783,2.7939863489329517,0,0,0,0,0,-6e-05,1500,1500,1500,1500,1500,1500
1747545003.977105,-0.39,0.01,0.03,0.001090830782496456,0.003272492347489368,-0.002181661564992912,-2.8250165461109145,-1.474977642134783,2.7939863489329517,0,0,0,0,0,-6e-05,1500,1500,1500,1500,1500,1500
1747545004.0780027,-0.36,-0.01,0.03,-0.002181661564992912,-0.003272492347489368,0.0,-2.8250165461109145,-1.474977642134783,2.7939863489329517,0,0,0,0,0,-6e-05,1500,1500,1500,1500,1500,1500
1747545004.1775105,-0.36,-0.01,0.03,-0.002181661564992912,-0.003272492347489368,0.0,-2.8250165461109145,-1.474977642134783,2.7939863489329517,0,0,0,0,0,-6e-05,1500,1500,1500,1500,1500,1500
1747545004.260776,-0.39,0.01,0.06,-0.004363323129985824,-0.003272492347489368,-0.001090830782496456,-2.8250165461109145,-1.474977642134783,2.7939863489329517,0,0,0,0,0,-6e-05,1500,1500,1500,1500,1500,1500
1747545004.3602471,-0.39,0.01,0.06,-0.004363323129985824,-0.003272492347489368,-0.001090830782496456,-2.8250165461109145,-1.474977642134783,2.7939863489329517,0,0,0,0,0,-6e-05,1500,1500,1500,1500,1500,1500
1747545004.4601533,-0.39,0.01,0.06,-0.004363323129985824,-0.003272492347489368,-0.001090830782496456,-2.8250165461109145,-1.474977642134783,2.7939863489329517,0,0,0,0,0,-6e-05,1500,1500,1500,1500,1500,1500
1747545004.543518,-0.39,0.01,0.06,-0.004363323129985824,-0.003272492347489368,-0.001090830782496456,-2.8250165461109145,-1.474977642134783,2.7939863489329517,0,0,0,0,0,-6e-05,1500,1500,1500,1500,1500,1500
1747545004.6440454,-0.39,0.01,0.06,-0.004363323129985824,-0.003272492347489368,-0.001090830782496456,-2.8250165461109145,-1.474977642134783,2.7939863489329517,0,0,0,0,0,-6e-05,1500,1500,1500,1500,1500,1500
