time,ay,ax,az,gy,gx,gz,roll,pitch,yaw,cmd_fx,cmd_fy,cmd_fz,cmd_tx,cmd_ty,cmd_tz,pwm_1,pwm_2,pwm_3,pwm_4,pwm_5,pwm_6
1748736053.6819487,0.0,0.0,0.0,0.0,0.0,0.0,0.0,0.0,0.0,0.0,0.0,0.0,0.0,0.0,0.0,1500,1500,1500,1500,1500,1500
1748736053.7869492,-0.01,-0.02,0.03,0.001090830782496456,0.003272492347489368,0.0,0.005596969688094218,0.7268381796216239,1.611243803410767,0.0,0.0,0.0,0.0,0.0,0.0,1500,1500,1500,1500,1500,1500
1748736053.8983529,-0.01,-0.02,0.03,0.001090830782496456,0.003272492347489368,0.0,0.005596969688094218,0.7268381796216239,1.611243803410767,0.0,0.0,0.0,0.0,0.0,0.0,1500,1500,1500,1500,1500,1500
1748736054.0066836,0.0,-0.03,0.03,-0.001090830782496456,-0.001090830782496456,-0.001090830782496456,0.005596969688094218,0.7268381796216239,1.611243803410767,0.0,0.0,0.0,0.0,0.0,0.0,1500,1500,1500,1500,1500,1500
1748736054.114359,0.0,-0.01,0.07,-0.002181661564992912,-0.006544984694978736,0.001090830782496456,0.005596969688094218,0.7268381796216239,1.611243803410767,0.0,0.0,0.0,0.0,0.0,0.0,1500,1500,1500,1500,1500,1500
1748736054.2240455,0.0,-0.01,0.07,-0.002181661564992912,-0.006544984694978736,0.001090830782496456,0.005596969688094218,0.7268381796216239,1.611243803410767,0.0,0.0,0.0,0.0,0.0,0.0,1500,1500,1500,1500,1500,1500
1748736054.3467498,-0.01,0.03,0.0,0.0,-0.003272492347489368,0.001090830782496456,0.005596969688094218,0.7268381796216239,1.611243803410767,0.0,0.0,0.0,0.0,0.0,0.0,1500,1500,1500,1500,1500,1500
1748736054.4273472,0.0,0.0,0.04,0.001090830782496456,-0.002181661564992912,0.0,0.005596969688094218,0.7268381796216239,1.611243803410767,0.0,0.0,0.0,0.0,0.0,0.0,1500,1500,1500,1500,1500,1500
1748736054.5331469,0.01,-0.01,0.06,0.0,-0.001090830782496456,-0.002181661564992912,0.005596969688094218,0.7268381796216239,1.611243803410767,0,0,0,0,0,0,1500,1500,1500,1500,1500,1500
1748736054.6261766,0.01,-0.01,0.06,0.0,-0.001090830782496456,-0.002181661564992912,0.005596969688094218,0.7268381796216239,1.611243803410767,0,0,0,0,0,0,1500,1500,1500,1500,1500,1500
1748736054.71662,0.02,-0.04,0.03,-0.002181661564992912,-0.001090830782496456,0.0,0.005596969688094218,0.7268381796216239,1.611243803410767,0,0,0,0,0,0,1500,1500,1500,1500,1500,1500
1748736054.8156903,0.02,-0.04,0.03,-0.002181661564992912,-0.001090830782496456,0.0,0.005596969688094218,0.7268381796216239,1.611243803410767,0,0,0,0,0,0,1500,1500,1500,1500,1500,1500
1748736054.8977878,0.0,-0.04,0.0,-0.002181661564992912,0.003272492347489368,-0.001090830782496456,0.005596969688094218,0.7268381796216239,1.611243803410767,0,0,0,0,0,0,1500,1500,1500,1500,1500,1500
1748736054.9967692,0.0,-0.04,0.0,-0.002181661564992912,0.003272492347489368,-0.001090830782496456,0.005596969688094218,0.7268381796216239,1.611243803410767,0,0,0,0,0,0,1500,1500,1500,1500,1500,1500
1748736055.096625,0.0,-0.02,0.01,-0.002181661564992912,0.001090830782496456,0.001090830782496456,0.005596969688094218,0.7268381796216239,1.611243803410767,0,0,0,0,0,0,1500,1500,1500,1500,1500,1500
1748736055.1800315,0.02,-0.01,0.01,0.003272492347489368,-0.001090830782496456,0.0,0.005596969688094218,0.7268381796216239,1.611243803410767,0,0,0,0,0,0,1500,1500,1500,1500,1500,1500
1748736055.2795358,0.02,-0.01,0.01,0.003272492347489368,-0.001090830782496456,0.0,0.005596969688094218,0.7268381796216239,1.611243803410767,0,0,0,0,0,0,1500,1500,1500,1500,1500,1500
1748736055.3801036,0.0,-0.02,0.05,-0.00545415391248228,0.0,0.001090830782496456,0.005596969688094218,0.7268381796216239,1.611243803410767,0,0,0,0,0,0,1500,1500,1500,1500,1500,1500
1748736055.4797578,0.0,-0.02,0.05,-0.00545415391248228,0.0,0.001090830782496456,0.005596969688094218,0.7268381796216239,1.611243803410767,0,0,0,0,0,0,1500,1500,1500,1500,1500,1500
1748736055.5800905,0.0,-0.03,0.03,0.001090830782496456,-0.001090830782496456,0.0,0.005596969688094218,0.7268381796216239,1.611243803410767,0,0,0,0,0,0,1500,1500,1500,1500,1500,1500
1748736055.6635485,0.0,-0.02,0.02,0.001090830782496456,0.002181661564992912,0.001090830782496456,0.005596969688094218,0.7268381796216239,1.611243803410767,0,0,0,0,0,0,1500,1500,1500,1500,1500,1500
1748736055.7627625,0.0,-0.02,0.02,0.001090830782496456,0.002181661564992912,0.001090830782496456,0.005596969688094218,0.7268381796216239,1.611243803410767,0,0,0,0,0,0,1500,1500,1500,1500,1500,1500
1748736055.8630319,0.01,0.0,0.01,-0.001090830782496456,-0.001090830782496456,0.002181661564992912,0.005596969688094218,0.7268381796216239,1.611243803410767,0,0,0,0,0,0,1500,1500,1500,1500,1500,1500
1748736055.9469166,0.01,0.0,0.01,-0.001090830782496456,-0.001090830782496456,0.002181661564992912,0.005596969688094218,0.7268381796216239,1.611243803410767,0,0,0,0,0,0,1500,1500,1500,1500,1500,1500
1748736056.047213,0.0,0.0,0.05,-0.003272492347489368,0.003272492347489368,0.002181661564992912,0.005596969688094218,0.7268381796216239,1.611243803410767,0,0,0,0,0,0,1500,1500,1500,1500,1500,1500
1748736056.1306875,0.0,0.0,0.05,-0.003272492347489368,0.003272492347489368,0.002181661564992912,0.005596969688094218,0.7268381796216239,1.611243803410767,0,0,0,0,0,0,1500,1500,1500,1500,1500,1500
1748736056.2292032,0.0,-0.06,0.04,-0.003272492347489368,-0.002181661564992912,0.0,0.005596969688094218,0.7268381796216239,1.611243803410767,0,0,0,0,0,0,1500,1500,1500,1500,1500,1500
1748736056.329279,0.0,-0.03,0.03,-0.001090830782496456,0.001090830782496456,-0.001090830782496456,0.005596969688094218,0.7268381796216239,1.611243803410767,0,0,0,0,0,0,1500,1500,1500,1500,1500,1500
1748736056.4134738,0.0,-0.03,0.03,-0.001090830782496456,0.001090830782496456,-0.001090830782496456,0.005596969688094218,0.7268381796216239,1.611243803410767,0,0,0,0,0,0,1500,1500,1500,1500,1500,1500
1748736056.513373,0.01,-0.01,0.02,0.0,0.0,0.0,0.005596969688094218,0.7268381796216239,1.611243803410767,0,0,0,0,0,0,1500,1500,1500,1500,1500,1500
1748736056.6027236,0.01,-0.01,0.0,-0.001090830782496456,-0.001090830782496456,-0.001090830782496456,0.005596969688094218,0.7268381796216239,1.611243803410767,0,0,0,0,0,0,1500,1500,1500,1500,1500,1500
1748736056.6968546,0.01,-0.01,0.0,-0.001090830782496456,-0.001090830782496456,-0.001090830782496456,0.005596969688094218,0.7268381796216239,1.611243803410767,0,0,0,0,0,0,1500,1500,1500,1500,1500,1500
1748736056.797355,0.0,0.0,0.03,-0.002181661564992912,0.001090830782496456,0.001090830782496456,0.005596969688094218,0.7268381796216239,1.611243803410767,0,0,0,0,0,0,1500,1500,1500,1500,1500,1500
1748736056.8955486,0.0,0.0,0.03,-0.002181661564992912,0.001090830782496456,0.001090830782496456,0.005596969688094218,0.7268381796216239,1.611243803410767,0,0,0,0,0,0,1500,1500,1500,1500,1500,1500
1748736056.995925,-0.01,0.0,0.04,0.0,0.0,-0.001090830782496456,0.005596969688094218,0.7268381796216239,1.611243803410767,0,0,0,0,0,0,1500,1500,1500,1500,1500,1500
1748736057.0857327,0.0,-0.02,0.06,0.0,0.001090830782496456,0.0,0.005596969688094218,0.7268381796216239,1.611243803410767,0,0,0,0,0,0,1500,1500,1500,1500,1500,1500
1748736057.1800604,0.0,-0.02,0.06,0.0,0.001090830782496456,0.0,0.005596969688094218,0.7268381796216239,1.611243803410767,0,0,0,0,0,0,1500,1500,1500,1500,1500,1500
1748736057.2801542,0.01,0.0,0.02,0.001090830782496456,0.004363323129985824,0.001090830782496456,0.005596969688094218,0.7268381796216239,1.611243803410767,0,0,0,0,0,0,1500,1500,1500,1500,1500,1500
1748736057.3799036,0.01,0.0,0.02,0.001090830782496456,0.004363323129985824,0.001090830782496456,0.005596969688094218,0.7268381796216239,1.611243803410767,0,0,0,0,0,0,1500,1500,1500,1500,1500,1500
1748736057.4801404,0.01,-0.01,0.03,-0.001090830782496456,0.001090830782496456,-0.003272492347489368,0.005596969688094218,0.7268381796216239,1.611243803410767,0,0,0,0,0,0,1500,1500,1500,1500,1500,1500
1748736057.5796037,0.0,0.0,0.0,-0.002181661564992912,-0.002181661564992912,-0.001090830782496456,0.005596969688094218,0.7268381796216239,1.611243803410767,0,0,0,0,0,0,1500,1500,1500,1500,1500,1500
1748736057.6635437,0.0,0.0,0.0,-0.002181661564992912,-0.002181661564992912,-0.001090830782496456,0.005596969688094218,0.7268381796216239,1.611243803410767,0,0,0,0,0,0,1500,1500,1500,1500,1500,1500
1748736057.7637804,0.03,-0.01,0.02,0.001090830782496456,-0.004363323129985824,-0.004363323129985824,0.005596969688094218,0.7268381796216239,1.611243803410767,0,0,0,0,0,0,1500,1500,1500,1500,1500,1500
1748736057.8631654,0.03,-0.01,0.02,0.001090830782496456,-0.004363323129985824,-0.004363323129985824,0.005596969688094218,0.7268381796216239,1.611243803410767,0,0,0,0,0,0,1500,1500,1500,1500,1500,1500
1748736057.9480307,0.02,-0.02,0.05,0.001090830782496456,0.001090830782496456,0.0,0.005596969688094218,0.7268381796216239,1.611243803410767,0,0,0,0,0,0,1500,1500,1500,1500,1500,1500
1748736058.0428867,0.01,0.0,0.03,0.002181661564992912,-0.00545415391248228,0.001090830782496456,0.005596969688094218,0.7268381796216239,1.611243803410767,0,0,0,0,0,0,1500,1500,1500,1500,1500,1500
1748736058.1301546,0.01,0.0,0.03,0.002181661564992912,-0.00545415391248228,0.001090830782496456,0.005596969688094218,0.7268381796216239,1.611243803410767,0,0,0,0,0,0,1500,1500,1500,1500,1500,1500
1748736058.229166,0.02,-0.03,0.0,0.0,0.001090830782496456,-0.001090830782496456,0.005596969688094218,0.7268381796216239,1.611243803410767,0,0,0,0,0,0,1500,1500,1500,1500,1500,1500
1748736058.3294358,0.02,-0.03,0.0,0.0,0.001090830782496456,-0.001090830782496456,0.005596969688094218,0.7268381796216239,1.611243803410767,0,0,0,0,0,0,1500,1500,1500,1500,1500,1500
1748736058.4131136,0.01,0.01,0.01,0.002181661564992912,-0.004363323129985824,0.0,0.005596969688094218,0.7268381796216239,1.611243803410767,0,0,0,0,0,0,1500,1500,1500,1500,1500,1500
1748736058.5129797,0.01,0.01,0.01,0.002181661564992912,-0.004363323129985824,0.0,0.005596969688094218,0.7268381796216239,1.611243803410767,0,0,0,0,0,0,1500,1500,1500,1500,1500,1500
1748736058.6135304,0.02,0.0,0.04,0.0,-0.003272492347489368,-0.001090830782496456,0.005596969688094218,0.7268381796216239,1.611243803410767,0,0,0,0,0,0,1500,1500,1500,1500,1500,1500
1748736058.71311,0.0,-0.02,0.04,0.007635815477475192,-0.002181661564992912,0.0,0.005596969688094218,0.7268381796216239,1.611243803410767,0,0,0,0,0,0,1500,1500,1500,1500,1500,1500
1748736058.8131008,0.0,-0.02,0.04,0.007635815477475192,-0.002181661564992912,0.0,0.005596969688094218,0.7268381796216239,1.611243803410767,0,0,0,0,0,0,1500,1500,1500,1500,1500,1500
1748736058.8967419,0.0,-0.04,0.04,-0.002181661564992912,0.002181661564992912,0.0,0.005596969688094218,0.7268381796216239,1.611243803410767,0,0,0,0,0,0,1500,1500,1500,1500,1500,1500
1748736058.9938304,0.0,-0.02,0.04,0.002181661564992912,0.002181661564992912,-0.004363323129985824,0.005596969688094218,0.7268381796216239,1.611243803410767,0,0,0,0,0,0,1500,1500,1500,1500,1500,1500
1748736059.0969677,0.0,-0.02,0.04,0.002181661564992912,0.002181661564992912,-0.004363323129985824,0.005596969688094218,0.7268381796216239,1.611243803410767,0,0,0,0,0,0,1500,1500,1500,1500,1500,1500
1748736059.179311,0.0,0.0,0.01,0.001090830782496456,0.001090830782496456,0.001090830782496456,0.005596969688094218,0.7268381796216239,1.611243803410767,0,0,0,0,0,0,1500,1500,1500,1500,1500,1500
1748736059.2801018,0.0,0.0,0.01,0.001090830782496456,0.001090830782496456,0.001090830782496456,0.005596969688094218,0.7268381796216239,1.611243803410767,0,0,0,0,0,0,1500,1500,1500,1500,1500,1500
1748736059.3806105,0.02,0.0,0.03,0.002181661564992912,0.0,0.001090830782496456,0.005596969688094218,0.7268381796216239,1.611243803410767,0,0,0,0,0,0,1500,1500,1500,1500,1500,1500
1748736059.4752717,0.01,-0.02,0.03,0.001090830782496456,0.002181661564992912,-0.001090830782496456,-2.6695175987904087,-1.5707963267948966,2.857533030370897,0,0,0,0,0,0,1500,1500,1500,1500,1500,1500
1748736059.5798523,0.01,-0.02,0.03,0.001090830782496456,0.002181661564992912,-0.001090830782496456,-2.6695175987904087,-1.5707963267948966,2.857533030370897,0,0,0,0,0,0,1500,1500,1500,1500,1500,1500
1748736059.6629398,0.01,-0.03,0.03,0.002181661564992912,0.001090830782496456,0.0,0.005596969688094218,0.7268381796216239,1.611243803410767,0,0,0,0,0,0,1500,1500,1500,1500,1500,1500
1748736059.7636147,0.01,-0.03,0.03,0.002181661564992912,0.001090830782496456,0.0,0.005596969688094218,0.7268381796216239,1.611243803410767,0,0,0,0,0,0,1500,1500,1500,1500,1500,1500
1748736059.8631523,-0.02,0.0,0.03,-0.001090830782496456,0.0,-0.001090830782496456,0.005596969688094218,0.7268381796216239,1.611243803410767,0,0,0,0,0,0,1500,1500,1500,1500,1500,1500
1748736059.9453564,-0.02,0.0,0.03,-0.001090830782496456,0.0,-0.001090830782496456,0.005596969688094218,0.7268381796216239,1.611243803410767,0,0,0,0,0,0,1500,1500,1500,1500,1500,1500
1748736060.045511,0.0,0.02,0.0,-0.001090830782496456,-0.00545415391248228,0.001090830782496456,0.005596969688094218,0.7268381796216239,1.611243803410767,0,0,0,0,0,0,1500,1500,1500,1500,1500,1500
1748736060.146868,0.0,-0.01,0.02,0.0,0.002181661564992912,0.0,0.005596969688094218,0.7268381796216239,1.611243803410767,0,0,0,0,0,0,1500,1500,1500,1500,1500,1500
1748736060.2467031,0.0,-0.01,0.02,0.0,0.002181661564992912,0.0,0.005596969688094218,0.7268381796216239,1.611243803410767,0,0,0,0,0,0,1500,1500,1500,1500,1500,1500
1748736060.3537,0.0,-0.05,0.03,0.0,0.002181661564992912,-0.002181661564992912,0.005596969688094218,0.7268381796216239,1.611243803410767,0,0,0,0,0,0,1500,1500,1500,1500,1500,1500
1748736060.4455075,0.0,-0.04,0.03,-0.002181661564992912,0.003272492347489368,0.0,0.005596969688094218,0.7268381796216239,1.611243803410767,0,0,0,0,0,0,1500,1500,1500,1500,1500,1500
1748736060.5466676,0.0,-0.04,0.03,-0.002181661564992912,0.003272492347489368,0.0,0.005596969688094218,0.7268381796216239,1.611243803410767,0,0,0,0,0,0,1500,1500,1500,1500,1500,1500
1748736060.6467078,0.01,0.0,0.02,-0.001090830782496456,0.003272492347489368,0.001090830782496456,0.005596969688094218,0.7268381796216239,1.611243803410767,0,0,0,0,0,0,1500,1500,1500,1500,1500,1500
1748736060.7430797,0.0,-0.03,0.04,0.0,0.002181661564992912,-0.002181661564992912,0.005596969688094218,0.7268381796216239,1.611243803410767,0,0,0,0,0,0,1500,1500,1500,1500,1500,1500
1748736060.8464355,0.0,-0.03,0.04,0.0,0.002181661564992912,-0.002181661564992912,0.005596969688094218,0.7268381796216239,1.611243803410767,0,0,0,0,0,0,1500,1500,1500,1500,1500,1500
1748736060.9306424,-0.01,0.0,0.05,-0.003272492347489368,-0.002181661564992912,0.001090830782496456,0.005596969688094218,0.7268381796216239,1.611243803410767,0,0,0,0,0,0,1500,1500,1500,1500,1500,1500
1748736061.030025,-0.01,0.0,0.05,-0.003272492347489368,-0.002181661564992912,0.001090830782496456,0.005596969688094218,0.7268381796216239,1.611243803410767,0,0,0,0,0,0,1500,1500,1500,1500,1500,1500
1748736061.1297283,0.01,-0.02,0.06,-0.001090830782496456,0.001090830782496456,-0.001090830782496456,0.005596969688094218,0.7268381796216239,1.611243803410767,0,0,0,0,0,0,1500,1500,1500,1500,1500,1500
1748736061.2293682,0.0,-0.01,0.05,-0.001090830782496456,0.001090830782496456,-0.001090830782496456,0.005596969688094218,0.7268381796216239,1.611243803410767,0,0,0,0,0,0,1500,1500,1500,1500,1500,1500
1748736061.3298748,0.0,-0.01,0.05,-0.001090830782496456,0.001090830782496456,-0.001090830782496456,0.005596969688094218,0.7268381796216239,1.611243803410767,0,0,0,0,0,0,1500,1500,1500,1500,1500,1500
1748736061.4126134,0.0,0.0,0.01,0.002181661564992912,-0.001090830782496456,-0.001090830782496456,0.005596969688094218,0.7268381796216239,1.611243803410767,0,0,0,0,0,0,1500,1500,1500,1500,1500,1500
1748736061.5128195,0.0,0.0,0.01,0.002181661564992912,-0.001090830782496456,-0.001090830782496456,0.005596969688094218,0.7268381796216239,1.611243803410767,0,0,0,0,0,0,1500,1500,1500,1500,1500,1500
1748736061.6127145,0.02,-0.01,0.01,-0.002181661564992912,-0.004363323129985824,-0.001090830782496456,0.005596969688094218,0.7268381796216239,1.611243803410767,0,0,0,0,0,0,1500,1500,1500,1500,1500,1500
1748736061.6961071,0.01,-0.04,0.04,0.0,-0.002181661564992912,0.0,0.005596969688094218,0.7268381796216239,1.611243803410767,0,0,0,0,0,0,1500,1500,1500,1500,1500,1500
1748736061.7969055,0.01,-0.04,0.04,0.0,-0.002181661564992912,0.0,0.005596969688094218,0.7268381796216239,1.611243803410767,0,0,0,0,0,0,1500,1500,1500,1500,1500,1500
1748736061.880189,0.02,-0.06,0.02,0.001090830782496456,-0.003272492347489368,0.0,0.005596969688094218,0.7268381796216239,1.611243803410767,0,0,0,0,0,0,1500,1500,1500,1500,1500,1500
1748736061.9796536,0.02,-0.06,0.02,0.001090830782496456,-0.003272492347489368,0.0,0.005596969688094218,0.7268381796216239,1.611243803410767,0,0,0,0,0,0,1500,1500,1500,1500,1500,1500
1748736062.0790036,0.02,-0.02,-0.01,0.0,0.001090830782496456,0.0,0.005596969688094218,0.7268381796216239,1.611243803410767,0,0,0,0,0,0,1500,1500,1500,1500,1500,1500
1748736062.1625986,0.02,-0.02,-0.01,0.0,0.001090830782496456,0.0,0.005596969688094218,0.7268381796216239,1.611243803410767,0,0,0,0,0,0,1500,1500,1500,1500,1500,1500
1748736062.2629898,0.01,0.01,0.03,0.0,0.0,-0.001090830782496456,0.005596969688094218,0.7268381796216239,1.611243803410767,0,0,0,0,0,0,1500,1500,1500,1500,1500,1500
1748736062.3633902,0.01,-0.01,0.04,0.003272492347489368,0.003272492347489368,0.0,0.005596969688094218,0.7268381796216239,1.611243803410767,0,0,0,0,0,0,1500,1500,1500,1500,1500,1500
1748736062.4623997,0.01,-0.01,0.04,0.003272492347489368,0.003272492347489368,0.0,0.005596969688094218,0.7268381796216239,1.611243803410767,0,0,0,0,0,0,1500,1500,1500,1500,1500,1500
1748736062.5622208,-0.01,-0.03,0.06,-0.002181661564992912,0.001090830782496456,0.002181661564992912,0.005596969688094218,0.7268381796216239,1.611243803410767,0,0,0,0,0,0,1500,1500,1500,1500,1500,1500
1748736062.646761,0.0,-0.02,0.05,0.0,0.0,0.0,0.005596969688094218,0.7268381796216239,1.611243803410767,0,0,0,0,0,0,1500,1500,1500,1500,1500,1500
1748736062.7452219,0.0,-0.02,0.05,0.0,0.0,0.0,0.005596969688094218,0.7268381796216239,1.611243803410767,0,0,0,0,0,0,1500,1500,1500,1500,1500,1500
1748736062.846344,0.0,-0.01,0.02,-0.002181661564992912,-0.003272492347489368,0.001090830782496456,0.005596969688094218,0.7268381796216239,1.611243803410767,0,0,0,0,0,0,1500,1500,1500,1500,1500,1500
1748736062.929266,0.0,-0.01,0.02,-0.002181661564992912,-0.003272492347489368,0.001090830782496456,0.005596969688094218,0.7268381796216239,1.611243803410767,0,0,0,0,0,0,1500,1500,1500,1500,1500,1500
1748736063.0304317,0.0,0.02,0.01,-0.001090830782496456,0.004363323129985824,0.003272492347489368,0.005596969688094218,0.7268381796216239,1.611243803410767,0,0,0,0,0,0,1500,1500,1500,1500,1500,1500
1748736063.1261084,0.01,0.0,0.01,-0.002181661564992912,0.0,0.003272492347489368,0.005596969688094218,0.7268381796216239,1.611243803410767,0,0,0,0,0,0,1500,1500,1500,1500,1500,1500
1748736063.2128792,0.01,0.0,0.01,-0.002181661564992912,0.0,0.003272492347489368,0.005596969688094218,0.7268381796216239,1.611243803410767,0,0,0,0,0,0,1500,1500,1500,1500,1500,1500
1748736063.3140965,0.0,-0.01,0.04,0.001090830782496456,0.001090830782496456,-0.002181661564992912,0.005596969688094218,0.7268381796216239,1.611243803410767,0,0,0,0,0,0,1500,1500,1500,1500,1500,1500
1748736063.3967936,0.0,-0.01,0.04,0.001090830782496456,0.001090830782496456,-0.002181661564992912,0.005596969688094218,0.7268381796216239,1.611243803410767,0,0,0,0,0,0,1500,1500,1500,1500,1500,1500
1748736063.497079,0.0,0.0,0.02,-0.001090830782496456,-0.004363323129985824,-0.001090830782496456,0.005596969688094218,0.7268381796216239,1.611243803410767,0,0,0,0,0,0,1500,1500,1500,1500,1500,1500
1748736063.5961118,0.0,0.0,0.02,-0.001090830782496456,-0.004363323129985824,-0.001090830782496456,0.005596969688094218,0.7268381796216239,1.611243803410767,0,0,0,0,0,0,1500,1500,1500,1500,1500,1500
1748736063.6800349,0.01,-0.01,0.03,0.002181661564992912,0.003272492347489368,0.0,0.005596969688094218,0.7268381796216239,1.611243803410767,0,0,0,0,0,0,1500,1500,1500,1500,1500,1500
1748736063.7801404,-0.25,0.35000000000000003,0.39,-0.003272492347489368,-0.00545415391248228,0.022907446432425576,0.005632425853513078,0.7266638827748525,1.6113750502893314,0,0,0,0,0,0,1500,1500,1500,1500,1500,1500
1748736063.8796084,-0.25,0.35000000000000003,0.39,-0.003272492347489368,-0.00545415391248228,0.022907446432425576,0.005632425853513078,0.7266638827748525,1.6113750502893314,0,0,0,0,0,0,1500,1500,1500,1500,1500,1500
1748736063.9793844,0.47000000000000003,0.19,0.56,-0.006544984694978736,-0.00545415391248228,-0.003272492347489368,0.00566079639338794,0.7267686989074382,1.6112377169042562,0,0,0,0,0,0,1500,1500,1500,1500,1500,1500
1748736064.0768676,0.91,0.05,0.02,-0.016362461737446838,0.00545415391248228,0.08726646259971647,0.0048466728615373655,0.7253556090494927,1.6098042921749636,0,0,0,0,0,0,1500,1500,1500,1500,1500,1500
1748736064.1624303,0.91,0.05,0.02,-0.016362461737446838,0.00545415391248228,0.08726646259971647,0.0048466728615373655,0.7253556090494927,1.6098042921749636,0,0,0,0,0,0,1500,1500,1500,1500,1500,1500
1748736064.2629569,1.16,-0.88,0.07,-0.01090830782496456,0.003272492347489368,0.018544123302439753,0.004912054920037951,0.7251887194653494,1.6105141075320524,0,0,0,0,0,0,1500,1500,1500,1500,1500,1500
1748736064.3632193,1.16,-0.88,0.07,-0.01090830782496456,0.003272492347489368,0.018544123302439753,0.004912054920037951,0.7251887194653494,1.6105141075320524,0,0,0,0,0,0,1500,1500,1500,1500,1500,1500
1748736064.4467905,0.02,-0.26,0.05,-0.007635815477475192,-0.004363323129985824,0.00545415391248228,0.004591029957645,0.7253026680677059,1.6104350155064924,0,0,0,0,0,0,1500,1500,1500,1500,1500,1500
1748736064.5454104,0.02,-0.26,0.05,-0.007635815477475192,-0.004363323129985824,0.00545415391248228,0.004591029957645,0.7253026680677059,1.6104350155064924,0,0,0,0,0,0,1500,1500,1500,1500,1500,1500
1748736064.6453364,-0.19,-0.13,-0.21,-0.006544984694978736,-0.003272492347489368,0.008726646259971648,0.004766312312370643,0.725257117114518,1.610300338767667,0,0,0,0,0,0,1500,1500,1500,1500,1500,1500
1748736064.745603,-1.7,0.23,0.62,0.02181661564992912,0.013089969389957472,0.007635815477475192,0.005115749333320742,0.7252479075824799,1.6102420896157363,0,0,0,0,0,0,1500,1500,1500,1500,1500,1500
1748736064.846891,-1.7,0.23,0.62,0.02181661564992912,0.013089969389957472,0.007635815477475192,0.005115749333320742,0.7252479075824799,1.6102420896157363,0,0,0,0,0,0,1500,1500,1500,1500,1500,1500
1748736064.929771,-0.7000000000000001,0.28,0.68,0.002181661564992912,0.003272492347489368,-0.026179938779914945,0.004055356328769784,0.7250233476960007,1.6097446485224562,0,0,0,0,0,0,1500,1500,1500,1500,1500,1500
1748736065.0288801,-1.51,-0.09,-0.18,0.025089107997418487,0.0272707695624114,-0.09490227807719166,0.0038203560547380565,0.7253693500151569,1.6090420908598357,0,0,0,0,0,0,1500,1500,1500,1500,1500,1500
1748736065.1303859,-1.51,-0.09,-0.18,0.025089107997418487,0.0272707695624114,-0.09490227807719166,0.0038203560547380565,0.7253693500151569,1.6090420908598357,0,0,0,0,0,0,1500,1500,1500,1500,1500,1500
1748736065.2294648,0.45,-0.26,-0.15,0.003272492347489368,-0.009817477042468103,0.008726646259971648,0.0035303597084003387,0.7250933480056987,1.609010960493793,0,0,0,0,0,0,1500,1500,1500,1500,1500,1500
1748736065.3295295,0.45,-0.26,-0.15,0.003272492347489368,-0.009817477042468103,0.008726646259971648,0.0035303597084003387,0.7250933480056987,1.609010960493793,0,0,0,0,0,0,1500,1500,1500,1500,1500,1500
1748736065.4122465,0.05,0.03,-0.02,0.003272492347489368,-0.003272492347489368,-0.002181661564992912,0.0033787916718501848,0.7250278271079783,1.6089246409923703,0,0,0,0,0,0,1500,1500,1500,1500,1500,1500
1748736065.5130284,-0.35000000000000003,0.14,0.15,-0.00545415391248228,-0.003272492347489368,-0.00545415391248228,0.003297008137275214,0.7250266325963793,1.60870507059024,0,0,0,0,0,0,1500,1500,1500,1500,1500,1500
1748736065.6124535,-0.35000000000000003,0.14,0.15,-0.00545415391248228,-0.003272492347489368,-0.00545415391248228,0.003297008137275214,0.7250266325963793,1.60870507059024,0,0,0,0,0,0,1500,1500,1500,1500,1500,1500
1748736065.6971333,-0.19,0.49,-0.62,-0.002181661564992912,-0.00545415391248228,-0.002181661564992912,0.0031914400933081596,0.7251364234486527,1.6087065977985742,0,0,0,0,0,0,1500,1500,1500,1500,1500,1500
1748736065.7962608,-0.19,0.49,-0.62,-0.002181661564992912,-0.00545415391248228,-0.002181661564992912,0.0031914400933081596,0.7251364234486527,1.6087065977985742,0,0,0,0,0,0,1500,1500,1500,1500,1500,1500
1748736065.896493,0.23,0.21,-0.08,0.003272492347489368,0.001090830782496456,0.006544984694978736,0.0028122101996111556,0.725137926688857,1.6081869235176418,0,0,0,0,0,0,1500,1500,1500,1500,1500,1500
1748736065.996863,-0.73,-0.1,-0.52,0.01090830782496456,0.009817477042468103,-0.022907446432425576,0.002411119066092805,0.7248530237785142,1.6073588893788353,0,0,0,0,0,0,1500,1500,1500,1500,1500,1500
1748736066.0967507,-0.73,-0.1,-0.52,0.01090830782496456,0.009817477042468103,-0.022907446432425576,0.002411119066092805,0.7248530237785142,1.6073588893788353,0,0,0,0,0,0,1500,1500,1500,1500,1500,1500
1748736066.1796346,0.58,-0.32,0.0,0.008726646259971648,-0.003272492347489368,-0.013089969389957472,0.0018404389782005102,0.7247472013880528,1.6065382727956263,0,0,0,0,0,0,1500,1500,1500,1500,1500,1500
1748736066.2793975,0.58,-0.32,0.0,0.008726646259971648,-0.003272492347489368,-0.013089969389957472,0.0018404389782005102,0.7247472013880528,1.6065382727956263,0,0,0,0,0,0,1500,1500,1500,1500,1500,1500
1748736066.379026,-0.09,0.04,0.02,-0.002181661564992912,-0.007635815477475192,0.003272492347489368,0.001950275811771728,0.7248531034003355,1.6066201917867737,0,0,0,0,0,0,1500,1500,1500,1500,1500,1500
1748736066.4793308,-0.58,-0.06,-0.16,-0.00545415391248228,0.0,0.004363323129985824,0.0022476168256483557,0.724850555504841,1.606920072187743,0,0,0,0,0,0,1500,1500,1500,1500,1500,1500
1748736066.5791352,-0.58,-0.06,-0.16,-0.00545415391248228,0.0,0.004363323129985824,0.0022476168256483557,0.724850555504841,1.606920072187743,0,0,0,0,0,0,1500,1500,1500,1500,1500,1500
1748736066.6630378,0.0,-0.08,0.17,-0.008726646259971648,0.004363323129985824,0.014180800172453928,0.0015833554495198465,0.7247912090813324,1.6064539039686738,0,0,0,0,0,0,1500,1500,1500,1500,1500,1500
1748736066.7625818,0.0,-0.08,0.17,-0.008726646259971648,0.004363323129985824,0.014180800172453928,0.0015833554495198465,0.7247912090813324,1.6064539039686738,0,0,0,0,0,0,1500,1500,1500,1500,1500,1500
1748736066.8632298,0.41000000000000003,0.09,0.38,0.001090830782496456,-0.008726646259971648,0.01090830782496456,0.001904689602514192,0.7246777599001532,1.6065329162567803,0,0,0,0,0,0,1500,1500,1500,1500,1500,1500
1748736066.9461462,-0.2,-0.09,0.37,0.001090830782496456,0.004363323129985824,-0.009817477042468103,0.001465375971342313,0.72496401209605,1.6061024240163655,0,0,0,0,0,0,1500,1500,1500,1500,1500,1500
1748736067.0467322,-0.2,-0.09,0.37,0.001090830782496456,0.004363323129985824,-0.009817477042468103,0.001465375971342313,0.72496401209605,1.6061024240163655,0,0,0,0,0,0,1500,1500,1500,1500,1500,1500
1748736067.14561,0.21,0.32,0.39,-0.007635815477475192,-0.015271630954950384,0.015271630954950384,0.001493396024648949,0.7250686801656491,1.6059649918823475,0,0,0,0,0,0,1500,1500,1500,1500,1500,1500
1748736067.2456646,0.21,0.32,0.39,-0.007635815477475192,-0.015271630954950384,0.015271630954950384,0.001493396024648949,0.7250686801656491,1.6059649918823475,0,0,0,0,0,0,1500,1500,1500,1500,1500,1500
1748736067.3459282,-0.02,-0.08,-0.02,0.003272492347489368,0.0,-0.002181661564992912,0.0014207560530129122,0.725416906997332,1.6057006784784615,0,0,0,0,0,0,1500,1500,1500,1500,1500,1500
1748736067.4290733,0.01,0.01,0.0,0.0,0.0,-0.001090830782496456,0.0011771305130236877,0.72531593046144,1.6057575555336667,0,0,0,0,0,0,1500,1500,1500,1500,1500,1500
1748736067.5298698,0.01,0.01,0.0,0.0,0.0,-0.001090830782496456,0.0011771305130236877,0.72531593046144,1.6057575555336667,0,0,0,0,0,0,1500,1500,1500,1500,1500,1500
1748736067.6291554,-0.01,0.04,0.02,-0.001090830782496456,-0.001090830782496456,0.0,0.0012829946661923985,0.7252062416121378,1.6057561481208924,0,0,0,0,0,0,1500,1500,1500,1500,1500,1500
1748736067.729626,-0.01,0.01,0.01,0.001090830782496456,0.008726646259971648,-0.001090830782496456,0.0012829946661923985,0.7252062416121378,1.6057561481208924,0,0,0,0,0,0,1500,1500,1500,1500,1500,1500
1748736067.8290856,-0.01,0.01,0.01,0.001090830782496456,0.008726646259971648,-0.001090830782496456,0.0012829946661923985,0.7252062416121378,1.6057561481208924,0,0,0,0,0,0,1500,1500,1500,1500,1500,1500
1748736067.9125237,-0.02,0.0,0.06,-0.001090830782496456,0.001090830782496456,0.0,0.0012829946661923985,0.7252062416121378,1.6057561481208924,0,0,0,0,0,0,1500,1500,1500,1500,1500,1500
1748736068.01244,-0.02,0.0,0.06,-0.001090830782496456,0.001090830782496456,0.0,0.0012829946661923985,0.7252062416121378,1.6057561481208924,0,0,0,0,0,0,1500,1500,1500,1500,1500,1500
1748736068.1125193,0.0,0.01,0.01,-0.003272492347489368,0.002181661564992912,0.0,0.001388841220234266,0.725096563425702,1.6057547408213821,0,0,0,0,0,0,1500,1500,1500,1500,1500,1500
1748736068.195769,0.0,0.01,0.01,-0.003272492347489368,0.002181661564992912,0.0,0.001388841220234266,0.725096563425702,1.6057547408213821,0,0,0,0,0,0,1500,1500,1500,1500,1500,1500
1748736068.2960856,0.0,0.03,0.0,0.0,0.002181661564992912,-0.001090830782496456,0.001388841220234266,0.725096563425702,1.6057547408213821,0,0,0,0,0,0,1500,1500,1500,1500,1500,1500
1748736068.3957655,0.0,0.01,-0.01,-0.001090830782496456,-0.001090830782496456,0.0,0.001388841220234266,0.725096563425702,1.6057547408213821,0,0,0,0,0,0,1500,1500,1500,1500,1500,1500
1748736068.4981973,0.0,0.01,-0.01,-0.001090830782496456,-0.001090830782496456,0.0,0.001388841220234266,0.725096563425702,1.6057547408213821,0,0,0,0,0,0,1500,1500,1500,1500,1500,1500
1748736068.5956151,0.0,0.01,0.01,0.0,-0.002181661564992912,-0.002181661564992912,0.001388841220234266,0.725096563425702,1.6057547408213821,0,0,0,0,0,0,1500,1500,1500,1500,1500,1500
1748736068.6791627,0.0,0.01,0.01,0.0,-0.002181661564992912,-0.002181661564992912,0.001388841220234266,0.725096563425702,1.6057547408213821,0,0,0,0,0,0,1500,1500,1500,1500,1500,1500
1748736068.7799964,0.0,-0.01,0.03,0.001090830782496456,0.0,0.0,0.001388841220234266,0.725096563425702,1.6057547408213821,0,0,0,0,0,0,1500,1500,1500,1500,1500,1500
1748736068.879141,0.01,0.0,0.06,0.0,-0.003272492347489368,-0.001090830782496456,0.001388841220234266,0.725096563425702,1.6057547408213821,0,0,0,0,0,0,1500,1500,1500,1500,1500,1500
1748736068.978724,0.01,0.0,0.06,0.0,-0.003272492347489368,-0.001090830782496456,0.001388841220234266,0.725096563425702,1.6057547408213821,0,0,0,0,0,0,1500,1500,1500,1500,1500,1500
1748736069.0856357,0.0,0.06,0.02,0.0,-0.00545415391248228,-0.001090830782496456,0.001388841220234266,0.725096563425702,1.6057547408213821,0,0,0,0,0,0,1500,1500,1500,1500,1500,1500
1748736069.1802194,-0.01,0.04,0.0,0.001090830782496456,0.0,0.0,0.001388841220234266,0.725096563425702,1.6057547408213821,0,0,0,0,0,0,1500,1500,1500,1500,1500,1500
1748736069.278686,-0.01,0.04,0.0,0.001090830782496456,0.0,0.0,0.001388841220234266,0.725096563425702,1.6057547408213821,0,0,0,0,0,0,1500,1500,1500,1500,1500,1500
1748736069.3793144,0.01,0.02,0.04,0.002181661564992912,-0.004363323129985824,0.0,0.001388841220234266,0.725096563425702,1.6057547408213821,0,0,0,0,0,0,1500,1500,1500,1500,1500,1500
1748736069.4795413,0.01,0.02,0.04,0.002181661564992912,-0.004363323129985824,0.0,0.001388841220234266,0.725096563425702,1.6057547408213821,0,0,0,0,0,0,1500,1500,1500,1500,1500,1500
1748736069.580183,-0.01,0.0,0.07,-0.001090830782496456,0.0,0.001090830782496456,0.001388841220234266,0.725096563425702,1.6057547408213821,0,0,0,0,0,0,1500,1500,1500,1500,1500,1500
1748736069.6626372,-0.01,-0.01,0.04,0.002181661564992912,0.001090830782496456,0.0,0.001388841220234266,0.725096563425702,1.6057547408213821,0,0,0,0,0,0,1500,1500,1500,1500,1500,1500
1748736069.7622766,-0.01,-0.01,0.04,0.002181661564992912,0.001090830782496456,0.0,0.001388841220234266,0.725096563425702,1.6057547408213821,0,0,0,0,0,0,1500,1500,1500,1500,1500,1500
1748736069.862755,0.0,0.03,0.0,-0.001090830782496456,0.004363323129985824,-0.003272492347489368,0.001388841220234266,0.725096563425702,1.6057547408213821,0,0,0,0,0,0,1500,1500,1500,1500,1500,1500
1748736069.946651,0.0,0.03,0.0,-0.001090830782496456,0.004363323129985824,-0.003272492347489368,0.001388841220234266,0.725096563425702,1.6057547408213821,0,0,0,0,0,0,1500,1500,1500,1500,1500,1500
1748736070.0468063,0.0,0.03,0.0,0.0,-0.001090830782496456,0.0,0.001388841220234266,0.725096563425702,1.6057547408213821,0,0,0,0,0,0,1500,1500,1500,1500,1500,1500
1748736070.1456544,0.0,0.03,0.01,-0.002181661564992912,0.0,0.001090830782496456,0.001388841220234266,0.725096563425702,1.6057547408213821,0,0,0,0,0,0,1500,1500,1500,1500,1500,1500
1748736070.2461483,0.0,0.03,0.01,-0.002181661564992912,0.0,0.001090830782496456,0.001388841220234266,0.725096563425702,1.6057547408213821,0,0,0,0,0,0,1500,1500,1500,1500,1500,1500
1748736070.3455007,0.01,0.0,-0.01,-0.001090830782496456,0.0,0.0,0.001388841220234266,0.725096563425702,1.6057547408213821,0,0,0,0,0,0,1500,1500,1500,1500,1500,1500
1748736070.4291172,0.01,0.0,-0.01,-0.001090830782496456,0.0,0.0,0.001388841220234266,0.725096563425702,1.6057547408213821,0,0,0,0,0,0,1500,1500,1500,1500,1500,1500
1748736070.5295334,0.0,0.01,0.03,0.0,-0.00545415391248228,0.001090830782496456,0.001388841220234266,0.725096563425702,1.6057547408213821,0,0,0,0,0,0,1500,1500,1500,1500,1500,1500
1748736070.629528,0.01,0.03,0.03,0.002181661564992912,-0.001090830782496456,-0.002181661564992912,0.001388841220234266,0.725096563425702,1.6057547408213821,0,0,0,0,0,0,1500,1500,1500,1500,1500,1500
1748736070.7293046,0.01,0.03,0.03,0.002181661564992912,-0.001090830782496456,-0.002181661564992912,0.001388841220234266,0.725096563425702,1.6057547408213821,0,0,0,0,0,0,1500,1500,1500,1500,1500,1500
1748736070.8287568,0.0,0.04,0.03,-0.002181661564992912,0.001090830782496456,0.0,0.001388841220234266,0.725096563425702,1.6057547408213821,0,0,0,0,0,0,1500,1500,1500,1500,1500,1500
1748736070.9119651,0.0,0.04,0.03,-0.002181661564992912,0.001090830782496456,0.0,0.001388841220234266,0.725096563425702,1.6057547408213821,0,0,0,0,0,0,1500,1500,1500,1500,1500,1500
1748736071.0117643,0.0,0.03,0.0,-0.002181661564992912,0.004363323129985824,-0.001090830782496456,0.001388841220234266,0.725096563425702,1.6057547408213821,0,0,0,0,0,0,1500,1500,1500,1500,1500,1500
1748736071.1123922,0.0,0.05,0.02,0.002181661564992912,-0.004363323129985824,0.0,0.001388841220234266,0.725096563425702,1.6057547408213821,0,0,0,0,0,0,1500,1500,1500,1500,1500,1500
1748736071.1954746,0.0,0.05,0.02,0.002181661564992912,-0.004363323129985824,0.0,0.001388841220234266,0.725096563425702,1.6057547408213821,0,0,0,0,0,0,1500,1500,1500,1500,1500,1500
1748736071.2953684,-0.02,0.0,0.05,0.003272492347489368,-0.003272492347489368,-0.003272492347489368,0.001388841220234266,0.725096563425702,1.6057547408213821,0,0,0,0,0,0,1500,1500,1500,1500,1500,1500
1748736071.395232,-0.01,0.0,0.05,0.001090830782496456,0.002181661564992912,0.001090830782496456,0.001388841220234266,0.725096563425702,1.6057547408213821,0,0,0,0,0,0,1500,1500,1500,1500,1500,1500
1748736071.4955838,-0.01,0.0,0.05,0.001090830782496456,0.002181661564992912,0.001090830782496456,0.001388841220234266,0.725096563425702,1.6057547408213821,0,0,0,0,0,0,1500,1500,1500,1500,1500,1500
1748736071.5953443,0.02,0.03,0.08,0.001090830782496456,0.001090830782496456,0.00545415391248228,0.001388841220234266,0.725096563425702,1.6057547408213821,0,0,0,0,0,0,1500,1500,1500,1500,1500,1500
1748736071.6787922,0.02,0.03,0.08,0.001090830782496456,0.001090830782496456,0.00545415391248228,0.001388841220234266,0.725096563425702,1.6057547408213821,0,0,0,0,0,0,1500,1500,1500,1500,1500,1500
1748736071.7786539,-0.28,0.49,-0.04,0.007635815477475192,-0.015271630954950384,-0.01090830782496456,0.0013472981850869057,0.7251368216577834,1.6057509075138867,0,0,0,0,0,0,1500,1500,1500,1500,1500,1500
1748736071.8739283,0.03,0.3,-0.9,-0.004363323129985824,0.00545415391248228,0.0,0.0013927923573528052,0.725312206620428,1.6058380938148131,0,0,0,0,0,0,1500,1500,1500,1500,1500,1500
1748736071.962524,0.03,0.3,-0.9,-0.004363323129985824,0.00545415391248228,0.0,0.0013927923573528052,0.725312206620428,1.6058380938148131,0,0,0,0,0,0,1500,1500,1500,1500,1500,1500
1748736072.0629194,-0.16,0.06,-0.17,0.00545415391248228,0.002181661564992912,-0.026179938779914945,0.001438321390794162,0.725487598939625,1.6059253336108157,0,0,0,0,0,0,1500,1500,1500,1500,1500,1500
1748736072.1466439,-0.16,0.06,-0.17,0.00545415391248228,0.002181661564992912,-0.026179938779914945,0.001438321390794162,0.725487598939625,1.6059253336108157,0,0,0,0,0,0,1500,1500,1500,1500,1500,1500
1748736072.245234,0.0,-0.02,0.05,-0.004363323129985824,-0.006544984694978736,0.007635815477475192,0.001776177149549137,0.7255266960063224,1.6064409113739249,0,0,0,0,0,0,1500,1500,1500,1500,1500,1500
1748736072.3456516,0.0,-0.02,0.05,-0.004363323129985824,-0.006544984694978736,0.007635815477475192,0.001776177149549137,0.7255266960063224,1.6064409113739249,0,0,0,0,0,0,1500,1500,1500,1500,1500,1500
1748736072.429228,0.03,0.08,0.02,0.004363323129985824,0.001090830782496456,-0.001090830782496456,0.001776177149549137,0.7255266960063224,1.6064409113739249,0,0,0,0,0,0,1500,1500,1500,1500,1500,1500
1748736072.5298154,0.0,0.02,0.03,0.001090830782496456,0.001090830782496456,0.0,0.001776177149549137,0.7255266960063224,1.6064409113739249,0,0,0,0,0,0,1500,1500,1500,1500,1500,1500
1748736072.6294866,0.0,0.02,0.03,0.001090830782496456,0.001090830782496456,0.0,0.001776177149549137,0.7255266960063224,1.6064409113739249,0,0,0,0,0,0,1500,1500,1500,1500,1500,1500
1748736072.7291718,0.0,0.0,0.03,-0.002181661564992912,-0.001090830782496456,0.0,0.001776177149549137,0.7255266960063224,1.6064409113739249,0,0,0,0,0,0,1500,1500,1500,1500,1500,1500
1748736072.8247178,0.0,0.0,0.01,0.001090830782496456,-0.002181661564992912,-0.001090830782496456,0.001776177149549137,0.7255266960063224,1.6064409113739249,0,0,0,0,0,0,1500,1500,1500,1500,1500,1500
1748736072.9125896,0.0,0.0,0.01,0.001090830782496456,-0.002181661564992912,-0.001090830782496456,0.001776177149549137,0.7255266960063224,1.6064409113739249,0,0,0,0,0,0,1500,1500,1500,1500,1500,1500
1748736073.0118778,-0.01,0.01,0.06,-0.001090830782496456,0.002181661564992912,-0.001090830782496456,0.001776177149549137,0.7255266960063224,1.6064409113739249,0,0,0,0,0,0,1500,1500,1500,1500,1500,1500
1748736073.1122909,-0.01,0.01,0.06,-0.001090830782496456,0.002181661564992912,-0.001090830782496456,0.001776177149549137,0.7255266960063224,1.6064409113739249,0,0,0,0,0,0,1500,1500,1500,1500,1500,1500
1748736073.195822,-0.02,0.0,0.0,0.002181661564992912,0.003272492347489368,0.0,0.001776177149549137,0.7255266960063224,1.6064409113739249,0,0,0,0,0,0,1500,1500,1500,1500,1500,1500
1748736073.2962847,-0.02,0.0,0.0,0.002181661564992912,0.003272492347489368,0.0,0.001776177149549137,0.7255266960063224,1.6064409113739249,0,0,0,0,0,0,1500,1500,1500,1500,1500,1500
1748736073.3959293,0.0,0.0,0.02,-0.003272492347489368,-0.003272492347489368,-0.003272492347489368,0.001776177149549137,0.7255266960063224,1.6064409113739249,0,0,0,0,0,0,1500,1500,1500,1500,1500,1500
1748736073.4956715,0.33,0.08,0.05,0.002181661564992912,-0.00545415391248228,0.00545415391248228,0.001776177149549137,0.7255266960063224,1.6064409113739249,0,0,0,0,0,0,1500,1500,1500,1500,1500,1500
1748736073.596208,0.33,0.08,0.05,0.002181661564992912,-0.00545415391248228,0.00545415391248228,0.001776177149549137,0.7255266960063224,1.6064409113739249,0,0,0,0,0,0,1500,1500,1500,1500,1500,1500
1748736073.6790407,-0.01,0.01,-0.02,-0.004363323129985824,-0.003272492347489368,0.00545415391248228,0.0018177435817333957,0.7254863939827914,1.6064448220375414,0,0,0,0,0,0,1500,1500,1500,1500,1500,1500
1748736073.7741253,0.21,-0.04,0.06,-0.003272492347489368,-0.003272492347489368,-0.015271630954950384,0.0017814978820802538,0.7256605186178936,1.6063127342092218,0,0,0,0,0,0,1500,1500,1500,1500,1500,1500
1748736073.8794513,0.21,-0.04,0.06,-0.003272492347489368,-0.003272492347489368,-0.015271630954950384,0.0017814978820802538,0.7256605186178936,1.6063127342092218,0,0,0,0,0,0,1500,1500,1500,1500,1500,1500
1748736073.9795878,-0.24,0.21,0.13,-0.00545415391248228,-0.013089969389957472,0.01090830782496456,0.0017721227418128465,0.7253110118077349,1.6063574645055103,0,0,0,0,0,0,1500,1500,1500,1500,1500,1500
1748736074.0795963,-0.24,0.21,0.13,-0.00545415391248228,-0.013089969389957472,0.01090830782496456,0.0017721227418128465,0.7253110118077349,1.6063574645055103,0,0,0,0,0,0,1500,1500,1500,1500,1500,1500
1748736074.1623201,-0.09,0.05,0.06,0.001090830782496456,0.002181661564992912,-0.00545415391248228,0.0019543774224621254,0.7250687199841654,1.6067035823152132,0,0,0,0,0,0,1500,1500,1500,1500,1500,1500
1748736074.2627618,0.02,0.01,-0.01,0.002181661564992912,0.001090830782496456,0.001090830782496456,0.0019543774224621254,0.7250687199841654,1.6067035823152132,0,0,0,0,0,0,1500,1500,1500,1500,1500,1500
1748736074.362206,0.02,0.01,-0.01,0.002181661564992912,0.001090830782496456,0.001090830782496456,0.0019543774224621254,0.7250687199841654,1.6067035823152132,0,0,0,0,0,0,1500,1500,1500,1500,1500,1500
1748736074.4451957,0.15,-0.05,0.31,-0.001090830782496456,-0.003272492347489368,-0.001090830782496456,0.001950275811771728,0.7248531034003355,1.6066201917867737,0,0,0,0,0,0,1500,1500,1500,1500,1500,1500
1748736074.5455053,0.15,-0.05,0.31,-0.001090830782496456,-0.003272492347489368,-0.001090830782496456,0.001950275811771728,0.7248531034003355,1.6066201917867737,0,0,0,0,0,0,1500,1500,1500,1500,1500,1500
1748736074.645806,0.5700000000000001,0.07,-0.39,0.002181661564992912,0.013089969389957472,-0.014180800172453928,0.002275737199629048,0.7249552329616495,1.6067826595042942,0,0,0,0,0,0,1500,1500,1500,1500,1500,1500
1748736074.7455838,-0.37,0.05,0.13,0.0,-0.00545415391248228,0.006544984694978736,0.0023076697727142234,0.7245655459865086,1.606831270658443,0,0,0,0,0,0,1500,1500,1500,1500,1500,1500
1748736074.8458776,-0.37,0.05,0.13,0.0,-0.00545415391248228,0.006544984694978736,0.0023076697727142234,0.7245655459865086,1.606831270658443,0,0,0,0,0,0,1500,1500,1500,1500,1500,1500
1748736074.929015,0.13,-0.12,0.04,0.004363323129985824,0.001090830782496456,0.0,0.0021617302420139026,0.7246337466764512,1.6066173089118199,0,0,0,0,0,0,1500,1500,1500,1500,1500,1500
1748736075.0282645,0.13,-0.12,0.04,0.004363323129985824,0.001090830782496456,0.0,0.0021617302420139026,0.7246337466764512,1.6066173089118199,0,0,0,0,0,0,1500,1500,1500,1500,1500,1500
1748736075.1292357,0.0,-0.05,0.05,0.0,0.003272492347489368,0.0,0.0022674311384769754,0.724524084287978,1.606615867648258,0,0,0,0,0,0,1500,1500,1500,1500,1500,1500
1748736075.2279046,0.0,0.02,0.02,-0.001090830782496456,-0.00545415391248228,0.001090830782496456,0.0023076697727142234,0.7245655459865086,1.606831270658443,0,0,0,0,0,0,1500,1500,1500,1500,1500,1500
1748736075.3284442,0.0,0.02,0.02,-0.001090830782496456,-0.00545415391248228,0.001090830782496456,0.0023076697727142234,0.7245655459865086,1.606831270658443,0,0,0,0,0,0,1500,1500,1500,1500,1500,1500
1748736075.4125116,0.0,0.02,0.04,-0.001090830782496456,-0.001090830782496456,0.001090830782496456,0.0023076697727142234,0.7245655459865086,1.606831270658443,0,0,0,0,0,0,1500,1500,1500,1500,1500,1500
1748736075.512699,0.0,0.02,0.04,-0.001090830782496456,-0.001090830782496456,0.001090830782496456,0.0023076697727142234,0.7245655459865086,1.606831270658443,0,0,0,0,0,0,1500,1500,1500,1500,1500,1500
1748736075.6129572,-0.01,-0.03,0.01,0.001090830782496456,0.0,0.0,0.0023076697727142234,0.7245655459865086,1.606831270658443,0,0,0,0,0,0,1500,1500,1500,1500,1500,1500
1748736075.6960187,-0.01,-0.01,0.01,0.003272492347489368,-0.003272492347489368,0.001090830782496456,0.0023076697727142234,0.7245655459865086,1.606831270658443,0,0,0,0,0,0,1500,1500,1500,1500,1500,1500
1748736075.796007,-0.01,-0.01,0.01,0.003272492347489368,-0.003272492347489368,0.001090830782496456,0.0023076697727142234,0.7245655459865086,1.606831270658443,0,0,0,0,0,0,1500,1500,1500,1500,1500,1500
1748736075.8957167,0.0,-0.01,0.04,-0.002181661564992912,0.0,-0.001090830782496456,0.0023076697727142234,0.7245655459865086,1.606831270658443,0,0,0,0,0,0,1500,1500,1500,1500,1500,1500
1748736075.993686,0.01,0.02,0.0,0.0,-0.001090830782496456,0.002181661564992912,0.0023076697727142234,0.7245655459865086,1.606831270658443,0,0,0,0,0,0,1500,1500,1500,1500,1500,1500
1748736076.095358,0.01,0.02,0.0,0.0,-0.001090830782496456,0.002181661564992912,0.0023076697727142234,0.7245655459865086,1.606831270658443,0,0,0,0,0,0,1500,1500,1500,1500,1500,1500
1748736076.1796246,-0.01,0.01,0.04,-0.002181661564992912,-0.003272492347489368,0.001090830782496456,0.0023076697727142234,0.7245655459865086,1.606831270658443,0,0,0,0,0,0,1500,1500,1500,1500,1500,1500
1748736076.2794027,-0.01,0.01,0.04,-0.002181661564992912,-0.003272492347489368,0.001090830782496456,0.0023076697727142234,0.7245655459865086,1.606831270658443,0,0,0,0,0,0,1500,1500,1500,1500,1500,1500
1748736076.3793643,-0.87,0.54,0.15,-0.014180800172453928,0.019634954084936207,0.019634954084936207,0.002283690120626491,0.7246764562959668,1.607052078292666,0,0,0,0,0,0,1500,1500,1500,1500,1500,1500
1748736076.478392,0.06,-0.11,0.0,-0.001090830782496456,-0.004363323129985824,-0.001090830782496456,0.002393572984082119,0.7247823417215833,1.6071340231851394,0,0,0,0,0,0,1500,1500,1500,1500,1500,1500
1748736076.5793953,0.06,-0.11,0.0,-0.001090830782496456,-0.004363323129985824,-0.001090830782496456,0.002393572984082119,0.7247823417215833,1.6071340231851394,0,0,0,0,0,0,1500,1500,1500,1500,1500,1500
1748736076.6628036,-0.16,-0.13,-0.06,0.00545415391248228,0.002181661564992912,-0.007635815477475192,0.002411119066092805,0.7248530237785142,1.6073588893788353,0,0,0,0,0,0,1500,1500,1500,1500,1500,1500
1748736076.7615657,-0.16,-0.13,-0.06,0.00545415391248228,0.002181661564992912,-0.007635815477475192,0.002411119066092805,0.7248530237785142,1.6073588893788353,0,0,0,0,0,0,1500,1500,1500,1500,1500,1500
1748736076.862018,0.08,-0.01,0.01,0.001090830782496456,-0.001090830782496456,0.001090830782496456,0.0024068838585316814,0.7246374483782497,1.6072754556889144,0,0,0,0,0,0,1500,1500,1500,1500,1500,1500
1748736076.9466727,0.08,-0.01,0.01,0.001090830782496456,-0.001090830782496456,0.001090830782496456,0.0024068838585316814,0.7246374483782497,1.6072754556889144,0,0,0,0,0,0,1500,1500,1500,1500,1500,1500
1748736077.046244,0.0,-0.02,0.0,0.00545415391248228,-0.001090830782496456,-0.001090830782496456,0.0024068838585316814,0.7246374483782497,1.6072754556889144,0,0,0,0,0,0,1500,1500,1500,1500,1500,1500
1748736077.1460683,0.0,-0.01,0.02,0.001090830782496456,0.001090830782496456,-0.00545415391248228,0.0024068838585316814,0.7246374483782497,1.6072754556889144,0,0,0,0,0,0,1500,1500,1500,1500,1500,1500
1748736077.2456367,0.0,-0.01,0.02,0.001090830782496456,0.001090830782496456,-0.00545415391248228,0.0024068838585316814,0.7246374483782497,1.6072754556889144,0,0,0,0,0,0,1500,1500,1500,1500,1500,1500
1748736077.345984,0.01,0.01,0.0,-0.001090830782496456,-0.003272492347489368,0.002181661564992912,0.0024068838585316814,0.7246374483782497,1.6072754556889144,0,0,0,0,0,0,1500,1500,1500,1500,1500,1500
1748736077.4296286,0.01,0.01,0.0,-0.001090830782496456,-0.003272492347489368,0.002181661564992912,0.0024068838585316814,0.7246374483782497,1.6072754556889144,0,0,0,0,0,0,1500,1500,1500,1500,1500,1500
1748736077.5291786,0.12,0.07,0.08,-0.001090830782496456,-0.004363323129985824,0.004363323129985824,0.0024068838585316814,0.7246374483782497,1.6072754556889144,0,0,0,0,0,0,1500,1500,1500,1500,1500,1500
1748736077.6296878,0.05,0.0,-0.02,0.001090830782496456,0.002181661564992912,-0.006544984694978736,0.002255526305995851,0.7245718245765157,1.6071895281550506,0,0,0,0,0,0,1500,1500,1500,1500,1500,1500
1748736077.729141,0.05,0.0,-0.02,0.001090830782496456,0.002181661564992912,-0.006544984694978736,0.002255526305995851,0.7245718245765157,1.6071895281550506,0,0,0,0,0,0,1500,1500,1500,1500,1500,1500
1748736077.8291695,0.29,0.05,0.18,0.001090830782496456,-0.004363323129985824,0.019634954084936207,0.0021456623047081172,0.7244659688310184,1.6071076275510143,0,0,0,0,0,0,1500,1500,1500,1500,1500,1500
1748736077.91257,-0.47000000000000003,-0.03,0.33,0.0,0.002181661564992912,0.00545415391248228,0.0022434481445129926,0.7246349805757029,1.6068366723671554,0,0,0,0,0,0,1500,1500,1500,1500,1500,1500
1748736078.0134807,-0.47000000000000003,-0.03,0.33,0.0,0.002181661564992912,0.00545415391248228,0.0022434481445129926,0.7246349805757029,1.6068366723671554,0,0,0,0,0,0,1500,1500,1500,1500,1500,1500
1748736078.1122367,0.2,-0.1,-0.24,0.002181661564992912,-0.011999138607461015,0.004363323129985824,0.0017306198128742437,0.7246413093059537,1.6064563800193086,0,0,0,0,0,0,1500,1500,1500,1500,1500,1500
1748736078.2014923,0.2,-0.1,-0.24,0.002181661564992912,-0.011999138607461015,0.004363323129985824,0.0017306198128742437,0.7246413093059537,1.6064563800193086,0,0,0,0,0,0,1500,1500,1500,1500,1500,1500
1748736078.2968667,-0.11,0.19,-0.05,-0.002181661564992912,0.006544984694978736,-0.00545415391248228,0.0017708421714562885,0.7246828051610696,1.606671810524963,0,0,0,0,0,0,1500,1500,1500,1500,1500,1500
1748736078.3967412,-0.37,0.35000000000000003,0.23,-0.003272492347489368,0.002181661564992912,0.009817477042468103,0.0017252827112648303,0.7245074582459318,1.6065845820515319,0,0,0,0,0,0,1500,1500,1500,1500,1500,1500
1748736078.496049,-0.37,0.35000000000000003,0.23,-0.003272492347489368,0.002181661564992912,0.009817477042468103,0.0017252827112648303,0.7245074582459318,1.6065845820515319,0,0,0,0,0,0,1500,1500,1500,1500,1500,1500
1748736078.5953019,0.37,-0.02,-0.06,0.006544984694978736,0.003272492347489368,-0.008726646259971648,0.0018350934181927151,0.7246133477309322,1.6066664348002873,0,0,0,0,0,0,1500,1500,1500,1500,1500,1500
1748736078.6799214,0.37,-0.02,-0.06,0.006544984694978736,0.003272492347489368,-0.008726646259971648,0.0018350934181927151,0.7246133477309322,1.6066664348002873,0,0,0,0,0,0,1500,1500,1500,1500,1500,1500
1748736078.7786183,-0.31,0.02,0.03,0.004363323129985824,0.002181661564992912,0.001090830782496456,0.0018350934181927151,0.7246133477309322,1.6066664348002873,0,0,0,0,0,0,1500,1500,1500,1500,1500,1500
1748736078.8788064,0.37,0.04,-0.04,-0.003272492347489368,0.00545415391248228,-0.002181661564992912,0.0018765761088000536,0.7245731280599563,1.606670367942604,0,0,0,0,0,0,1500,1500,1500,1500,1500,1500
1748736078.9618223,0.37,0.04,-0.04,-0.003272492347489368,0.00545415391248228,-0.002181661564992912,0.0018765761088000536,0.7245731280599563,1.606670367942604,0,0,0,0,0,0,1500,1500,1500,1500,1500,1500
1748736079.0625834,0.08,0.01,0.01,-0.001090830782496456,-0.001090830782496456,-0.003272492347489368,0.0018765761088000536,0.7245731280599563,1.606670367942604,0,0,0,0,0,0,1500,1500,1500,1500,1500,1500
1748736079.145707,0.08,0.01,0.01,-0.001090830782496456,-0.001090830782496456,-0.003272492347489368,0.0018765761088000536,0.7245731280599563,1.606670367942604,0,0,0,0,0,0,1500,1500,1500,1500,1500,1500
1748736079.2453284,-0.02,-0.25,0.09,0.011999138607461015,-0.018544123302439753,-0.013089969389957472,0.001940823214937466,0.7245036773728488,1.606664992650026,0,0,0,0,0,0,1500,1500,1500,1500,1500,1500
1748736079.3361163,0.03,0.0,-0.02,0.007635815477475192,0.001090830782496456,-0.008726646259971648,0.0018644574140948614,0.7246362741812042,1.6063174896830887,0,0,0,0,0,0,1500,1500,1500,1500,1500,1500
1748736079.4286747,0.03,0.0,-0.02,0.007635815477475192,0.001090830782496456,-0.008726646259971648,0.0018644574140948614,0.7246362741812042,1.6063174896830887,0,0,0,0,0,0,1500,1500,1500,1500,1500,1500
1748736079.5293028,0.09,0.04,0.19,0.00545415391248228,0.0,-0.004363323129985824,0.001822971384149387,0.7246765060518241,1.606313595311157,0,0,0,0,0,0,1500,1500,1500,1500,1500,1500
1748736079.6288357,0.09,0.04,0.19,0.00545415391248228,0.0,-0.004363323129985824,0.001822971384149387,0.7246765060518241,1.606313595311157,0,0,0,0,0,0,1500,1500,1500,1500,1500,1500
1748736079.7121763,-0.39,0.11,0.02,0.00545415391248228,0.01090830782496456,0.0,0.0019381004509679963,0.7249162651789899,1.6062673044172,0,0,0,0,0,0,1500,1500,1500,1500,1500,1500
1748736079.810832,0.0,0.03,-0.02,0.004363323129985824,-0.001090830782496456,0.002181661564992912,0.0018965943559688524,0.7249565269340851,1.6062634149992598,0,0,0,0,0,0,1500,1500,1500,1500,1500,1500
1748736079.9091742,0.0,0.03,-0.02,0.004363323129985824,-0.001090830782496456,0.002181661564992912,0.0018965943559688524,0.7249565269340851,1.6062634149992598,0,0,0,0,0,0,1500,1500,1500,1500,1500,1500
1748736079.9955206,-0.91,0.56,0.25,0.015271630954950384,0.011999138607461015,-0.022907446432425576,0.0018725926753176885,0.7250674657015745,1.6064842030870978,0,0,0,0,0,0,1500,1500,1500,1500,1500,1500
1748736080.0954623,-0.91,0.56,0.25,0.015271630954950384,0.011999138607461015,-0.022907446432425576,0.0018725926753176885,0.7250674657015745,1.6064842030870978,0,0,0,0,0,0,1500,1500,1500,1500,1500,1500
1748736080.1796613,-0.02,0.07,0.14,0.01090830782496456,0.00545415391248228,-0.003272492347489368,0.0018725926753176885,0.7250674657015745,1.6064842030870978,0,0,0,0,0,0,1500,1500,1500,1500,1500,1500
1748736080.2787087,-0.02,0.07,0.14,0.01090830782496456,0.00545415391248228,-0.003272492347489368,0.0018725926753176885,0.7250674657015745,1.6064842030870978,0,0,0,0,0,0,1500,1500,1500,1500,1500,1500
1748736080.3788147,-0.1,0.03,0.13,0.003272492347489368,-0.001090830782496456,0.002181661564992912,0.0019526883223596793,0.7251659709477866,1.6059886722832821,0,0,0,0,0,0,1500,1500,1500,1500,1500,1500
1748736080.4620903,0.0,0.09,0.07,0.001090830782496456,0.004363323129985824,0.0,0.0019526883223596793,0.7251659709477866,1.6059886722832821,0,0,0,0,0,0,1500,1500,1500,1500,1500,1500
1748736080.5621917,0.0,0.09,0.07,0.001090830782496456,0.004363323129985824,0.0,0.0019526883223596793,0.7251659709477866,1.6059886722832821,0,0,0,0,0,0,1500,1500,1500,1500,1500,1500
1748736080.6460972,-0.01,0.05,0.01,-0.001090830782496456,0.002181661564992912,0.0,0.0019526883223596793,0.7251659709477866,1.6059886722832821,0,0,0,0,0,0,1500,1500,1500,1500,1500,1500
1748736080.7457047,-0.01,0.05,0.01,-0.001090830782496456,0.002181661564992912,0.0,0.0019526883223596793,0.7251659709477866,1.6059886722832821,0,0,0,0,0,0,1500,1500,1500,1500,1500,1500
1748736080.8452144,0.0,0.01,0.04,0.004363323129985824,0.001090830782496456,-0.002181661564992912,0.0019526883223596793,0.7251659709477866,1.6059886722832821,0,0,0,0,0,0,1500,1500,1500,1500,1500,1500
1748736080.9287293,0.0,-0.01,0.01,0.0,0.0,0.0,0.0019526883223596793,0.7251659709477866,1.6059886722832821,0,0,0,0,0,0,1500,1500,1500,1500,1500,1500
1748736081.029275,0.0,-0.01,0.01,0.0,0.0,0.0,0.0019526883223596793,0.7251659709477866,1.6059886722832821,0,0,0,0,0,0,1500,1500,1500,1500,1500,1500
1748736081.1291578,0.01,0.02,-0.02,0.0,0.002181661564992912,0.0,0.0019526883223596793,0.7251659709477866,1.6059886722832821,0,0,0,0,0,0,1500,1500,1500,1500,1500,1500
1748736081.2293866,0.01,0.02,-0.02,0.0,0.002181661564992912,0.0,0.0019526883223596793,0.7251659709477866,1.6059886722832821,0,0,0,0,0,0,1500,1500,1500,1500,1500,1500
1748736081.328665,-0.01,0.01,0.01,0.002181661564992912,0.001090830782496456,0.001090830782496456,0.0019526883223596793,0.7251659709477866,1.6059886722832821,0,0,0,0,0,0,1500,1500,1500,1500,1500,1500
1748736081.4116964,0.0,0.02,0.02,0.001090830782496456,-0.003272492347489368,0.001090830782496456,0.0019526883223596793,0.7251659709477866,1.6059886722832821,0,0,0,0,0,0,1500,1500,1500,1500,1500,1500
1748736081.5127628,0.0,0.02,0.02,0.001090830782496456,-0.003272492347489368,0.001090830782496456,0.0019526883223596793,0.7251659709477866,1.6059886722832821,0,0,0,0,0,0,1500,1500,1500,1500,1500,1500
1748736081.6119971,-0.01,0.03,0.03,0.00545415391248228,-0.004363323129985824,0.001090830782496456,0.0019526883223596793,0.7251659709477866,1.6059886722832821,0,0,0,0,0,0,1500,1500,1500,1500,1500,1500
1748736081.6958897,-0.01,0.03,0.03,0.00545415391248228,-0.004363323129985824,0.001090830782496456,0.0019526883223596793,0.7251659709477866,1.6059886722832821,0,0,0,0,0,0,1500,1500,1500,1500,1500,1500
1748736081.7968261,-0.01,0.0,0.01,0.002181661564992912,0.0,0.0,0.0019526883223596793,0.7251659709477866,1.6059886722832821,0,0,0,0,0,0,1500,1500,1500,1500,1500,1500
1748736081.8954852,0.0,0.03,-0.03,-0.001090830782496456,0.002181661564992912,0.001090830782496456,0.0019526883223596793,0.7251659709477866,1.6059886722832821,0,0,0,0,0,0,1500,1500,1500,1500,1500,1500
1748736081.9980674,0.0,0.03,-0.03,-0.001090830782496456,0.002181661564992912,0.001090830782496456,0.0019526883223596793,0.7251659709477866,1.6059886722832821,0,0,0,0,0,0,1500,1500,1500,1500,1500,1500
1748736082.0954244,0.0,0.04,0.02,-0.001090830782496456,-0.001090830782496456,0.002181661564992912,0.0019526883223596793,0.7251659709477866,1.6059886722832821,0,0,0,0,0,0,1500,1500,1500,1500,1500,1500
1748736082.178422,0.0,0.04,0.02,-0.001090830782496456,-0.001090830782496456,0.002181661564992912,0.0019526883223596793,0.7251659709477866,1.6059886722832821,0,0,0,0,0,0,1500,1500,1500,1500,1500,1500
