time,ay,ax,az,gy,gx,gz,roll,pitch,yaw,cmd_fx,cmd_fy,cmd_fz,cmd_tx,cmd_ty,cmd_tz,pwm_1,pwm_2,pwm_3,pwm_4,pwm_5,pwm_6
1748733828.375211,0.0,0.0,0.0,0.0,0.0,0.0,0.0,0.0,0.0,0,0,0,0,0,0,1500,1500,1500,1500,1500,1500
1748733828.459437,0.0,0.0,-0.05,0.0,0.0,-0.001090830782496456,0.009750907780957793,0.5523478072830029,0.7229112871087081,0,0,0,0,0,0,1500,1500,1500,1500,1500,1500
1748733828.5597,0.0,0.0,-0.05,0.0,0.0,-0.001090830782496456,0.009750907780957793,0.5523478072830029,0.7229112871087081,0,0,0,0,0,0,1500,1500,1500,1500,1500,1500
1748733828.6597233,-0.01,0.0,-0.04,-0.00545415391248228,-0.002181661564992912,0.001090830782496456,0.009750907780957793,0.5523478072830029,0.7229112871087081,0,0,0,0,0,0,1500,1500,1500,1500,1500,1500
1748733828.7428153,-0.01,0.0,-0.04,-0.00545415391248228,-0.002181661564992912,0.001090830782496456,0.009750907780957793,0.5523478072830029,0.7229112871087081,0,0,0,0,0,0,1500,1500,1500,1500,1500,1500
1748733828.8418944,0.0,-0.02,-0.04,-0.003272492347489368,-0.001090830782496456,0.0,0.016126370191065033,0.5689597308688306,0.7280160516977957,0,0,0,0,0,0,1500,1500,1500,1500,1500,1500
1748733828.94235,0.0,-0.03,-0.06,-0.00545415391248228,-0.002181661564992912,0.0,0.009750907780957793,0.5523478072830029,0.7229112871087081,0,0,0,0,0,0,1500,1500,1500,1500,1500,1500
1748733829.0420516,0.0,-0.03,-0.06,-0.00545415391248228,-0.002181661564992912,0.0,0.009750907780957793,0.5523478072830029,0.7229112871087081,0,0,0,0,0,0,1500,1500,1500,1500,1500,1500
1748733829.1423352,0.02,-0.02,-0.04,0.002181661564992912,0.002181661564992912,0.001090830782496456,0.009750907780957793,0.5523478072830029,0.7229112871087081,0,0,0,0,0,0,1500,1500,1500,1500,1500,1500
1748733829.2261415,0.02,-0.02,-0.04,0.002181661564992912,0.002181661564992912,0.001090830782496456,0.009750907780957793,0.5523478072830029,0.7229112871087081,0,0,0,0,0,0,1500,1500,1500,1500,1500,1500
1748733829.3268838,0.02,0.01,-0.04,0.001090830782496456,0.003272492347489368,0.002181661564992912,0.009750907780957793,0.5523478072830029,0.7229112871087081,0,0,0,0,0,0,1500,1500,1500,1500,1500,1500
1748733829.4262888,0.0,-0.04,0.0,-0.001090830782496456,0.001090830782496456,0.001090830782496456,0.009750907780957793,0.5523478072830029,0.7229112871087081,0,0,0,0,0,0,1500,1500,1500,1500,1500,1500
1748733829.5259173,0.0,-0.04,0.0,-0.001090830782496456,0.001090830782496456,0.001090830782496456,0.009750907780957793,0.5523478072830029,0.7229112871087081,0,0,0,0,0,0,1500,1500,1500,1500,1500,1500
1748733829.6259537,0.0,0.0,-0.05,-0.002181661564992912,-0.002181661564992912,0.003272492347489368,0.009750907780957793,0.5523478072830029,0.7229112871087081,0,0,0,0,0,0,1500,1500,1500,1500,1500,1500
1748733829.7104974,0.0,0.0,-0.05,-0.002181661564992912,-0.002181661564992912,0.003272492347489368,0.009750907780957793,0.5523478072830029,0.7229112871087081,0,0,0,0,0,0,1500,1500,1500,1500,1500,1500
1748733829.8088653,0.0,0.0,-0.01,0.002181661564992912,0.0,0.002181661564992912,0.009750907780957793,0.5523478072830029,0.7229112871087081,0,0,0,0,0,0,1500,1500,1500,1500,1500,1500
1748733829.910427,0.0,0.0,-0.06,0.004363323129985824,0.003272492347489368,0.0,0.009750907780957793,0.5523478072830029,0.7229112871087081,0,0,0,0,0,0,1500,1500,1500,1500,1500,1500
1748733830.009756,0.0,0.0,-0.06,0.004363323129985824,0.003272492347489368,0.0,0.009750907780957793,0.5523478072830029,0.7229112871087081,0,0,0,0,0,0,1500,1500,1500,1500,1500,1500
1748733830.110603,0.0,0.0,-0.02,0.001090830782496456,0.001090830782496456,-0.001090830782496456,0.009750907780957793,0.5523478072830029,0.7229112871087081,0,0,0,0,0,0,1500,1500,1500,1500,1500,1500
1748733830.192478,0.01,0.0,-0.02,0.0,-0.002181661564992912,0.0,0.009750907780957793,0.5523478072830029,0.7229112871087081,0,0,0,0,0,0,1500,1500,1500,1500,1500,1500
1748733830.2929165,0.01,0.0,-0.02,0.0,-0.002181661564992912,0.0,0.009750907780957793,0.5523478072830029,0.7229112871087081,0,0,0,0,0,0,1500,1500,1500,1500,1500,1500
1748733830.3923461,-0.02,0.0,-0.04,0.0,-0.001090830782496456,-0.001090830782496456,0.009750907780957793,0.5523478072830029,0.7229112871087081,0,0,0,0,0,0,1500,1500,1500,1500,1500,1500
1748733830.475838,-0.02,0.0,-0.04,0.0,-0.001090830782496456,-0.001090830782496456,0.009750907780957793,0.5523478072830029,0.7229112871087081,0,0,0,0,0,0,1500,1500,1500,1500,1500,1500
1748733830.5763862,0.0,-0.05,-0.04,0.003272492347489368,0.0,-0.001090830782496456,0.009750907780957793,0.5523478072830029,0.7229112871087081,0,0,0,0,0,0,1500,1500,1500,1500,1500,1500
1748733830.6648135,0.0,-0.01,-0.05,0.002181661564992912,-0.00545415391248228,-0.001090830782496456,0.009750907780957793,0.5523478072830029,0.7229112871087081,0,0,0,0,0,0,1500,1500,1500,1500,1500,1500
1748733830.7595003,0.0,-0.01,-0.05,0.002181661564992912,-0.00545415391248228,-0.001090830782496456,0.009750907780957793,0.5523478072830029,0.7229112871087081,0,0,0,0,0,0,1500,1500,1500,1500,1500,1500
1748733830.8595915,0.0,0.0,-0.03,0.001090830782496456,0.001090830782496456,-0.001090830782496456,0.009750907780957793,0.5523478072830029,0.7229112871087081,0,0,0,0,0,0,1500,1500,1500,1500,1500,1500
1748733830.9426427,0.0,0.0,-0.03,0.001090830782496456,0.001090830782496456,-0.001090830782496456,0.009750907780957793,0.5523478072830029,0.7229112871087081,0,0,0,0,0,0,1500,1500,1500,1500,1500,1500
1748733831.0422673,0.0,0.03,-0.04,0.0,-0.003272492347489368,-0.001090830782496456,0.009750907780957793,0.5523478072830029,0.7229112871087081,0,0,0,0,0,0,1500,1500,1500,1500,1500,1500
1748733831.1412196,-0.53,-0.04,0.05,-0.001090830782496456,0.0,0.006544984694978736,0.009701586903162354,0.5522187021057303,0.7228724858855531,0,0,0,0,0,0,1500,1500,1500,1500,1500,1500
1748733831.22567,-0.53,-0.04,0.05,-0.001090830782496456,0.0,0.006544984694978736,0.009701586903162354,0.5522187021057303,0.7228724858855531,0,0,0,0,0,0,1500,1500,1500,1500,1500,1500
1748733831.3261092,0.04,-0.04,0.02,0.003272492347489368,0.002181661564992912,0.003272492347489368,0.009965907484331439,0.5524415007358532,0.7231388599102969,0,0,0,0,0,0,1500,1500,1500,1500,1500,1500
1748733831.4272742,0.04,-0.04,0.02,0.003272492347489368,0.002181661564992912,0.003272492347489368,0.009965907484331439,0.5524415007358532,0.7231388599102969,0,0,0,0,0,0,1500,1500,1500,1500,1500,1500
1748733831.5255919,-0.17,0.1,0.32,-0.001090830782496456,0.003272492347489368,-0.007635815477475192,0.010028452900253046,0.5525337903576594,0.7231412577800648,0,0,0,0,0,0,1500,1500,1500,1500,1500,1500
1748733831.6215668,-0.35000000000000003,0.0,0.01,-0.004363323129985824,0.001090830782496456,-0.009817477042468103,0.010114659039847693,0.552676103825303,0.7233412951824368,0,0,0,0,0,0,1500,1500,1500,1500,1500,1500
1748733831.712983,-0.35000000000000003,0.0,0.01,-0.004363323129985824,0.001090830782496456,-0.009817477042468103,0.010114659039847693,0.552676103825303,0.7233412951824368,0,0,0,0,0,0,1500,1500,1500,1500,1500,1500
1748733831.8093898,0.04,-0.05,0.01,0.004363323129985824,0.001090830782496456,0.003272492347489368,0.010226624263506023,0.5528975119742006,0.7233826383457248,0,0,0,0,0,0,1500,1500,1500,1500,1500,1500
1748733831.9091682,0.04,-0.05,0.01,0.004363323129985824,0.001090830782496456,0.003272492347489368,0.010226624263506023,0.5528975119742006,0.7233826383457248,0,0,0,0,0,0,1500,1500,1500,1500,1500,1500
1748733831.9925475,-0.33,0.12,-0.07,-0.00545415391248228,0.002181661564992912,0.002181661564992912,0.010239145457047646,0.5530134588847486,0.7232603648021936,0,0,0,0,0,0,1500,1500,1500,1500,1500,1500
1748733832.0914328,-0.33,0.12,-0.07,-0.00545415391248228,0.002181661564992912,0.002181661564992912,0.010239145457047646,0.5530134588847486,0.7232603648021936,0,0,0,0,0,0,1500,1500,1500,1500,1500,1500
1748733832.1921227,-0.04,0.22,-0.32,-0.001090830782496456,0.00545415391248228,-0.006544984694978736,0.01001827231411313,0.5531239501872697,0.723366276825356,0,0,0,0,0,0,1500,1500,1500,1500,1500,1500
1748733832.292807,0.62,0.51,0.2,0.007635815477475192,-0.007635815477475192,-0.006544984694978736,0.009968890333765445,0.5529948007042194,0.7233273661573727,0,0,0,0,0,0,1500,1500,1500,1500,1500,1500
1748733832.3927875,0.62,0.51,0.2,0.007635815477475192,-0.007635815477475192,-0.006544984694978736,0.009968890333765445,0.5529948007042194,0.7233273661573727,0,0,0,0,0,0,1500,1500,1500,1500,1500,1500
1748733832.476155,0.35000000000000003,-0.64,0.32,-0.009817477042468103,0.00545415391248228,0.015271630954950384,0.010072690209810609,0.5527142972207165,0.7235995867113135,0,0,0,0,0,0,1500,1500,1500,1500,1500,1500
1748733832.5753236,0.35000000000000003,-0.64,0.32,-0.009817477042468103,0.00545415391248228,0.015271630954950384,0.010072690209810609,0.5527142972207165,0.7235995867113135,0,0,0,0,0,0,1500,1500,1500,1500,1500,1500
1748733832.6747003,0.22,0.05,-0.19,0.002181661564992912,-0.006544984694978736,-0.011999138607461015,0.009833303834237249,0.5527233226537056,0.7230884164836814,0,0,0,0,0,0,1500,1500,1500,1500,1500,1500
1748733832.758552,0.06,0.02,-0.08,-0.007635815477475192,0.004363323129985824,0.007635815477475192,0.009820094337728668,0.5527601690018414,0.7231248771131407,0,0,0,0,0,0,1500,1500,1500,1500,1500,1500
1748733832.8604617,0.06,0.02,-0.08,-0.007635815477475192,0.004363323129985824,0.007635815477475192,0.009820094337728668,0.5527601690018414,0.7231248771131407,0,0,0,0,0,0,1500,1500,1500,1500,1500,1500
1748733832.958373,0.02,-0.09,-0.04,0.0,0.0,0.0,0.009820094337728668,0.5527601690018414,0.7231248771131407,0,0,0,0,0,0,1500,1500,1500,1500,1500,1500
1748733833.060406,0.08,-0.05,-0.01,0.002181661564992912,-0.004363323129985824,-0.003272492347489368,0.00970444149265151,0.5527719523063113,0.7230607888563736,0,0,0,0,0,0,1500,1500,1500,1500,1500,1500
1748733833.1592627,0.08,-0.05,-0.01,0.002181661564992912,-0.004363323129985824,-0.003272492347489368,0.00970444149265151,0.5527719523063113,0.7230607888563736,0,0,0,0,0,0,1500,1500,1500,1500,1500,1500
1748733833.2429163,-0.5700000000000001,-0.05,0.15,0.001090830782496456,-0.008726646259971648,0.001090830782496456,0.009723613155803782,0.5532080210892556,0.7231497683689639,0,0,0,0,0,0,1500,1500,1500,1500,1500,1500
1748733833.3426232,-0.5700000000000001,-0.05,0.15,0.001090830782496456,-0.008726646259971648,0.001090830782496456,0.009723613155803782,0.5532080210892556,0.7231497683689639,0,0,0,0,0,0,1500,1500,1500,1500,1500,1500
1748733833.442945,0.24,-0.06,-0.01,-0.001090830782496456,-0.001090830782496456,0.002181661564992912,0.009992107552584345,0.5538315306946633,0.7236911432114449,0,0,0,0,0,0,1500,1500,1500,1500,1500,1500
1748733833.5425675,-0.39,0.05,-0.17,-0.002181661564992912,0.001090830782496456,0.00545415391248228,0.00921091504651182,0.5539561475693737,0.7232276732680427,0,0,0,0,0,0,1500,1500,1500,1500,1500,1500
1748733833.6429806,-0.39,0.05,-0.17,-0.002181661564992912,0.001090830782496456,0.00545415391248228,0.00921091504651182,0.5539561475693737,0.7232276732680427,0,0,0,0,0,0,1500,1500,1500,1500,1500,1500
1748733833.7273881,0.41000000000000003,-0.01,0.21,-0.006544984694978736,-0.006544984694978736,0.013089969389957472,0.00924115696582971,0.5536490948938388,0.7231775317127788,0,0,0,0,0,0,1500,1500,1500,1500,1500,1500
1748733833.8267887,0.41000000000000003,-0.01,0.21,-0.006544984694978736,-0.006544984694978736,0.013089969389957472,0.00924115696582971,0.5536490948938388,0.7231775317127788,0,0,0,0,0,0,1500,1500,1500,1500,1500,1500
1748733833.9264796,0.22,0.05,0.07,-0.004363323129985824,-0.003272492347489368,0.007635815477475192,0.00944389885885088,0.55362696959038,0.7235277285103305,0,0,0,0,0,0,1500,1500,1500,1500,1500,1500
1748733834.0276394,0.0,0.13,0.05,0.0,-0.001090830782496456,-0.001090830782496456,0.009585284942186804,0.5536942048228541,0.7234330597706906,0,0,0,0,0,0,1500,1500,1500,1500,1500,1500
1748733834.127842,0.0,0.13,0.05,0.0,-0.001090830782496456,-0.001090830782496456,0.009585284942186804,0.5536942048228541,0.7234330597706906,0,0,0,0,0,0,1500,1500,1500,1500,1500,1500
1748733834.2085545,-0.01,0.0,-0.06,-0.002181661564992912,0.001090830782496456,-0.001090830782496456,0.009585284942186804,0.5536942048228541,0.7234330597706906,0,0,0,0,0,0,1500,1500,1500,1500,1500,1500
1748733834.3090892,-0.01,0.0,-0.06,-0.002181661564992912,0.001090830782496456,-0.001090830782496456,0.009585284942186804,0.5536942048228541,0.7234330597706906,0,0,0,0,0,0,1500,1500,1500,1500,1500,1500
1748733834.4091947,0.02,0.0,-0.08,-0.004363323129985824,-0.001090830782496456,0.001090830782496456,0.009585284942186804,0.5536942048228541,0.7234330597706906,0,0,0,0,0,0,1500,1500,1500,1500,1500,1500
1748733834.4927976,0.02,0.0,-0.01,0.001090830782496456,-0.004363323129985824,0.0,0.009456359653588634,0.55374288116122,0.7234053860763456,0,0,0,0,0,0,1500,1500,1500,1500,1500,1500
1748733834.5936618,0.02,0.0,-0.01,0.001090830782496456,-0.004363323129985824,0.0,0.009456359653588634,0.55374288116122,0.7234053860763456,0,0,0,0,0,0,1500,1500,1500,1500,1500,1500
1748733834.6926434,0.02,0.0,0.01,0.004363323129985824,0.0,0.0,0.009456359653588634,0.55374288116122,0.7234053860763456,0,0,0,0,0,0,1500,1500,1500,1500,1500,1500
1748733834.7929792,0.02,0.0,0.01,0.004363323129985824,0.0,0.0,0.009456359653588634,0.55374288116122,0.7234053860763456,0,0,0,0,0,0,1500,1500,1500,1500,1500,1500
1748733834.8922105,-0.27,-0.06,-0.02,0.003272492347489368,0.004363323129985824,0.001090830782496456,0.009585284942186804,0.5536942048228541,0.7234330597706906,0,0,0,0,0,0,1500,1500,1500,1500,1500,1500
1748733834.975767,-0.32,-0.27,0.2,-0.006544984694978736,0.004363323129985824,0.006544984694978736,0.009585284942186804,0.5536942048228541,0.7234330597706906,0,0,0,0,0,0,1500,1500,1500,1500,1500,1500
1748733835.0758955,-0.32,-0.27,0.2,-0.006544984694978736,0.004363323129985824,0.006544984694978736,0.009585284942186804,0.5536942048228541,0.7234330597706906,0,0,0,0,0,0,1500,1500,1500,1500,1500,1500
1748733835.1763723,0.09,-0.04,-0.08,-0.004363323129985824,-0.00545415391248228,0.006544984694978736,0.009406990555455259,0.5536136998088808,0.7233664623071331,0,0,0,0,0,0,1500,1500,1500,1500,1500,1500
1748733835.2775328,0.46,-0.12,0.03,0.001090830782496456,-0.002181661564992912,-0.004363323129985824,0.009718599167953151,0.5532595025515034,0.7235693253749279,0,0,0,0,0,0,1500,1500,1500,1500,1500,1500
1748733835.375571,0.46,-0.12,0.03,0.001090830782496456,-0.002181661564992912,-0.004363323129985824,0.009718599167953151,0.5532595025515034,0.7235693253749279,0,0,0,0,0,0,1500,1500,1500,1500,1500,1500
1748733835.4593182,0.17,-0.04,-0.06,-0.00545415391248228,0.004363323129985824,0.007635815477475192,0.009632346794984712,0.5531171115734071,0.7233691935384258,0,0,0,0,0,0,1500,1500,1500,1500,1500,1500
1748733835.558866,0.17,-0.04,-0.06,-0.00545415391248228,0.004363323129985824,0.007635815477475192,0.009632346794984712,0.5531171115734071,0.7233691935384258,0,0,0,0,0,0,1500,1500,1500,1500,1500,1500
1748733835.6583343,-0.13,0.06,-0.08,0.0,0.0,0.002181661564992912,0.009632346794984712,0.5531171115734071,0.7233691935384258,0,0,0,0,0,0,1500,1500,1500,1500,1500,1500
1748733835.7425094,-0.13,0.06,-0.08,0.0,0.0,0.002181661564992912,0.009632346794984712,0.5531171115734071,0.7233691935384258,0,0,0,0,0,0,1500,1500,1500,1500,1500,1500
1748733835.8426952,0.23,0.01,-0.13,0.004363323129985824,0.0,-0.004363323129985824,0.009387033180339751,0.5533303305483638,0.7231915597762152,0,0,0,0,0,0,1500,1500,1500,1500,1500,1500
1748733835.9283805,0.0,-0.15,0.04,-0.004363323129985824,-0.001090830782496456,0.002181661564992912,0.009307463813571488,0.5535081585571758,0.7232027875853775,0,0,0,0,0,0,1500,1500,1500,1500,1500,1500
1748733836.0261254,0.0,-0.15,0.04,-0.004363323129985824,-0.001090830782496456,0.002181661564992912,0.009307463813571488,0.5535081585571758,0.7232027875853775,0,0,0,0,0,0,1500,1500,1500,1500,1500,1500
1748733836.126076,0.21,0.0,0.0,-0.006544984694978736,-0.00545415391248228,-0.004363323129985824,0.00924115696582971,0.5536490948938388,0.7231775317127788,0,0,0,0,0,0,1500,1500,1500,1500,1500,1500
1748733836.2089753,0.21,0.0,0.0,-0.006544984694978736,-0.00545415391248228,-0.004363323129985824,0.00924115696582971,0.5536490948938388,0.7231775317127788,0,0,0,0,0,0,1500,1500,1500,1500,1500,1500
1748733836.3097696,0.15,-0.18,0.08,0.004363323129985824,-0.001090830782496456,-0.001090830782496456,0.009597739381988567,0.5538101299720293,0.7233107334475567,0,0,0,0,0,0,1500,1500,1500,1500,1500,1500
1748733836.4092054,-0.21,-0.01,-0.02,-0.003272492347489368,0.0,0.008726646259971648,0.009498186527403295,0.5537046021829362,0.7231470196247047,0,0,0,0,0,0,1500,1500,1500,1500,1500,1500
1748733836.493442,-0.21,-0.01,-0.02,-0.003272492347489368,0.0,0.008726646259971648,0.009498186527403295,0.5537046021829362,0.7231470196247047,0,0,0,0,0,0,1500,1500,1500,1500,1500,1500
1748733836.5922132,0.02,0.08,-0.25,0.001090830782496456,0.006544984694978736,-0.00545415391248228,0.009498186527403295,0.5537046021829362,0.7231470196247047,0,0,0,0,0,0,1500,1500,1500,1500,1500,1500
1748733836.6771948,0.02,0.08,-0.25,0.001090830782496456,0.006544984694978736,-0.00545415391248228,0.009498186527403295,0.5537046021829362,0.7231470196247047,0,0,0,0,0,0,1500,1500,1500,1500,1500,1500
1748733836.776951,0.37,1.01,-0.46,-0.019634954084936207,0.01090830782496456,0.01090830782496456,0.008933959486439639,0.5536172471655535,0.7230833086118587,0,0,0,0,0,0,1500,1500,1500,1500,1500,1500
1748733836.8773277,-0.11,-0.06,-0.16,0.004363323129985824,-0.01090830782496456,-0.004363323129985824,0.008742407068755207,0.5535736283569953,0.7230532761173093,0,0,0,0,0,0,1500,1500,1500,1500,1500,1500
1748733836.9597645,-0.11,-0.06,-0.16,0.004363323129985824,-0.01090830782496456,-0.004363323129985824,0.008742407068755207,0.5535736283569953,0.7230532761173093,0,0,0,0,0,0,1500,1500,1500,1500,1500,1500
1748733837.0592294,-0.17,-0.73,0.46,0.008726646259971648,-0.01090830782496456,-0.020725784867432664,0.008616708176018924,0.5528643833078964,0.722503898559533,0,0,0,0,0,0,1500,1500,1500,1500,1500,1500
1748733837.1589677,-0.17,-0.73,0.46,0.008726646259971648,-0.01090830782496456,-0.020725784867432664,0.008616708176018924,0.5528643833078964,0.722503898559533,0,0,0,0,0,0,1500,1500,1500,1500,1500,1500
1748733837.242165,0.1,-0.32,0.4,0.006544984694978736,0.01090830782496456,0.003272492347489368,0.008702802607379994,0.5530068133608048,0.7227038436824693,0,0,0,0,0,0,1500,1500,1500,1500,1500,1500
1748733837.3420346,0.1,-0.32,0.4,0.006544984694978736,0.01090830782496456,0.003272492347489368,0.008702802607379994,0.5530068133608048,0.7227038436824693,0,0,0,0,0,0,1500,1500,1500,1500,1500,1500
1748733837.4418352,0.23,-0.75,0.66,-0.003272492347489368,-0.009817477042468103,-0.004363323129985824,0.008906203412289935,0.55283202572946,0.723139796650659,0,0,0,0,0,0,1500,1500,1500,1500,1500,1500
1748733837.5427616,0.29,0.43,-0.59,0.007635815477475192,-0.001090830782496456,-0.014180800172453928,0.009188283616238009,0.5526321164432458,0.7234785969453084,0,0,0,0,0,0,1500,1500,1500,1500,1500,1500
1748733837.6428218,0.29,0.43,-0.59,0.007635815477475192,-0.001090830782496456,-0.014180800172453928,0.009188283616238009,0.5526321164432458,0.7234785969453084,0,0,0,0,0,0,1500,1500,1500,1500,1500,1500
1748733837.7272704,0.17,-0.24,-0.18,0.001090830782496456,-0.002181661564992912,-0.002181661564992912,0.00903958466586029,0.552397449697728,0.7232762996640841,0,0,0,0,0,0,1500,1500,1500,1500,1500,1500
1748733837.826062,0.17,-0.24,-0.18,0.001090830782496456,-0.002181661564992912,-0.002181661564992912,0.00903958466586029,0.552397449697728,0.7232762996640841,0,0,0,0,0,0,1500,1500,1500,1500,1500,1500
1748733837.9272726,0.63,0.08,0.11,-0.013089969389957472,0.011999138607461015,0.025089107997418487,0.00903305391585799,0.5520773825683013,0.7230652164557295,0,0,0,0,0,0,1500,1500,1500,1500,1500,1500
1748733838.0268645,-0.98,-0.39,-0.39,-0.009817477042468103,0.011999138607461015,0.007635815477475192,0.009450359149316929,0.5521488765176467,0.7236425659923023,0,0,0,0,0,0,1500,1500,1500,1500,1500,1500
1748733838.1262743,-0.98,-0.39,-0.39,-0.009817477042468103,0.011999138607461015,0.007635815477475192,0.009450359149316929,0.5521488765176467,0.7236425659923023,0,0,0,0,0,0,1500,1500,1500,1500,1500,1500
1748733838.2091966,0.09,-0.05,0.42,0.00545415391248228,-0.017453292519943295,-0.007635815477475192,0.00952258039943665,0.5518037832111925,0.723334298957944,0,0,0,0,0,0,1500,1500,1500,1500,1500,1500
1748733838.3091571,0.09,-0.05,0.42,0.00545415391248228,-0.017453292519943295,-0.007635815477475192,0.00952258039943665,0.5518037832111925,0.723334298957944,0,0,0,0,0,0,1500,1500,1500,1500,1500,1500
1748733838.4091606,0.23,-1.22,0.5700000000000001,-0.01090830782496456,-0.006544984694978736,0.002181661564992912,0.009222862769191785,0.5519393740226319,0.7235374598773315,0,0,0,0,0,0,1500,1500,1500,1500,1500,1500
1748733838.4927585,0.16,0.6,0.06,-0.004363323129985824,-0.008726646259971648,0.0,0.00891590546194242,0.551907603617254,0.7234436274977838,0,0,0,0,0,0,1500,1500,1500,1500,1500,1500
1748733838.5931423,0.16,0.6,0.06,-0.004363323129985824,-0.008726646259971648,0.0,0.00891590546194242,0.551907603617254,0.7234436274977838,0,0,0,0,0,0,1500,1500,1500,1500,1500,1500
1748733838.6773844,0.31,-0.07,-0.06,-0.004363323129985824,0.004363323129985824,-0.008726646259971648,0.008443386590286183,0.5519112084901574,0.7231611505390929,0,0,0,0,0,0,1500,1500,1500,1500,1500,1500
1748733838.7761128,0.31,-0.07,-0.06,-0.004363323129985824,0.004363323129985824,-0.008726646259971648,0.008443386590286183,0.5519112084901574,0.7231611505390929,0,0,0,0,0,0,1500,1500,1500,1500,1500,1500
1748733838.8770268,-1.16,-0.14,-0.08,0.002181661564992912,0.007635815477475192,-0.008726646259971648,0.008252774973648666,0.5517150082902242,0.7232174317721695,0,0,0,0,0,0,1500,1500,1500,1500,1500,1500
1748733838.9593737,-1.01,0.02,-0.76,-0.002181661564992912,-0.00545415391248228,0.02399827721492203,0.008296664455778986,0.5518958528371034,0.7236755524864265,0,0,0,0,0,0,1500,1500,1500,1500,1500,1500
1748733839.0592668,-1.01,0.02,-0.76,-0.002181661564992912,-0.00545415391248228,0.02399827721492203,0.008296664455778986,0.5518958528371034,0.7236755524864265,0,0,0,0,0,0,1500,1500,1500,1500,1500,1500
1748733839.1598585,0.62,-0.48,0.46,0.003272492347489368,-0.004363323129985824,-0.013089969389957472,0.008401306115210548,0.5519496726322355,0.7234194399319296,0,0,0,0,0,0,1500,1500,1500,1500,1500,1500
1748733839.2419033,0.62,-0.48,0.46,0.003272492347489368,-0.004363323129985824,-0.013089969389957472,0.008401306115210548,0.5519496726322355,0.7234194399319296,0,0,0,0,0,0,1500,1500,1500,1500,1500,1500
1748733839.3428965,0.18,0.47000000000000003,-0.67,-0.01090830782496456,-0.002181661564992912,-0.003272492347489368,0.008358490318390687,0.5521406943700049,0.7235917646997049,0,0,0,0,0,0,1500,1500,1500,1500,1500,1500
1748733839.432818,0.9,0.29,-0.05,0.001090830782496456,0.007635815477475192,-0.004363323129985824,0.008230407164697197,0.5520368503103379,0.7236502308515748,0,0,0,0,0,0,1500,1500,1500,1500,1500,1500
1748733839.526107,0.9,0.29,-0.05,0.001090830782496456,0.007635815477475192,-0.004363323129985824,0.008230407164697197,0.5520368503103379,0.7236502308515748,0,0,0,0,0,0,1500,1500,1500,1500,1500,1500
1748733839.6261058,-0.03,-0.1,0.02,0.00545415391248228,-0.01090830782496456,-0.006544984694978736,0.007996921530646904,0.5520317838492399,0.723878867522295,0,0,0,0,0,0,1500,1500,1500,1500,1500,1500
1748733839.7094061,-0.03,-0.1,0.02,0.00545415391248228,-0.01090830782496456,-0.006544984694978736,0.007996921530646904,0.5520317838492399,0.723878867522295,0,0,0,0,0,0,1500,1500,1500,1500,1500,1500
1748733839.8090699,-0.38,-0.21,0.0,-0.00545415391248228,-0.011999138607461015,-0.004363323129985824,0.00759066350892224,0.5518944441491365,0.7236218277346069,0,0,0,0,0,0,1500,1500,1500,1500,1500,1500
1748733839.9090526,0.16,0.07,0.1,-0.001090830782496456,0.0,-0.01090830782496456,0.00759066350892224,0.5518944441491365,0.7236218277346069,0,0,0,0,0,0,1500,1500,1500,1500,1500,1500
1748733839.9921687,0.16,0.07,0.1,-0.001090830782496456,0.0,-0.01090830782496456,0.00759066350892224,0.5518944441491365,0.7236218277346069,0,0,0,0,0,0,1500,1500,1500,1500,1500,1500
1748733840.0927742,-0.07,-0.15,0.0,-0.004363323129985824,-0.002181661564992912,-0.003272492347489368,0.008044163141151826,0.5514549581434596,0.7238157436452288,0,0,0,0,0,0,1500,1500,1500,1500,1500,1500
1748733840.1770039,-0.07,-0.15,0.0,-0.004363323129985824,-0.002181661564992912,-0.003272492347489368,0.008044163141151826,0.5514549581434596,0.7238157436452288,0,0,0,0,0,0,1500,1500,1500,1500,1500,1500
1748733840.2774909,0.12,0.0,0.0,-0.002181661564992912,-0.004363323129985824,0.002181661564992912,0.007964618324566864,0.5516326681346264,0.7238268838283312,0,0,0,0,0,0,1500,1500,1500,1500,1500,1500
1748733840.3779633,0.12,0.0,0.0,-0.002181661564992912,-0.004363323129985824,0.002181661564992912,0.007964618324566864,0.5516326681346264,0.7238268838283312,0,0,0,0,0,0,1500,1500,1500,1500,1500,1500
1748733840.458681,0.0,0.02,-0.08,0.0,0.002181661564992912,0.0,0.007964618324566864,0.5516326681346264,0.7238268838283312,0,0,0,0,0,0,1500,1500,1500,1500,1500,1500
1748733840.5586185,0.0,0.03,-0.05,-0.004363323129985824,-0.002181661564992912,0.001090830782496456,0.007964618324566864,0.5516326681346264,0.7238268838283312,0,0,0,0,0,0,1500,1500,1500,1500,1500,1500
1748733840.6595137,0.0,0.03,-0.05,-0.004363323129985824,-0.002181661564992912,0.001090830782496456,0.007964618324566864,0.5516326681346264,0.7238268838283312,0,0,0,0,0,0,1500,1500,1500,1500,1500,1500
1748733840.7423327,0.02,-0.01,0.0,-0.003272492347489368,0.002181661564992912,0.0,0.008027194951388029,0.5517249992729462,0.7238290502526186,0,0,0,0,0,0,1500,1500,1500,1500,1500,1500
1748733840.8449755,0.02,-0.01,0.0,-0.003272492347489368,0.002181661564992912,0.0,0.008027194951388029,0.5517249992729462,0.7238290502526186,0,0,0,0,0,0,1500,1500,1500,1500,1500,1500
1748733840.943956,0.02,-0.02,-0.02,0.0,0.003272492347489368,0.001090830782496456,0.008027194951388029,0.5517249992729462,0.7238290502526186,0,0,0,0,0,0,1500,1500,1500,1500,1500,1500
1748733841.0422318,0.0,0.02,-0.06,0.0,-0.002181661564992912,0.0,0.008027194951388029,0.5517249992729462,0.7238290502526186,0,0,0,0,0,0,1500,1500,1500,1500,1500,1500
1748733841.1435876,0.0,0.02,-0.06,0.0,-0.002181661564992912,0.0,0.008027194951388029,0.5517249992729462,0.7238290502526186,0,0,0,0,0,0,1500,1500,1500,1500,1500,1500
1748733841.2262483,0.0,0.03,-0.04,0.001090830782496456,-0.003272492347489368,0.002181661564992912,0.008027194951388029,0.5517249992729462,0.7238290502526186,0,0,0,0,0,0,1500,1500,1500,1500,1500,1500
1748733841.3260083,0.0,0.03,-0.04,0.001090830782496456,-0.003272492347489368,0.002181661564992912,0.008027194951388029,0.5517249992729462,0.7238290502526186,0,0,0,0,0,0,1500,1500,1500,1500,1500,1500
1748733841.4266276,0.02,-0.02,-0.04,0.003272492347489368,-0.00545415391248228,0.0,0.008027194951388029,0.5517249992729462,0.7238290502526186,0,0,0,0,0,0,1500,1500,1500,1500,1500,1500
1748733841.5259364,-0.01,-0.04,-0.01,0.0,0.0,0.001090830782496456,0.008027194951388029,0.5517249992729462,0.7238290502526186,0,0,0,0,0,0,1500,1500,1500,1500,1500,1500
1748733841.6269257,-0.01,-0.04,-0.01,0.0,0.0,0.001090830782496456,0.008027194951388029,0.5517249992729462,0.7238290502526186,0,0,0,0,0,0,1500,1500,1500,1500,1500,1500
1748733841.7092853,0.02,0.0,-0.06,0.001090830782496456,-0.001090830782496456,0.0,0.008027194951388029,0.5517249992729462,0.7238290502526186,0,0,0,0,0,0,1500,1500,1500,1500,1500,1500
1748733841.8106308,0.02,0.0,-0.06,0.001090830782496456,-0.001090830782496456,0.0,0.008027194951388029,0.5517249992729462,0.7238290502526186,0,0,0,0,0,0,1500,1500,1500,1500,1500,1500
1748733841.909297,0.0,0.01,-0.04,0.004363323129985824,-0.001090830782496456,-0.001090830782496456,0.008027194951388029,0.5517249992729462,0.7238290502526186,0,0,0,0,0,0,1500,1500,1500,1500,1500,1500
1748733841.994146,0.01,-0.01,-0.02,0.0,0.003272492347489368,0.001090830782496456,0.008027194951388029,0.5517249992729462,0.7238290502526186,0,0,0,0,0,0,1500,1500,1500,1500,1500,1500
1748733842.0923333,0.01,-0.01,-0.02,0.0,0.003272492347489368,0.001090830782496456,0.008027194951388029,0.5517249992729462,0.7238290502526186,0,0,0,0,0,0,1500,1500,1500,1500,1500,1500
1748733842.1933038,0.0,0.0,-0.03,-0.001090830782496456,-0.006544984694978736,0.001090830782496456,0.008027194951388029,0.5517249992729462,0.7238290502526186,0,0,0,0,0,0,1500,1500,1500,1500,1500,1500
1748733842.2932224,0.0,0.04,-0.05,-0.001090830782496456,-0.006544984694978736,0.001090830782496456,0.008027194951388029,0.5517249992729462,0.7238290502526186,0,0,0,0,0,0,1500,1500,1500,1500,1500,1500
1748733842.39334,0.0,0.04,-0.05,-0.001090830782496456,-0.006544984694978736,0.001090830782496456,0.008027194951388029,0.5517249992729462,0.7238290502526186,0,0,0,0,0,0,1500,1500,1500,1500,1500,1500
1748733842.4747207,0.0,0.0,-0.04,-0.002181661564992912,0.0,0.0,0.008027194951388029,0.5517249992729462,0.7238290502526186,0,0,0,0,0,0,1500,1500,1500,1500,1500,1500
1748733842.5763986,0.0,0.0,-0.04,-0.002181661564992912,0.0,0.0,0.008027194951388029,0.5517249992729462,0.7238290502526186,0,0,0,0,0,0,1500,1500,1500,1500,1500,1500
1748733842.675732,0.0,-0.02,-0.02,-0.001090830782496456,0.001090830782496456,-0.002181661564992912,0.008027194951388029,0.5517249992729462,0.7238290502526186,0,0,0,0,0,0,1500,1500,1500,1500,1500,1500
1748733842.7591717,0.0,-0.02,-0.02,-0.001090830782496456,0.001090830782496456,-0.002181661564992912,0.008027194951388029,0.5517249992729462,0.7238290502526186,0,0,0,0,0,0,1500,1500,1500,1500,1500,1500
1748733842.8591619,-0.01,0.01,-0.04,0.0,-0.001090830782496456,0.0,0.008027194951388029,0.5517249992729462,0.7238290502526186,0,0,0,0,0,0,1500,1500,1500,1500,1500,1500
1748733842.9438782,0.0,0.0,-0.03,-0.003272492347489368,0.001090830782496456,0.0,0.008027194951388029,0.5517249992729462,0.7238290502526186,0,0,0,0,0,0,1500,1500,1500,1500,1500,1500
1748733843.0430326,0.0,0.0,-0.03,-0.003272492347489368,0.001090830782496456,0.0,0.008027194951388029,0.5517249992729462,0.7238290502526186,0,0,0,0,0,0,1500,1500,1500,1500,1500,1500
1748733843.144164,-0.01,0.0,-0.03,0.001090830782496456,-0.003272492347489368,-0.002181661564992912,0.008027194951388029,0.5517249992729462,0.7238290502526186,0,0,0,0,0,0,1500,1500,1500,1500,1500,1500
1748733843.2257416,-0.01,0.0,-0.03,0.001090830782496456,-0.003272492347489368,-0.002181661564992912,0.008027194951388029,0.5517249992729462,0.7238290502526186,0,0,0,0,0,0,1500,1500,1500,1500,1500,1500
1748733843.325505,0.0,0.02,-0.04,-0.001090830782496456,0.001090830782496456,0.001090830782496456,0.008027194951388029,0.5517249992729462,0.7238290502526186,0,0,0,0,0,0,1500,1500,1500,1500,1500,1500
1748733843.424991,0.01,0.03,-0.04,0.0,0.001090830782496456,0.0,0.008027194951388029,0.5517249992729462,0.7238290502526186,0,0,0,0,0,0,1500,1500,1500,1500,1500,1500
1748733843.509349,0.01,0.03,-0.04,0.0,0.001090830782496456,0.0,0.008027194951388029,0.5517249992729462,0.7238290502526186,0,0,0,0,0,0,1500,1500,1500,1500,1500,1500
1748733843.6088364,0.01,0.01,-0.01,-0.003272492347489368,-0.001090830782496456,0.003272492347489368,0.008027194951388029,0.5517249992729462,0.7238290502526186,0,0,0,0,0,0,1500,1500,1500,1500,1500,1500
1748733843.6948404,0.01,0.01,-0.01,-0.003272492347489368,-0.001090830782496456,0.003272492347489368,0.008027194951388029,0.5517249992729462,0.7238290502526186,0,0,0,0,0,0,1500,1500,1500,1500,1500,1500
1748733843.7929342,0.02,-0.01,-0.03,0.001090830782496456,0.0,0.0,0.008027194951388029,0.5517249992729462,0.7238290502526186,0,0,0,0,0,0,1500,1500,1500,1500,1500,1500
1748733843.8923347,0.0,0.01,-0.06,-0.001090830782496456,0.002181661564992912,0.0,0.008027194951388029,0.5517249992729462,0.7238290502526186,0,0,0,0,0,0,1500,1500,1500,1500,1500,1500
1748733843.9764936,0.0,0.01,-0.06,-0.001090830782496456,0.002181661564992912,0.0,0.008027194951388029,0.5517249992729462,0.7238290502526186,0,0,0,0,0,0,1500,1500,1500,1500,1500,1500
1748733844.0762038,-0.01,0.02,-0.08,-0.001090830782496456,0.002181661564992912,-0.001090830782496456,0.008027194951388029,0.5517249992729462,0.7238290502526186,0,0,0,0,0,0,1500,1500,1500,1500,1500,1500
1748733844.1761496,-0.01,0.02,-0.08,-0.001090830782496456,0.002181661564992912,-0.001090830782496456,0.008027194951388029,0.5517249992729462,0.7238290502526186,0,0,0,0,0,0,1500,1500,1500,1500,1500,1500
1748733844.2754438,0.02,-0.02,-0.03,0.001090830782496456,-0.002181661564992912,0.002181661564992912,0.008027194951388029,0.5517249992729462,0.7238290502526186,0,0,0,0,0,0,1500,1500,1500,1500,1500,1500
1748733844.3764029,0.01,-0.02,-0.02,0.002181661564992912,0.001090830782496456,0.003272492347489368,0.008027194951388029,0.5517249992729462,0.7238290502526186,0,0,0,0,0,0,1500,1500,1500,1500,1500,1500
1748733844.4592886,0.01,-0.02,-0.02,0.002181661564992912,0.001090830782496456,0.003272492347489368,0.008027194951388029,0.5517249992729462,0.7238290502526186,0,0,0,0,0,0,1500,1500,1500,1500,1500,1500
1748733844.5609376,0.03,0.0,-0.03,0.001090830782496456,-0.003272492347489368,0.0,0.008027194951388029,0.5517249992729462,0.7238290502526186,0,0,0,0,0,0,1500,1500,1500,1500,1500,1500
1748733844.6592886,0.03,0.0,-0.03,0.001090830782496456,-0.003272492347489368,0.0,0.008027194951388029,0.5517249992729462,0.7238290502526186,0,0,0,0,0,0,1500,1500,1500,1500,1500,1500
1748733844.743152,0.0,0.0,-0.04,-0.001090830782496456,-0.001090830782496456,0.002181661564992912,0.008027194951388029,0.5517249992729462,0.7238290502526186,0,0,0,0,0,0,1500,1500,1500,1500,1500,1500
1748733844.8427653,0.02,0.0,-0.06,-0.001090830782496456,0.003272492347489368,-0.002181661564992912,0.008027194951388029,0.5517249992729462,0.7238290502526186,0,0,0,0,0,0,1500,1500,1500,1500,1500,1500
1748733844.9435623,0.02,0.0,-0.06,-0.001090830782496456,0.003272492347489368,-0.002181661564992912,0.008027194951388029,0.5517249992729462,0.7238290502526186,0,0,0,0,0,0,1500,1500,1500,1500,1500,1500
1748733845.0431426,0.01,0.0,-0.04,0.002181661564992912,0.003272492347489368,0.001090830782496456,0.008027194951388029,0.5517249992729462,0.7238290502526186,0,0,0,0,0,0,1500,1500,1500,1500,1500,1500
1748733845.144981,0.01,0.0,-0.04,0.002181661564992912,0.003272492347489368,0.001090830782496456,0.008027194951388029,0.5517249992729462,0.7238290502526186,0,0,0,0,0,0,1500,1500,1500,1500,1500,1500
1748733845.2421744,0.0,0.0,-0.06,0.003272492347489368,-0.002181661564992912,-0.001090830782496456,0.008027194951388029,0.5517249992729462,0.7238290502526186,0,0,0,0,0,0,1500,1500,1500,1500,1500,1500
1748733845.3454638,0.0,0.01,-0.05,-0.001090830782496456,-0.002181661564992912,0.001090830782496456,0.008027194951388029,0.5517249992729462,0.7238290502526186,0,0,0,0,0,0,1500,1500,1500,1500,1500,1500
1748733845.4423244,0.0,0.01,-0.05,-0.001090830782496456,-0.002181661564992912,0.001090830782496456,0.008027194951388029,0.5517249992729462,0.7238290502526186,0,0,0,0,0,0,1500,1500,1500,1500,1500,1500
1748733845.543895,0.0,-0.02,-0.01,0.0,0.003272492347489368,-0.002181661564992912,0.008027194951388029,0.5517249992729462,0.7238290502526186,0,0,0,0,0,0,1500,1500,1500,1500,1500,1500
1748733845.642795,0.0,0.0,-0.04,-0.002181661564992912,-0.003272492347489368,0.003272492347489368,0.00813013025803312,0.5515972820461201,0.7240155434024288,0,0,0,0,0,0,1500,1500,1500,1500,1500,1500
1748733845.7255058,0.0,0.0,-0.04,-0.002181661564992912,-0.003272492347489368,0.003272492347489368,0.00813013025803312,0.5515972820461201,0.7240155434024288,0,0,0,0,0,0,1500,1500,1500,1500,1500,1500
1748733845.825535,0.0,0.02,-0.06,0.001090830782496456,0.0,0.001090830782496456,0.00813013025803312,0.5515972820461201,0.7240155434024288,0,0,0,0,0,0,1500,1500,1500,1500,1500,1500
1748733845.9254184,0.0,0.02,-0.06,0.001090830782496456,0.0,0.001090830782496456,0.00813013025803312,0.5515972820461201,0.7240155434024288,0,0,0,0,0,0,1500,1500,1500,1500,1500,1500
1748733846.0097883,0.0,0.02,-0.04,0.002181661564992912,-0.002181661564992912,-0.002181661564992912,0.00813013025803312,0.5515972820461201,0.7240155434024288,0,0,0,0,0,0,1500,1500,1500,1500,1500,1500
1748733846.1037784,0.0,-0.03,-0.02,0.003272492347489368,-0.001090830782496456,-0.001090830782496456,0.00813013025803312,0.5515972820461201,0.7240155434024288,0,0,0,0,0,0,1500,1500,1500,1500,1500,1500
1748733846.1931355,0.0,-0.03,-0.02,0.003272492347489368,-0.001090830782496456,-0.001090830782496456,0.00813013025803312,0.5515972820461201,0.7240155434024288,0,0,0,0,0,0,1500,1500,1500,1500,1500,1500
1748733846.2928936,0.0,0.0,-0.05,-0.001090830782496456,-0.003272492347489368,-0.001090830782496456,0.00813013025803312,0.5515972820461201,0.7240155434024288,0,0,0,0,0,0,1500,1500,1500,1500,1500,1500
1748733846.3927586,0.0,0.0,-0.05,-0.001090830782496456,-0.003272492347489368,-0.001090830782496456,0.00813013025803312,0.5515972820461201,0.7240155434024288,0,0,0,0,0,0,1500,1500,1500,1500,1500,1500
1748733846.4750993,-0.02,0.04,-0.04,-0.002181661564992912,0.002181661564992912,-0.003272492347489368,0.00813013025803312,0.5515972820461201,0.7240155434024288,0,0,0,0,0,0,1500,1500,1500,1500,1500,1500
1748733846.5760963,-0.02,0.04,-0.04,-0.002181661564992912,0.002181661564992912,-0.003272492347489368,0.00813013025803312,0.5515972820461201,0.7240155434024288,0,0,0,0,0,0,1500,1500,1500,1500,1500,1500
1748733846.6749275,0.01,0.02,-0.03,0.004363323129985824,-0.004363323129985824,0.0,0.00813013025803312,0.5515972820461201,0.7240155434024288,0,0,0,0,0,0,1500,1500,1500,1500,1500,1500
1748733846.7585773,0.0,-0.01,-0.05,0.0,-0.001090830782496456,0.001090830782496456,0.00813013025803312,0.5515972820461201,0.7240155434024288,0,0,0,0,0,0,1500,1500,1500,1500,1500,1500
1748733846.8593805,0.0,-0.01,-0.05,0.0,-0.001090830782496456,0.001090830782496456,0.00813013025803312,0.5515972820461201,0.7240155434024288,0,0,0,0,0,0,1500,1500,1500,1500,1500,1500
1748733846.943105,0.0,-0.02,-0.05,0.0,-0.001090830782496456,-0.001090830782496456,0.00813013025803312,0.5515972820461201,0.7240155434024288,0,0,0,0,0,0,1500,1500,1500,1500,1500,1500
1748733847.0430481,0.0,-0.02,-0.05,0.0,-0.001090830782496456,-0.001090830782496456,0.00813013025803312,0.5515972820461201,0.7240155434024288,0,0,0,0,0,0,1500,1500,1500,1500,1500,1500
1748733847.1422353,0.0,0.03,-0.04,-0.001090830782496456,-0.00545415391248228,0.001090830782496456,0.00813013025803312,0.5515972820461201,0.7240155434024288,0,0,0,0,0,0,1500,1500,1500,1500,1500,1500
1748733847.2265108,-0.01,0.0,-0.06,0.001090830782496456,0.002181661564992912,0.001090830782496456,0.00813013025803312,0.5515972820461201,0.7240155434024288,0,0,0,0,0,0,1500,1500,1500,1500,1500,1500
1748733847.3249454,-0.01,0.0,-0.06,0.001090830782496456,0.002181661564992912,0.001090830782496456,0.00813013025803312,0.5515972820461201,0.7240155434024288,0,0,0,0,0,0,1500,1500,1500,1500,1500,1500
1748733847.425192,-0.01,-0.02,-0.04,0.0,0.002181661564992912,-0.001090830782496456,0.00813013025803312,0.5515972820461201,0.7240155434024288,0,0,0,0,0,0,1500,1500,1500,1500,1500,1500
1748733847.5261388,-0.01,-0.02,-0.04,0.0,0.002181661564992912,-0.001090830782496456,0.00813013025803312,0.5515972820461201,0.7240155434024288,0,0,0,0,0,0,1500,1500,1500,1500,1500,1500
1748733847.6256058,0.0,0.02,-0.05,0.001090830782496456,0.0,0.001090830782496456,0.00813013025803312,0.5515972820461201,0.7240155434024288,0,0,0,0,0,0,1500,1500,1500,1500,1500,1500
1748733847.7086346,-0.01,0.02,-0.04,0.002181661564992912,0.001090830782496456,0.0,0.00813013025803312,0.5515972820461201,0.7240155434024288,0,0,0,0,0,0,1500,1500,1500,1500,1500,1500
1748733847.8104393,-0.01,0.02,-0.04,0.002181661564992912,0.001090830782496456,0.0,0.00813013025803312,0.5515972820461201,0.7240155434024288,0,0,0,0,0,0,1500,1500,1500,1500,1500,1500
1748733847.908514,0.01,0.0,-0.03,0.002181661564992912,0.003272492347489368,0.002181661564992912,0.00813013025803312,0.5515972820461201,0.7240155434024288,0,0,0,0,0,0,1500,1500,1500,1500,1500,1500
1748733847.9917426,0.01,0.0,-0.03,0.002181661564992912,0.003272492347489368,0.002181661564992912,0.00813013025803312,0.5515972820461201,0.7240155434024288,0,0,0,0,0,0,1500,1500,1500,1500,1500,1500
1748733848.0928679,0.0,0.02,-0.05,-0.001090830782496456,-0.006544984694978736,0.002181661564992912,0.00813013025803312,0.5515972820461201,0.7240155434024288,0,0,0,0,0,0,1500,1500,1500,1500,1500,1500
1748733848.1929662,0.02,0.04,-0.04,0.002181661564992912,-0.001090830782496456,0.001090830782496456,0.00813013025803312,0.5515972820461201,0.7240155434024288,0,0,0,0,0,0,1500,1500,1500,1500,1500,1500
1748733848.2919772,0.02,0.04,-0.04,0.002181661564992912,-0.001090830782496456,0.001090830782496456,0.00813013025803312,0.5515972820461201,0.7240155434024288,0,0,0,0,0,0,1500,1500,1500,1500,1500,1500
1748733848.3929718,-0.01,-0.02,-0.01,-0.002181661564992912,0.002181661564992912,0.003272492347489368,0.00813013025803312,0.5515972820461201,0.7240155434024288,0,0,0,0,0,0,1500,1500,1500,1500,1500,1500
1748733848.4750433,-0.01,-0.02,-0.01,-0.002181661564992912,0.002181661564992912,0.003272492347489368,0.00813013025803312,0.5515972820461201,0.7240155434024288,0,0,0,0,0,0,1500,1500,1500,1500,1500,1500
1748733848.575834,0.01,-0.04,-0.08,0.001090830782496456,0.004363323129985824,0.0,0.00813013025803312,0.5515972820461201,0.7240155434024288,0,0,0,0,0,0,1500,1500,1500,1500,1500,1500
1748733848.6762102,-0.02,0.0,-0.07,0.002181661564992912,-0.002181661564992912,0.001090830782496456,0.00813013025803312,0.5515972820461201,0.7240155434024288,0,0,0,0,0,0,1500,1500,1500,1500,1500,1500
1748733848.7758965,-0.02,0.0,-0.07,0.002181661564992912,-0.002181661564992912,0.001090830782496456,0.00813013025803312,0.5515972820461201,0.7240155434024288,0,0,0,0,0,0,1500,1500,1500,1500,1500,1500
1748733848.875215,0.0,0.02,-0.03,0.002181661564992912,0.0,-0.001090830782496456,0.00813013025803312,0.5515972820461201,0.7240155434024288,0,0,0,0,0,0,1500,1500,1500,1500,1500,1500
1748733848.9590096,0.0,0.02,-0.03,0.002181661564992912,0.0,-0.001090830782496456,0.00813013025803312,0.5515972820461201,0.7240155434024288,0,0,0,0,0,0,1500,1500,1500,1500,1500,1500
1748733849.0591016,-0.01,-0.01,-0.03,0.003272492347489368,-0.001090830782496456,0.0,0.00813013025803312,0.5515972820461201,0.7240155434024288,0,0,0,0,0,0,1500,1500,1500,1500,1500,1500
1748733849.1591382,0.02,0.0,-0.04,0.002181661564992912,0.002181661564992912,-0.001090830782496456,0.00813013025803312,0.5515972820461201,0.7240155434024288,0,0,0,0,0,0,1500,1500,1500,1500,1500,1500
1748733849.2427106,0.02,0.0,-0.04,0.002181661564992912,0.002181661564992912,-0.001090830782496456,0.00813013025803312,0.5515972820461201,0.7240155434024288,0,0,0,0,0,0,1500,1500,1500,1500,1500,1500
1748733849.3426719,-0.02,0.08,-0.04,0.003272492347489368,-0.006544984694978736,-0.002181661564992912,0.00813013025803312,0.5515972820461201,0.7240155434024288,0,0,0,0,0,0,1500,1500,1500,1500,1500,1500
1748733849.4310544,0.0,0.03,-0.04,0.0,-0.001090830782496456,0.001090830782496456,0.00813013025803312,0.5515972820461201,0.7240155434024288,0,0,0,0,0,0,1500,1500,1500,1500,1500,1500
1748733849.5254936,0.0,0.03,-0.04,0.0,-0.001090830782496456,0.001090830782496456,0.00813013025803312,0.5515972820461201,0.7240155434024288,0,0,0,0,0,0,1500,1500,1500,1500,1500,1500
1748733849.6257885,0.01,-0.03,-0.06,0.002181661564992912,-0.002181661564992912,-0.003272492347489368,0.00813013025803312,0.5515972820461201,0.7240155434024288,0,0,0,0,0,0,1500,1500,1500,1500,1500,1500
1748733849.7096698,0.01,-0.03,-0.06,0.002181661564992912,-0.002181661564992912,-0.003272492347489368,0.00813013025803312,0.5515972820461201,0.7240155434024288,0,0,0,0,0,0,1500,1500,1500,1500,1500,1500
1748733849.811692,0.0,-0.02,-0.07,-0.002181661564992912,0.008726646259971648,0.001090830782496456,0.00813013025803312,0.5515972820461201,0.7240155434024288,0,0,0,0,0,0,1500,1500,1500,1500,1500,1500
1748733849.9085257,0.13,0.16,0.01,-0.004363323129985824,0.0,0.001090830782496456,0.00813013025803312,0.5515972820461201,0.7240155434024288,0,0,0,0,0,0,1500,1500,1500,1500,1500,1500
1748733849.9934208,0.13,0.16,0.01,-0.004363323129985824,0.0,0.001090830782496456,0.00813013025803312,0.5515972820461201,0.7240155434024288,0,0,0,0,0,0,1500,1500,1500,1500,1500,1500
1748733850.0936215,-0.01,-0.16,0.0,-0.011999138607461015,-0.001090830782496456,-0.003272492347489368,0.0078858086689119,0.5516579681293762,0.7239240768120323,0,0,0,0,0,0,1500,1500,1500,1500,1500,1500
1748733850.1930122,-0.01,-0.16,0.0,-0.011999138607461015,-0.001090830782496456,-0.003272492347489368,0.0078858086689119,0.5516579681293762,0.7239240768120323,0,0,0,0,0,0,1500,1500,1500,1500,1500,1500
1748733850.292911,0.13,-0.03,-0.09,-0.01090830782496456,0.001090830782496456,0.002181661564992912,0.0078858086689119,0.5516579681293762,0.7239240768120323,0,0,0,0,0,0,1500,1500,1500,1500,1500,1500
1748733850.3835828,0.01,0.0,-0.07,-0.002181661564992912,0.001090830782496456,0.002181661564992912,0.0078858086689119,0.5516579681293762,0.7239240768120323,0,0,0,0,0,0,1500,1500,1500,1500,1500,1500
1748733850.4761918,0.01,0.0,-0.07,-0.002181661564992912,0.001090830782496456,0.002181661564992912,0.0078858086689119,0.5516579681293762,0.7239240768120323,0,0,0,0,0,0,1500,1500,1500,1500,1500,1500
1748733850.5759435,0.01,-0.1,-0.04,-0.013089969389957472,-0.00545415391248228,-0.003272492347489368,0.007707730101836017,0.5515776341328628,0.7238579569839073,0,0,0,0,0,0,1500,1500,1500,1500,1500,1500
1748733850.676721,0.01,-0.1,-0.04,-0.013089969389957472,-0.00545415391248228,-0.003272492347489368,0.007707730101836017,0.5515776341328628,0.7238579569839073,0,0,0,0,0,0,1500,1500,1500,1500,1500,1500
1748733850.7769651,0.04,0.0,0.0,0.002181661564992912,0.002181661564992912,0.002181661564992912,0.007707730101836017,0.5515776341328628,0.7238579569839073,0,0,0,0,0,0,1500,1500,1500,1500,1500,1500
1748733850.875887,0.0,-0.03,-0.02,-0.00545415391248228,0.003272492347489368,0.0,0.007707730101836017,0.5515776341328628,0.7238579569839073,0,0,0,0,0,0,1500,1500,1500,1500,1500,1500
1748733850.9590883,0.0,-0.03,-0.02,-0.00545415391248228,0.003272492347489368,0.0,0.007707730101836017,0.5515776341328628,0.7238579569839073,0,0,0,0,0,0,1500,1500,1500,1500,1500,1500
1748733851.060462,0.04,0.06,-0.04,0.0,-0.002181661564992912,0.0,0.007707730101836017,0.5515776341328628,0.7238579569839073,0,0,0,0,0,0,1500,1500,1500,1500,1500,1500
1748733851.1604393,0.04,0.06,-0.04,0.0,-0.002181661564992912,0.0,0.007707730101836017,0.5515776341328628,0.7238579569839073,0,0,0,0,0,0,1500,1500,1500,1500,1500,1500
1748733851.259666,0.07,0.11,0.03,0.00545415391248228,0.003272492347489368,0.002181661564992912,0.007615600725732309,0.5516396579623999,0.7239916434566159,0,0,0,0,0,0,1500,1500,1500,1500,1500,1500
1748733851.361971,-0.02,-0.03,-0.04,-0.00545415391248228,0.0,0.004363323129985824,0.007615600725732309,0.5516396579623999,0.7239916434566159,0,0,0,0,0,0,1500,1500,1500,1500,1500,1500
1748733851.4597266,-0.02,-0.03,-0.04,-0.00545415391248228,0.0,0.004363323129985824,0.007615600725732309,0.5516396579623999,0.7239916434566159,0,0,0,0,0,0,1500,1500,1500,1500,1500,1500
1748733851.5591326,0.07,0.0,-0.04,-0.003272492347489368,0.0,0.0,0.007615600725732309,0.5516396579623999,0.7239916434566159,0,0,0,0,0,0,1500,1500,1500,1500,1500,1500
1748733851.6537633,0.0,0.04,-0.02,0.001090830782496456,-0.004363323129985824,-0.001090830782496456,0.007615600725732309,0.5516396579623999,0.7239916434566159,0,0,0,0,0,0,1500,1500,1500,1500,1500,1500
1748733851.742507,0.0,0.04,-0.02,0.001090830782496456,-0.004363323129985824,-0.001090830782496456,0.007615600725732309,0.5516396579623999,0.7239916434566159,0,0,0,0,0,0,1500,1500,1500,1500,1500,1500
1748733851.8421865,0.0,0.0,-0.02,0.0,0.0,-0.002181661564992912,0.007615600725732309,0.5516396579623999,0.7239916434566159,0,0,0,0,0,0,1500,1500,1500,1500,1500,1500
1748733851.9422472,0.0,0.0,-0.02,0.0,0.0,-0.002181661564992912,0.007615600725732309,0.5516396579623999,0.7239916434566159,0,0,0,0,0,0,1500,1500,1500,1500,1500,1500
1748733852.0420341,0.0,0.01,-0.02,0.001090830782496456,-0.00545415391248228,0.001090830782496456,0.007615600725732309,0.5516396579623999,0.7239916434566159,0,0,0,0,0,0,1500,1500,1500,1500,1500,1500
1748733852.1420832,0.04,-0.01,-0.05,-0.002181661564992912,0.001090830782496456,0.001090830782496456,0.007615600725732309,0.5516396579623999,0.7239916434566159,0,0,0,0,0,0,1500,1500,1500,1500,1500,1500
1748733852.2260044,0.04,-0.01,-0.05,-0.002181661564992912,0.001090830782496456,0.001090830782496456,0.007615600725732309,0.5516396579623999,0.7239916434566159,0,0,0,0,0,0,1500,1500,1500,1500,1500,1500
1748733852.3257298,0.0,0.09,-0.11,0.003272492347489368,-0.001090830782496456,-0.001090830782496456,0.007615600725732309,0.5516396579623999,0.7239916434566159,0,0,0,0,0,0,1500,1500,1500,1500,1500,1500
1748733852.425614,0.0,0.09,-0.11,0.003272492347489368,-0.001090830782496456,-0.001090830782496456,0.007615600725732309,0.5516396579623999,0.7239916434566159,0,0,0,0,0,0,1500,1500,1500,1500,1500,1500
1748733852.509147,-0.05,0.0,-0.06,-0.006544984694978736,0.0,0.001090830782496456,0.007615600725732309,0.5516396579623999,0.7239916434566159,0,0,0,0,0,0,1500,1500,1500,1500,1500,1500
1748733852.6093647,-0.09,0.06,-0.12,0.001090830782496456,0.002181661564992912,-0.001090830782496456,0.007615600725732309,0.5516396579623999,0.7239916434566159,0,0,0,0,0,0,1500,1500,1500,1500,1500,1500
1748733852.69278,-0.09,0.06,-0.12,0.001090830782496456,0.002181661564992912,-0.001090830782496456,0.007615600725732309,0.5516396579623999,0.7239916434566159,0,0,0,0,0,0,1500,1500,1500,1500,1500,1500
1748733852.791878,0.03,0.09,-0.02,-0.001090830782496456,0.004363323129985824,0.001090830782496456,0.007615600725732309,0.5516396579623999,0.7239916434566159,0,0,0,0,0,0,1500,1500,1500,1500,1500,1500
1748733852.8937259,0.03,0.09,-0.02,-0.001090830782496456,0.004363323129985824,0.001090830782496456,0.007615600725732309,0.5516396579623999,0.7239916434566159,0,0,0,0,0,0,1500,1500,1500,1500,1500,1500
1748733852.9763713,-0.55,0.44,-0.18,0.0545415391248228,0.007635815477475192,-0.04799655442984406,0.007310464014020857,0.5518279309689299,0.7246147699732196,0,0,0,0,0,0,1500,1500,1500,1500,1500,1500
1748733853.0759885,-0.03,-0.25,-0.1,-0.003272492347489368,0.001090830782496456,0.003272492347489368,0.007413396215582894,0.5516616774286582,0.7236418007493021,0,0,0,0,0,0,1500,1500,1500,1500,1500,1500
1748733853.1757739,-0.03,-0.25,-0.1,-0.003272492347489368,0.001090830782496456,0.003272492347489368,0.007413396215582894,0.5516616774286582,0.7236418007493021,0,0,0,0,0,0,1500,1500,1500,1500,1500,1500
1748733853.2598472,-0.12,0.32,-0.02,0.006544984694978736,0.003272492347489368,0.003272492347489368,0.007664863204763851,0.5517686908596531,0.7240302691064594,0,0,0,0,0,0,1500,1500,1500,1500,1500,1500
1748733853.3592553,-0.12,0.32,-0.02,0.006544984694978736,0.003272492347489368,0.003272492347489368,0.007664863204763851,0.5517686908596531,0.7240302691064594,0,0,0,0,0,0,1500,1500,1500,1500,1500,1500
1748733853.4594495,-0.02,-0.15,-0.04,0.002181661564992912,0.002181661564992912,-0.004363323129985824,0.007506511196926003,0.5519717925514785,0.7241386246494131,0,0,0,0,0,0,1500,1500,1500,1500,1500,1500
1748733853.5563178,-0.01,-0.28,-0.21,-0.003272492347489368,0.004363323129985824,-0.00545415391248228,0.00744029453960829,0.5521128403733627,0.724113268916111,0,0,0,0,0,0,1500,1500,1500,1500,1500,1500
1748733853.6590228,-0.01,-0.28,-0.21,-0.003272492347489368,0.004363323129985824,-0.00545415391248228,0.00744029453960829,0.5521128403733627,0.724113268916111,0,0,0,0,0,0,1500,1500,1500,1500,1500,1500
1748733853.7426918,-0.09,-0.1,-0.08,-0.001090830782496456,-0.002181661564992912,-0.001090830782496456,0.007298902079571708,0.5520458894762253,0.724208346045828,0,0,0,0,0,0,1500,1500,1500,1500,1500,1500
1748733853.8423843,-0.09,-0.1,-0.08,-0.001090830782496456,-0.002181661564992912,-0.001090830782496456,0.007298902079571708,0.5520458894762253,0.724208346045828,0,0,0,0,0,0,1500,1500,1500,1500,1500,1500
1748733853.9419124,0.08,-0.17,-0.02,-0.008726646259971648,0.003272492347489368,-0.002181661564992912,0.0068998063235401665,0.5520764375041325,0.7242484633083159,0,0,0,0,0,0,1500,1500,1500,1500,1500,1500
1748733854.0421457,0.06,-0.06,-0.14,0.001090830782496456,-0.002181661564992912,0.002181661564992912,0.007127182048784013,0.5522858001590412,0.7243532240774967,0,0,0,0,0,0,1500,1500,1500,1500,1500,1500
1748733854.1423228,0.06,-0.06,-0.14,0.001090830782496456,-0.002181661564992912,0.002181661564992912,0.007127182048784013,0.5522858001590412,0.7243532240774967,0,0,0,0,0,0,1500,1500,1500,1500,1500,1500
1748733854.2248712,-0.05,0.16,-0.05,0.00545415391248228,0.0,0.006544984694978736,0.007011711680885827,0.5522978163156743,0.724289205814739,0,0,0,0,0,0,1500,1500,1500,1500,1500,1500
1748733854.3257113,-0.05,0.16,-0.05,0.00545415391248228,0.0,0.006544984694978736,0.007011711680885827,0.5522978163156743,0.724289205814739,0,0,0,0,0,0,1500,1500,1500,1500,1500,1500
1748733854.425166,0.04,-0.04,-0.05,-0.001090830782496456,0.006544984694978736,-0.008726646259971648,0.00744755997660886,0.5522806279005132,0.7244104047106247,0,0,0,0,0,0,1500,1500,1500,1500,1500,1500
1748733854.5253973,0.06,0.12,-0.15,0.004363323129985824,0.004363323129985824,-0.001090830782496456,0.007189844978491755,0.5523781246843529,0.7243553733394099,0,0,0,0,0,0,1500,1500,1500,1500,1500,1500
1748733854.6247756,0.06,0.12,-0.15,0.004363323129985824,0.004363323129985824,-0.001090830782496456,0.007189844978491755,0.5523781246843529,0.7243553733394099,0,0,0,0,0,0,1500,1500,1500,1500,1500,1500
1748733854.7093203,0.0,-0.03,-0.02,-0.004363323129985824,-0.001090830782496456,0.0,0.007097718917567913,0.5524402753778671,0.7244891293826189,0,0,0,0,0,0,1500,1500,1500,1500,1500,1500
1748733854.8093183,0.0,-0.03,-0.02,-0.004363323129985824,-0.001090830782496456,0.0,0.007097718917567913,0.5524402753778671,0.7244891293826189,0,0,0,0,0,0,1500,1500,1500,1500,1500,1500
1748733854.9092298,0.01,-0.15,-0.05,0.00545415391248228,0.0,0.001090830782496456,0.007097718917567913,0.5524402753778671,0.7244891293826189,0,0,0,0,0,0,1500,1500,1500,1500,1500,1500
1748733854.9925094,-0.02,0.05,0.0,0.003272492347489368,-0.00545415391248228,-0.00545415391248228,0.006804120327535542,0.5523719981430244,0.724358937085323,0,0,0,0,0,0,1500,1500,1500,1500,1500,1500
1748733855.0909185,-0.02,0.05,0.0,0.003272492347489368,-0.00545415391248228,-0.00545415391248228,0.006804120327535542,0.5523719981430244,0.724358937085323,0,0,0,0,0,0,1500,1500,1500,1500,1500,1500
1748733855.192301,-0.05,-0.04,-0.14,0.001090830782496456,0.001090830782496456,-0.002181661564992912,0.006804120327535542,0.5523719981430244,0.724358937085323,0,0,0,0,0,0,1500,1500,1500,1500,1500,1500
1748733855.2909486,-0.05,-0.04,-0.14,0.001090830782496456,0.001090830782496456,-0.002181661564992912,0.006804120327535542,0.5523719981430244,0.724358937085323,0,0,0,0,0,0,1500,1500,1500,1500,1500,1500
1748733855.3927393,-0.01,0.02,-0.01,0.0,-0.001090830782496456,-0.002181661564992912,0.006404981011575306,0.552402666090431,0.724399074472593,0,0,0,0,0,0,1500,1500,1500,1500,1500,1500
1748733855.47565,-0.03,0.15,-0.06,-0.001090830782496456,-0.001090830782496456,-0.008726646259971648,0.006417486733789578,0.5525182800123754,0.7242763975177515,0,0,0,0,0,0,1500,1500,1500,1500,1500,1500
1748733855.5751908,-0.03,0.15,-0.06,-0.001090830782496456,-0.001090830782496456,-0.008726646259971648,0.006417486733789578,0.5525182800123754,0.7242763975177515,0,0,0,0,0,0,1500,1500,1500,1500,1500,1500
1748733855.6757,-0.13,0.0,-0.04,-0.004363323129985824,-0.007635815477475192,-0.004363323129985824,0.006147208350168149,0.5525002052203942,0.7243440646842212,0,0,0,0,0,0,1500,1500,1500,1500,1500,1500
1748733855.759229,-0.13,0.0,-0.04,-0.004363323129985824,-0.007635815477475192,-0.004363323129985824,0.006147208350168149,0.5525002052203942,0.7243440646842212,0,0,0,0,0,0,1500,1500,1500,1500,1500,1500
1748733855.8579738,0.06,-0.09,-0.17,-0.001090830782496456,0.001090830782496456,0.001090830782496456,0.006147208350168149,0.5525002052203942,0.7243440646842212,0,0,0,0,0,0,1500,1500,1500,1500,1500,1500
1748733855.9425027,0.02,0.07,0.0,0.001090830782496456,0.002181661564992912,0.0,0.0061839347593338765,0.5525136672012831,0.724505362915738,0,0,0,0,0,0,1500,1500,1500,1500,1500,1500
1748733856.0417593,0.02,0.07,0.0,0.001090830782496456,0.002181661564992912,0.0,0.0061839347593338765,0.5525136672012831,0.724505362915738,0,0,0,0,0,0,1500,1500,1500,1500,1500,1500
1748733856.1420898,0.04,-0.01,-0.02,-0.008726646259971648,0.003272492347489368,0.002181661564992912,0.00593138566953756,0.5525587630254881,0.7240305007253777,0,0,0,0,0,0,1500,1500,1500,1500,1500,1500
1748733856.2259164,0.04,-0.01,-0.02,-0.008726646259971648,0.003272492347489368,0.002181661564992912,0.00593138566953756,0.5525587630254881,0.7240305007253777,0,0,0,0,0,0,1500,1500,1500,1500,1500,1500
1748733856.3274426,0.04,0.28,0.11,0.011999138607461015,0.001090830782496456,0.006544984694978736,0.00593138566953756,0.5525587630254881,0.7240305007253777,0,0,0,0,0,0,1500,1500,1500,1500,1500,1500
1748733856.4273527,-0.05,0.16,-0.09,0.01090830782496456,0.004363323129985824,0.0,0.00593138566953756,0.5525587630254881,0.7240305007253777,0,0,0,0,0,0,1500,1500,1500,1500,1500,1500
1748733856.5255585,-0.05,0.16,-0.09,0.01090830782496456,0.004363323129985824,0.0,0.00593138566953756,0.5525587630254881,0.7240305007253777,0,0,0,0,0,0,1500,1500,1500,1500,1500,1500
1748733856.6264298,-0.07,0.14,-0.14,0.003272492347489368,-0.001090830782496456,0.0,0.0054954571450545765,0.5525759543879873,0.7239094160924565,0,0,0,0,0,0,1500,1500,1500,1500,1500,1500
1748733856.7092285,-0.07,0.14,-0.14,0.003272492347489368,-0.001090830782496456,0.0,0.0054954571450545765,0.5525759543879873,0.7239094160924565,0,0,0,0,0,0,1500,1500,1500,1500,1500,1500
1748733856.809376,0.0,0.06,0.01,-0.003272492347489368,0.001090830782496456,0.003272492347489368,0.005367596578472608,0.5524724325790455,0.7239681473411443,0,0,0,0,0,0,1500,1500,1500,1500,1500,1500
1748733856.909834,0.01,-0.1,-0.07,0.007635815477475192,-0.001090830782496456,-0.001090830782496456,0.005109755491925061,0.5525699583981907,0.7239131397961087,0,0,0,0,0,0,1500,1500,1500,1500,1500,1500
1748733856.9930801,0.01,-0.1,-0.07,0.007635815477475192,-0.001090830782496456,-0.001090830782496456,0.005109755491925061,0.5525699583981907,0.7239131397961087,0,0,0,0,0,0,1500,1500,1500,1500,1500,1500
1748733857.0921438,0.06,0.1,0.03,0.0,-0.004363323129985824,0.00545415391248228,0.005073044601592481,0.5525564346777774,0.723751846542456,0,0,0,0,0,0,1500,1500,1500,1500,1500,1500
1748733857.178966,0.06,0.1,0.03,0.0,-0.004363323129985824,0.00545415391248228,0.005073044601592481,0.5525564346777774,0.723751846542456,0,0,0,0,0,0,1500,1500,1500,1500,1500,1500
1748733857.2767358,0.0,-0.02,0.0,-0.003272492347489368,0.003272492347489368,-0.001090830782496456,0.005073044601592481,0.5525564346777774,0.723751846542456,0,0,0,0,0,0,1500,1500,1500,1500,1500,1500
1748733857.376663,-0.19,-0.08,-0.12,-0.004363323129985824,0.004363323129985824,-0.013089969389957472,0.005017536285633162,0.5526322565006779,0.7240469391254583,0,0,0,0,0,0,1500,1500,1500,1500,1500,1500
1748733857.4591768,-0.19,-0.08,-0.12,-0.004363323129985824,0.004363323129985824,-0.013089969389957472,0.005017536285633162,0.5526322565006779,0.7240469391254583,0,0,0,0,0,0,1500,1500,1500,1500,1500,1500
1748733857.559154,0.03,0.0,0.03,-0.008726646259971648,-0.007635815477475192,0.014180800172453928,0.005146970252972079,0.5529166243009075,0.723544760882295,0,0,0,0,0,0,1500,1500,1500,1500,1500,1500
1748733857.6594484,0.03,0.0,0.03,-0.008726646259971648,-0.007635815477475192,0.014180800172453928,0.005146970252972079,0.5529166243009075,0.723544760882295,0,0,0,0,0,0,1500,1500,1500,1500,1500,1500
1748733857.744559,0.21,0.21,-0.28,-0.04036073895236887,0.04908738521234052,0.06654067773228381,0.005467389480838428,0.5543563356345643,0.7280085872747919,0,0,0,0,0,0,1500,1500,1500,1500,1500,1500
1748733857.8428342,0.32,-0.1,0.05,0.001090830782496456,0.001090830782496456,0.028361600344907856,0.005069759859631717,0.5544975212175192,0.7330670886815778,0,0,0,0,0,0,1500,1500,1500,1500,1500,1500
1748733857.9431114,0.32,-0.1,0.05,0.001090830782496456,0.001090830782496456,0.028361600344907856,0.005069759859631717,0.5544975212175192,0.7330670886815778,0,0,0,0,0,0,1500,1500,1500,1500,1500,1500
