time,ay,ax,az,gy,gx,gz,roll,pitch,yaw,cmd_fx,cmd_fy,cmd_fz,cmd_tx,cmd_ty,cmd_tz,pwm_1,pwm_2,pwm_3,pwm_4,pwm_5,pwm_6
1747554027.067847,0.0,0.0,0.0,0.0,0.0,0.0,0.0,0.0,0.0,0,0,0,0,0,0,1500,1500,1500,1500,1500,1500
1747554027.1500103,-0.04,-0.24,0.12,0.002181661564992912,0.004363323129985824,-0.003272492347489368,2.0607452895974556,-0.13706477535514291,-0.2313425669003533,0,0,0,0,0,0,1500,1500,1500,1500,1500,1500
1747554027.2510366,-0.04,-0.24,0.12,0.002181661564992912,0.004363323129985824,-0.003272492347489368,2.0607452895974556,-0.13706477535514291,-0.2313425669003533,0,0,0,0,0,0,1500,1500,1500,1500,1500,1500
1747554027.351015,-0.05,-0.26,0.17,0.004363323129985824,-0.002181661564992912,-0.001090830782496456,2.0607452895974556,-0.13706477535514291,-0.2313425669003533,0,0,0,0,0,0,1500,1500,1500,1500,1500,1500
1747554027.450736,-0.05,-0.26,0.17,0.004363323129985824,-0.002181661564992912,-0.001090830782496456,2.0607452895974556,-0.13706477535514291,-0.2313425669003533,0,0,0,0,0,0,1500,1500,1500,1500,1500,1500
1747554027.5509696,-0.07,-0.26,0.09,-0.002181661564992912,-0.004363323129985824,0.002181661564992912,2.0607452895974556,-0.13706477535514291,-0.2313425669003533,0,0,0,0,0,0,1500,1500,1500,1500,1500,1500
1747554027.633904,0.0,0.0,0.05,-0.001090830782496456,-0.001090830782496456,0.004363323129985824,2.0607452895974556,-0.13706477535514291,-0.2313425669003533,0,0,0,0,0,0,1500,1500,1500,1500,1500,1500
1747554027.7348425,0.0,0.0,0.05,-0.001090830782496456,-0.001090830782496456,0.004363323129985824,2.0607452895974556,-0.13706477535514291,-0.2313425669003533,0,0,0,0,0,0,1500,1500,1500,1500,1500,1500
1747554027.8344274,0.0,-0.02,0.08,0.001090830782496456,0.002181661564992912,0.002181661564992912,2.0607452895974556,-0.13706477535514291,-0.2313425669003533,0,0,0,0,0,0,1500,1500,1500,1500,1500,1500
1747554027.917485,0.0,-0.02,0.08,0.001090830782496456,0.002181661564992912,0.002181661564992912,2.0607452895974556,-0.13706477535514291,-0.2313425669003533,0,0,0,0,0,0,1500,1500,1500,1500,1500,1500
1747554028.0181746,0.0,-0.01,0.0,0.0,-0.003272492347489368,-0.001090830782496456,2.0607452895974556,-0.13706477535514291,-0.2313425669003533,0,0,0,0,0,0,1500,1500,1500,1500,1500,1500
1747554028.1176224,0.0,-0.04,0.02,-0.004363323129985824,-0.003272492347489368,-0.002181661564992912,2.0607452895974556,-0.13706477535514291,-0.2313425669003533,0,0,0,0,0,0,1500,1500,1500,1500,1500,1500
1747554028.217233,0.0,-0.04,0.02,-0.004363323129985824,-0.003272492347489368,-0.002181661564992912,2.0607452895974556,-0.13706477535514291,-0.2313425669003533,0,0,0,0,0,0,1500,1500,1500,1500,1500,1500
1747554028.3174393,-0.04,-0.03,-0.04,0.001090830782496456,0.0,-0.00545415391248228,2.0607452895974556,-0.13706477535514291,-0.2313425669003533,0,0,0,0,0,0,1500,1500,1500,1500,1500,1500
1747554028.4013,-0.04,-0.03,-0.04,0.001090830782496456,0.0,-0.00545415391248228,2.0607452895974556,-0.13706477535514291,-0.2313425669003533,0,0,0,0,0,0,1500,1500,1500,1500,1500,1500
1747554028.5015569,0.0,-0.02,0.02,0.0,0.002181661564992912,-0.007635815477475192,2.0607452895974556,-0.13706477535514291,-0.2313425669003533,0,0,0,0,0,0,1500,1500,1500,1500,1500,1500
1747554028.6012805,-0.02,-0.01,0.07,-0.002181661564992912,0.001090830782496456,-0.002181661564992912,2.0607452895974556,-0.13706477535514291,-0.2313425669003533,0,0,0,0,0,0,1500,1500,1500,1500,1500,1500
1747554028.701327,-0.02,-0.01,0.07,-0.002181661564992912,0.001090830782496456,-0.002181661564992912,2.0607452895974556,-0.13706477535514291,-0.2313425669003533,0,0,0,0,0,0,1500,1500,1500,1500,1500,1500
1747554028.8013334,-0.01,-0.01,0.0,-0.001090830782496456,0.0,-0.001090830782496456,2.0607452895974556,-0.13706477535514291,-0.2313425669003533,0,0,0,0,0,0,1500,1500,1500,1500,1500,1500
1747554028.88456,-0.02,-0.01,0.05,-0.001090830782496456,0.00545415391248228,0.0,2.0607452895974556,-0.13706477535514291,-0.2313425669003533,0,0,0,0,0,0,1500,1500,1500,1500,1500,1500
1747554028.9843426,-0.02,-0.01,0.05,-0.001090830782496456,0.00545415391248228,0.0,2.0607452895974556,-0.13706477535514291,-0.2313425669003533,0,0,0,0,0,0,1500,1500,1500,1500,1500,1500
1747554029.084263,-0.05,-0.03,-0.02,-0.002181661564992912,0.006544984694978736,0.00545415391248228,2.0607452895974556,-0.13706477535514291,-0.2313425669003533,0,0,0,0,0,0,1500,1500,1500,1500,1500,1500
1747554029.1677296,-0.05,-0.03,-0.02,-0.002181661564992912,0.006544984694978736,0.00545415391248228,2.0607452895974556,-0.13706477535514291,-0.2313425669003533,0,0,0,0,0,0,1500,1500,1500,1500,1500,1500
1747554029.2674866,0.02,0.0,0.01,0.0,0.002181661564992912,0.003272492347489368,2.0607452895974556,-0.13706477535514291,-0.2313425669003533,0,0,0,0,0,0,1500,1500,1500,1500,1500,1500
1747554029.3530433,-0.05,-0.04,0.01,-0.002181661564992912,-0.004363323129985824,0.0,2.0607452895974556,-0.13706477535514291,-0.2313425669003533,0,0,0,0,0,0,1500,1500,1500,1500,1500,1500
1747554029.4513285,-0.05,-0.04,0.01,-0.002181661564992912,-0.004363323129985824,0.0,2.0607452895974556,-0.13706477535514291,-0.2313425669003533,0,0,0,0,0,0,1500,1500,1500,1500,1500,1500
1747554029.5513523,-0.06,-0.07,0.0,-0.003272492347489368,-0.002181661564992912,-0.001090830782496456,2.0607452895974556,-0.13706477535514291,-0.2313425669003533,0,0,0,0,0,0,1500,1500,1500,1500,1500,1500
1747554029.634816,-0.06,-0.07,0.0,-0.003272492347489368,-0.002181661564992912,-0.001090830782496456,2.0607452895974556,-0.13706477535514291,-0.2313425669003533,0,0,0,0,0,0,1500,1500,1500,1500,1500,1500
1747554029.7339017,0.02,-0.02,0.1,-0.002181661564992912,-0.001090830782496456,-0.002181661564992912,2.0607452895974556,-0.13706477535514291,-0.2313425669003533,0,0,0,0,0,0,1500,1500,1500,1500,1500,1500
1747554029.8300586,-0.07,-0.06,-0.02,-0.001090830782496456,0.001090830782496456,-0.00545415391248228,2.0607452895974556,-0.13706477535514291,-0.2313425669003533,0,0,0,0,0,0,1500,1500,1500,1500,1500,1500
1747554029.9179306,-0.07,-0.06,-0.02,-0.001090830782496456,0.001090830782496456,-0.00545415391248228,2.0607452895974556,-0.13706477535514291,-0.2313425669003533,0,0,0,0,0,0,1500,1500,1500,1500,1500,1500
1747554030.0176437,0.04,0.0,-0.01,0.003272492347489368,0.001090830782496456,-0.002181661564992912,2.0607452895974556,-0.13706477535514291,-0.2313425669003533,0,0,0,0,0,0,1500,1500,1500,1500,1500,1500
1747554030.1176333,0.04,0.0,-0.01,0.003272492347489368,0.001090830782496456,-0.002181661564992912,2.0607452895974556,-0.13706477535514291,-0.2313425669003533,0,0,0,0,0,0,1500,1500,1500,1500,1500,1500
1747554030.217351,-0.03,-0.04,0.02,0.001090830782496456,0.001090830782496456,0.002181661564992912,2.0607452895974556,-0.13706477535514291,-0.2313425669003533,0,0,0,0,0,0,1500,1500,1500,1500,1500,1500
1747554030.31749,-0.06,-0.04,-0.01,-0.001090830782496456,0.0,0.003272492347489368,2.0607452895974556,-0.13706477535514291,-0.2313425669003533,0,0,0,0,0,0,1500,1500,1500,1500,1500,1500
1747554030.4011142,-0.06,-0.04,-0.01,-0.001090830782496456,0.0,0.003272492347489368,2.0607452895974556,-0.13706477535514291,-0.2313425669003533,0,0,0,0,0,0,1500,1500,1500,1500,1500,1500
1747554030.5010283,0.02,0.0,0.03,-0.001090830782496456,0.006544984694978736,0.001090830782496456,2.0607452895974556,-0.13706477535514291,-0.2313425669003533,0,0,0,0,0,0,1500,1500,1500,1500,1500,1500
1747554030.6010988,0.02,0.0,0.03,-0.001090830782496456,0.006544984694978736,0.001090830782496456,2.0607452895974556,-0.13706477535514291,-0.2313425669003533,0,0,0,0,0,0,1500,1500,1500,1500,1500,1500
1747554030.7013526,-0.05,-0.08,-0.02,-0.002181661564992912,0.001090830782496456,-0.001090830782496456,2.0607452895974556,-0.13706477535514291,-0.2313425669003533,0,0,0,0,0,0,1500,1500,1500,1500,1500,1500
1747554030.8012183,0.0,0.0,0.03,0.001090830782496456,-0.002181661564992912,-0.004363323129985824,2.0607452895974556,-0.13706477535514291,-0.2313425669003533,0,0,0,0,0,0,1500,1500,1500,1500,1500,1500
1747554030.8837545,0.0,0.0,0.03,0.001090830782496456,-0.002181661564992912,-0.004363323129985824,2.0607452895974556,-0.13706477535514291,-0.2313425669003533,0,0,0,0,0,0,1500,1500,1500,1500,1500,1500
1747554030.9847538,-0.02,-0.02,0.07,-0.00545415391248228,-0.006544984694978736,-0.007635815477475192,2.0607452895974556,-0.13706477535514291,-0.2313425669003533,0,0,0,0,0,0,1500,1500,1500,1500,1500,1500
1747554031.0843408,-0.02,-0.02,0.07,-0.00545415391248228,-0.006544984694978736,-0.007635815477475192,2.0607452895974556,-0.13706477535514291,-0.2313425669003533,3,0,0,0,0,0,1461,1538,1500,1540,1540,1540
1747554031.168133,-0.03,-0.01,-0.03,0.003272492347489368,0.001090830782496456,0.001090830782496456,2.0607452895974556,-0.13706477535514291,-0.2313425669003533,3,0,0,0,0,0,1461,1538,1500,1563,1550,1550
1747554031.2677505,0.0,0.02,0.01,0.003272492347489368,-0.001090830782496456,0.002181661564992912,2.0607452895974556,-0.13706477535514291,-0.2313425669003533,3,0,0,0,0,0,1461,1538,1500,1563,1550,1550
1747554031.3684988,0.0,0.02,0.01,0.003272492347489368,-0.001090830782496456,0.002181661564992912,2.0607452895974556,-0.13706477535514291,-0.2313425669003533,3,0,0,0,0,0,1461,1538,1500,1563,1550,1550
1747554031.468411,-0.1,-0.17,0.03,0.04799655442984406,0.014180800172453928,-0.04581489286485115,2.0624372253829444,-0.1355196277686401,-0.2299430107107019,3,0,0,0,0,0,1461,1538,1500,1563,1550,1550
1747554031.5675755,-0.1,-0.17,0.03,0.04799655442984406,0.014180800172453928,-0.04581489286485115,2.0624372253829444,-0.1355196277686401,-0.2299430107107019,3,0,0,0,0,0,1461,1538,1500,1563,1550,1550
1747554031.667171,0.02,0.05,-0.02,0.050178215994836975,0.019634954084936207,-0.11235557059713497,2.0700678861507176,-0.12499389163848378,-0.22147035170212154,3,0,0,0,0,0,1461,1538,1500,1563,1550,1550
1747554031.7727056,-0.06,0.0,0.09,0.05235987755982989,0.044724062082354694,-0.13308135546456762,2.075697747486957,-0.11115551127637129,-0.20891477941607436,3,0,0,0,0,0,1461,1538,1500,1563,1550,1550
1747554031.8668504,-0.06,0.0,0.09,0.05235987755982989,0.044724062082354694,-0.13308135546456762,2.075697747486957,-0.11115551127637129,-0.20891477941607436,3,0,0,0,0,0,1461,1538,1500,1563,1550,1550
1747554031.9677558,-0.01,0.0,0.01,0.06654067773228381,0.06435901616729091,-0.1407171709420428,2.08291890390396,-0.09643104429563021,-0.1908794203389533,3,0,0,0,0,0,1461,1538,1500,1563,1550,1550
1747554032.0678687,0.0,0.0,0.06,0.06981317007977318,0.09490227807719166,-0.12980886311707826,2.0910256865009202,-0.0851715211830111,-0.17058830486544746,3,0,0,0,0,0,1461,1538,1500,1563,1550,1550
1747554032.1511602,0.0,0.0,0.06,0.06981317007977318,0.09490227807719166,-0.12980886311707826,2.0910256865009202,-0.0851715211830111,-0.17058830486544746,3,0,0,0,0,0,1461,1538,1500,1563,1550,1550
1747554032.25075,-0.09,-0.06,-0.1,0.06763150851478027,0.12326387842209953,-0.1090830782496456,2.0995801656167377,-0.07732130406032713,-0.14684288216704838,3,0,0,0,0,0,1461,1538,1500,1563,1550,1550
1747554032.3510373,-0.09,-0.06,-0.1,0.06763150851478027,0.12326387842209953,-0.1090830782496456,2.0995801656167377,-0.07732130406032713,-0.14684288216704838,3,0,0,0,0,0,1461,1538,1500,1563,1550,1550
1747554032.451038,-0.13,0.03,0.11,0.055632369907319255,0.13526301702956053,-0.09053895494720585,2.107534980929846,-0.07401056667978817,-0.1218970440239847,3,0,0,0,0,0,1461,1538,1500,1563,1550,1550
1747554032.5511432,-0.13,-0.03,0.06,0.039269908169872414,0.14289883250703572,-0.0818123086872342,2.112721488197433,-0.07343041607386884,-0.09635137160799917,3,0,0,0,0,0,1461,1538,1500,1563,1550,1550
1747554032.6345456,-0.13,-0.03,0.06,0.039269908169872414,0.14289883250703572,-0.0818123086872342,2.112721488197433,-0.07343041607386884,-0.09635137160799917,3,0,0,0,0,0,1461,1538,1500,1563,1550,1550
1747554032.734273,-0.16,0.0,-0.05,0.01090830782496456,0.1505346479845109,-0.07090400086226964,2.114702290283619,-0.0749616777759454,-0.07050410751517357,3,0,0,0,0,0,1461,1538,1500,1563,1550,1550
1747554032.8322766,-0.16,-0.02,0.07,-0.00545415391248228,0.15707963267948966,-0.05999569303730508,2.1128064154796413,-0.07819499143593218,-0.046030476613502125,3,0,0,0,0,0,1461,1538,1500,1563,1550,1550
1747554032.9176073,-0.16,-0.02,0.07,-0.00545415391248228,0.15707963267948966,-0.05999569303730508,2.1128064154796413,-0.07819499143593218,-0.046030476613502125,3,0,0,0,0,0,1461,1538,1500,1563,1550,1550
1747554033.0178294,-0.15,0.05,0.02,-0.0272707695624114,0.16035212502697901,-0.05126904677733343,2.108001935854542,-0.08310552741832289,-0.020198822881523804,3,0,0,0,0,0,1461,1538,1500,1563,1550,1550
1747554033.118127,-0.15,0.05,0.02,-0.0272707695624114,0.16035212502697901,-0.05126904677733343,2.108001935854542,-0.08310552741832289,-0.020198822881523804,3,0,0,0,0,0,1461,1538,1500,1563,1550,1550
1747554033.2173562,-0.12,0.03,0.08,-0.038179077387375956,0.16035212502697901,-0.04363323129985824,2.101029959147155,-0.08796372665528034,0.0036772587246890346,3,0,0,0,0,0,1461,1538,1500,1563,1550,1550
1747554033.3173106,-0.13,0.03,0.07,-0.05126904677733343,0.1636246173744684,-0.032724923474893676,2.0914278720209705,-0.09415677706824906,0.02873631959806694,3,0,0,0,0,0,1461,1538,1500,1563,1550,1550
1747554033.400229,-0.13,0.03,0.07,-0.05126904677733343,0.1636246173744684,-0.032724923474893676,2.0914278720209705,-0.09415677706824906,0.02873631959806694,3,0,0,0,0,0,1461,1538,1500,1563,1550,1550
1747554033.5009642,-0.2,0.09,0.09,-0.05781403147231216,0.16144295580947549,-0.028361600344907856,2.080771273237672,-0.10081164611414867,0.05150833526629984,3,0,0,0,0,0,1461,1538,1500,1563,1550,1550
1747554033.601138,-0.2,0.09,0.09,-0.05781403147231216,0.16144295580947549,-0.028361600344907856,2.080771273237672,-0.10081164611414867,0.05150833526629984,3,0,0,0,0,0,1461,1538,1500,1563,1550,1550
1747554033.7013154,-0.18,-0.07,0.02,-0.0719948316447661,0.15271630954950383,-0.031634092692397225,2.0674453149758767,-0.1072949101099624,0.07544820200635363,3,0,0,0,0,0,1461,1538,1500,1563,1550,1550
1747554033.8013408,-0.27,-0.03,-0.02,-0.08290313946973066,0.1538071403320003,-0.030543261909900768,2.052599278486233,-0.11307596810903967,0.09895238050963767,3,0,0,0,0,0,1461,1538,1500,1563,1550,1550
1747554033.8839335,-0.27,-0.03,-0.02,-0.08290313946973066,0.1538071403320003,-0.030543261909900768,2.052599278486233,-0.11307596810903967,0.09895238050963767,3,0,0,0,0,0,1461,1538,1500,1563,1550,1550
1747554033.9841993,-0.11,-0.01,0.06,-0.09490227807719166,0.14289883250703572,-0.031634092692397225,2.035600588929477,-0.11813840084125232,0.12195262588966017,3,0,0,0,0,0,1461,1538,1500,1563,1550,1550
1747554034.084041,-0.11,-0.01,0.06,-0.09490227807719166,0.14289883250703572,-0.031634092692397225,2.035600588929477,-0.11813840084125232,0.12195262588966017,3,0,0,0,0,0,1461,1538,1500,1563,1550,1550
1747554034.1673832,-0.18,-0.05,-0.16,-0.10035643198967395,0.14180800172453928,-0.031634092692397225,2.0185578647622426,-0.12199025521329582,0.14293176430525628,3,0,0,0,0,0,1461,1538,1500,1563,1550,1550
1747554034.2675328,-0.08,0.0,0.04,-0.11344640137963143,0.14180800172453928,-0.022907446432425576,1.998906408806541,-0.1257502656562772,0.1646235365043296,3,0,0,0,0,0,1461,1538,1500,1563,1550,1550
1747554034.3677278,-0.08,0.0,0.04,-0.11344640137963143,0.14180800172453928,-0.022907446432425576,1.998906408806541,-0.1257502656562772,0.1646235365043296,3,0,0,0,0,0,1461,1538,1500,1563,1550,1550
1747554034.4679782,-0.12,-0.05,-0.09,-0.11126473981463851,0.14508049407202864,-0.013089969389957472,1.9797839268492377,-0.13058361773475127,0.1851021663708013,3,0,0,0,0,0,1461,1538,1500,1563,1550,1550
1747554034.567968,-0.13,0.0,0.12,-0.1265363707695889,0.12871803233458182,-0.011999138607461015,1.9583340641554552,-0.13580776659823848,0.20551509681841662,3,0,0,0,0,0,1461,1538,1500,1563,1550,1550
1747554034.6510515,-0.13,0.0,0.12,-0.1265363707695889,0.12871803233458182,-0.011999138607461015,1.9583340641554552,-0.13580776659823848,0.20551509681841662,-3,0,0,0,0,0,1501,1498,1500,1523,1510,1510
1747554034.7510839,-0.19,-0.04,0.03,-0.12871803233458182,0.12980886311707826,-0.008726646259971648,1.9373289577043498,-0.14063292006860123,0.2234913663319776,-3,0,0,0,0,0,1538,1461,1500,1483,1470,1470
1747554034.8510587,-0.19,-0.04,0.03,-0.12871803233458182,0.12980886311707826,-0.008726646259971648,1.9373289577043498,-0.14063292006860123,0.2234913663319776,-3,0,0,0,0,0,1538,1461,1500,1443,1445,1445
1747554034.9505258,-0.06,-0.19,0.01,-0.11235557059713497,0.11344640137963143,0.026179938779914945,1.9149921740113733,-0.1466761162558206,0.2414053156602869,-3,0,0,0,0,0,1538,1461,1500,1430,1445,1445
1747554035.050053,-0.22,-0.24,0.06,-0.05890486225480862,0.08290313946973066,0.10253809355466686,1.9005798534915437,-0.16037695484407935,0.2529453972096965,-3,0,0,0,0,0,1538,1461,1500,1430,1445,1445
1747554035.1339092,-0.22,-0.24,0.06,-0.05890486225480862,0.08290313946973066,0.10253809355466686,1.9005798534915437,-0.16037695484407935,0.2529453972096965,-3,0,0,0,0,0,1538,1461,1500,1430,1445,1445
1747554035.234172,-0.42,-0.2,0.0,0.020725784867432664,0.05126904677733343,0.24652775684419906,1.9023083167835637,-0.1871366798551088,0.254416051889164,-3,0,0,0,0,0,1538,1461,1500,1430,1445,1445
1747554035.334022,-0.42,-0.2,0.0,0.020725784867432664,0.05126904677733343,0.24652775684419906,1.9023083167835637,-0.1871366798551088,0.254416051889164,-3,0,0,0,0,0,1538,1461,1500,1430,1445,1445
1747554035.4183707,0.09,-0.1,-0.03,0.00545415391248228,0.022907446432425576,0.2912518189265537,1.9052642943115654,-0.22523836058124103,0.2464861562175741,-3,0,0,0,0,0,1538,1461,1500,1430,1445,1445
1747554035.5180917,-0.1,-0.02,-0.05,-0.001090830782496456,-0.013089969389957472,0.29561514205653955,1.9089451059485654,-0.26804344800737556,0.23161000875967125,-3,0,0,0,0,0,1538,1461,1500,1430,1445,1445
1747554035.618355,-0.1,-0.02,-0.05,-0.001090830782496456,-0.013089969389957472,0.29561514205653955,1.9089451059485654,-0.26804344800737556,0.23161000875967125,-3,0,0,0,0,0,1538,1461,1500,1430,1445,1445
1747554035.7181163,-0.08,0.03,0.03,-0.016362461737446838,-0.03490658503988659,0.25743606466916363,1.912870880937783,-0.30367031780947396,0.213704634175412,-3,0,0,0,0,0,1538,1461,1500,1430,1445,1445
1747554035.810271,-0.01,0.0,-0.05,-0.037088246604879506,-0.07308566242726255,0.22907446432425577,1.9153740525900058,-0.3351302997786926,0.19165147275163033,-3,0,0,0,0,0,1538,1461,1500,1430,1445,1445
1747554035.9002824,-0.01,0.0,-0.05,-0.037088246604879506,-0.07308566242726255,0.22907446432425577,1.9153740525900058,-0.3351302997786926,0.19165147275163033,-3,0,0,0,0,0,1538,1461,1500,1430,1445,1445
1747554036.0010788,-0.08,-0.01,0.0,-0.04799655442984406,-0.08835729338221293,0.19634954084936207,1.9168546344512052,-0.3613485749698883,0.16737125475765294,-3,0,0,0,0,0,1538,1461,1500,1430,1445,1445
1747554036.1010373,-0.08,-0.01,0.0,-0.04799655442984406,-0.08835729338221293,0.19634954084936207,1.9168546344512052,-0.3613485749698883,0.16737125475765294,-3,0,0,0,0,0,1538,1461,1500,1430,1445,1445
1747554036.2015262,-0.07,0.0,-0.04,-0.05345070834232634,-0.11453723216212788,0.17453292519943295,1.918626154065766,-0.38068808470361587,0.14223348093675425,-3,0,0,0,0,0,1538,1461,1500,1430,1445,1445
1747554036.3011923,-0.1,-0.05,-0.1,-0.05672320068981571,-0.13526301702956053,0.15707963267948966,1.9214292427540685,-0.3973851017179603,0.11323772501750543,-3,0,0,0,0,0,1538,1461,1500,1430,1445,1445
1747554036.3843212,-0.1,-0.05,-0.1,-0.05672320068981571,-0.13526301702956053,0.15707963267948966,1.9214292427540685,-0.3973851017179603,0.11323772501750543,-3,0,0,0,0,0,1538,1461,1500,1430,1445,1445
1747554036.4843042,-0.07,-0.07,-0.03,-0.05781403147231216,-0.1538071403320003,0.14289883250703572,1.9250359139566011,-0.4113859672558751,0.08187672226133286,-3,0,0,0,0,0,1538,1461,1500,1430,1445,1445
1747554036.5837247,-0.07,-0.07,-0.03,-0.05781403147231216,-0.1538071403320003,0.14289883250703572,1.9250359139566011,-0.4113859672558751,0.08187672226133286,-3,0,0,0,0,0,1538,1461,1500,1430,1445,1445
1747554036.6670568,-0.14,-0.11,-0.02,-0.04581489286485115,-0.17453292519943295,0.136353847812057,1.9308866606289485,-0.42238197855783627,0.04978025635773784,-3,0,0,0,0,0,1538,1461,1500,1430,1445,1445
1747554036.76751,-0.05,-0.1,0.05,-0.04908738521234052,-0.18871372537188688,0.12544553998709243,1.938549400625652,-0.43125499169426934,0.012993810936601203,-3,0,0,0,0,0,1538,1461,1500,1430,1445,1445
1747554036.867489,-0.05,-0.1,0.05,-0.04908738521234052,-0.18871372537188688,0.12544553998709243,1.938549400625652,-0.43125499169426934,0.012993810936601203,-3,0,0,0,0,0,1538,1461,1500,1430,1445,1445
1747554036.9670377,-0.09,-0.08,0.02,-0.050178215994836975,-0.19962203319685143,0.11344640137963143,1.946634326174275,-0.4370331287813336,-0.02360429304848701,-3,0,0,0,0,0,1538,1461,1500,1430,1445,1445
1747554037.0676649,-0.06,-0.06,0.01,-0.05781403147231216,-0.21162117180431245,0.10253809355466686,1.955119077981268,-0.4404023541819177,-0.06373146884834748,-3,0,0,0,0,0,1538,1461,1500,1430,1445,1445
1747554037.1506455,-0.06,-0.06,0.01,-0.05781403147231216,-0.21162117180431245,0.10253809355466686,1.955119077981268,-0.4404023541819177,-0.06373146884834748,-3,0,0,0,0,0,1538,1461,1500,1430,1445,1445
1747554037.250937,-0.14,-0.03,-0.04,-0.07308566242726255,-0.22362031041177347,0.08726646259971647,1.9620018753073383,-0.4411940302037134,-0.10205161508468416,-3,0,0,0,0,0,1538,1461,1500,1430,1445,1445
1747554037.351154,-0.14,-0.03,-0.04,-0.07308566242726255,-0.22362031041177347,0.08726646259971647,1.9620018753073383,-0.4411940302037134,-0.10205161508468416,-3,0,0,0,0,0,1538,1461,1500,1430,1445,1445
1747554037.451199,-0.04,-0.04,0.0,-0.08726646259971647,-0.23234695667174513,0.07744898555724837,1.967386069344019,-0.43950468239022916,-0.143695643097907,-3,0,0,0,0,0,1538,1461,1500,1430,1445,1445
1747554037.5509799,0.04,-0.01,0.02,-0.10362892433716332,-0.24107360293171676,0.06544984694978735,1.9700975731872157,-0.4353317954198252,-0.18562274520608985,-3,0,0,0,0,0,1538,1461,1500,1430,1445,1445
1747554037.6334968,0.04,-0.01,0.02,-0.10362892433716332,-0.24107360293171676,0.06544984694978735,1.9700975731872157,-0.4353317954198252,-0.18562274520608985,-3,0,0,0,0,0,1538,1461,1500,1430,1445,1445
1747554037.7339685,-0.01,-0.09,0.03,-0.1090830782496456,-0.2476185876266955,0.055632369907319255,1.9708291163883394,-0.429527450417532,-0.22762814999195358,-3,0,0,0,0,0,1538,1461,1500,1430,1445,1445
1747554037.833723,-0.01,-0.09,0.03,-0.1090830782496456,-0.2476185876266955,0.055632369907319255,1.9708291163883394,-0.429527450417532,-0.22762814999195358,-3,0,0,0,0,0,1538,1461,1500,1430,1445,1445
1747554037.9178233,0.05,-0.04,0.0,-0.12435470920459599,-0.2476185876266955,0.05126904677733343,1.9698660902151974,-0.42272099571350574,-0.26711767374864986,-3,0,0,0,0,0,1538,1461,1500,1430,1445,1445
1747554038.0172086,-0.03,-0.09,0.02,-0.1341721862470641,-0.25416357232167425,0.04363323129985824,1.967143410320845,-0.41418740737734744,-0.30941922055600707,-3,0,0,0,0,0,1538,1461,1500,1430,1445,1445
1747554038.1171844,-0.03,-0.09,0.02,-0.1341721862470641,-0.25416357232167425,0.04363323129985824,1.967143410320845,-0.41418740737734744,-0.30941922055600707,-3,0,0,0,0,0,1538,1461,1500,1430,1445,1445
1747554038.2174144,0.0,-0.08,-0.01,-0.13962634015954636,-0.24980024919168842,0.037088246604879506,1.9624218818820784,-0.40575652935137085,-0.34860618191890935,-3,0,0,0,0,0,1538,1461,1500,1430,1445,1445
1747554038.305167,0.03,-0.13,-0.03,-0.1461713248545251,-0.24980024919168842,0.031634092692397225,1.9559779744271428,-0.3962090728529734,-0.38953414273674447,-3,0,0,0,0,0,1538,1461,1500,1430,1445,1445
1747554038.4003148,0.03,-0.13,-0.03,-0.1461713248545251,-0.24980024919168842,0.031634092692397225,1.9559779744271428,-0.3962090728529734,-0.38953414273674447,-3,0,0,0,0,0,1538,1461,1500,1430,1445,1445
1747554038.5009902,0.05,-0.1,-0.01,-0.14835298641951802,-0.2454369260617026,0.02945243112740431,1.9484154228152224,-0.3862825136266721,-0.42984285934061395,-3,0,0,0,0,0,1538,1461,1500,1430,1445,1445
1747554038.600597,0.05,-0.1,-0.01,-0.14835298641951802,-0.2454369260617026,0.02945243112740431,1.9484154228152224,-0.3862825136266721,-0.42984285934061395,-3,0,0,0,0,0,1538,1461,1500,1430,1445,1445
1747554038.6840796,0.13,-0.09,-0.03,-0.14726215563702155,-0.2454369260617026,0.025089107997418487,1.9400804019711124,-0.3762754788946352,-0.46935929834873436,-3,0,0,0,0,0,1538,1461,1500,1430,1445,1445
1747554038.7849739,0.13,-0.09,-0.03,-0.14726215563702155,-0.2454369260617026,0.025089107997418487,1.9400804019711124,-0.3762754788946352,-0.46935929834873436,-3,0,0,0,0,0,1538,1461,1500,1430,1445,1445
1747554038.8843753,0.07,-0.09,-0.01,-0.1439896632895322,-0.24216443371421323,0.026179938779914945,1.9319188992986946,-0.3668247481903954,-0.5080961928009652,-3,0,0,0,0,0,1538,1461,1500,1430,1445,1445
1747554038.9842415,0.1,-0.11,-0.05,-0.14726215563702155,-0.23452861823673804,0.0272707695624114,1.9236908374725443,-0.35845124206097256,-0.5438408153670343,-3,0,0,0,0,0,1538,1461,1500,1430,1445,1445
1747554039.0839217,0.1,-0.11,-0.05,-0.14726215563702155,-0.23452861823673804,0.0272707695624114,1.9236908374725443,-0.35845124206097256,-0.5438408153670343,-3,0,0,0,0,0,1538,1461,1500,1430,1445,1445
1747554039.1669059,0.09,-0.16,0.02,-0.1439896632895322,-0.23125612588924865,0.030543261909900768,1.9141843504064608,-0.35014090845256207,-0.5814062797329747,0,0,0,0,0,0,1500,1500,1500,1470,1485,1485
1747554039.2676497,0.09,-0.13,-0.07,-0.1461713248545251,-0.22907446432425577,0.03381575425739013,1.9049658739558142,-0.3435527780894103,-0.6163917630426645,0,0,0,0,0,0,1500,1500,1500,1500,1500,1500
1747554039.3674781,0.09,-0.13,-0.07,-0.1461713248545251,-0.22907446432425577,0.03381575425739013,1.9049658739558142,-0.3435527780894103,-0.6163917630426645,0,-12.5,0,0,0,0,1460,1460,1460,1500,1500,1500
1747554039.4686975,0.1,-0.06,0.02,-0.12871803233458182,-0.2083486794568231,-0.04908738521234052,1.8952377039481665,-0.33108157285090806,-0.6497973914046431,0,-12.5,0,0,0,0,1420,1420,1425,1500,1500,1500
1747554039.566047,0.39,0.0,-0.04,-0.07963064712224129,-0.21271200258680892,-0.10471975511965978,1.88895285142189,-0.3124055433857101,-0.6767152120897941,0,-12.5,0,0,0,0,1413,1415,1425,1500,1500,1500
1747554039.6507318,0.39,0.0,-0.04,-0.07963064712224129,-0.21271200258680892,-0.10471975511965978,1.88895285142189,-0.3124055433857101,-0.6767152120897941,0,-12.5,0,0,0,0,1413,1415,1425,1500,1500,1500
1747554039.7509208,0.4,-0.22,0.03,-0.04799655442984406,-0.2814343418840856,-0.33161255787892263,1.8877091778367403,-0.2736074913167437,-0.7034626692059717,0,-12.5,0,0,0,0,1413,1415,1425,1500,1500,1500
1747554039.8506856,0.4,-0.22,0.03,-0.04799655442984406,-0.2814343418840856,-0.33161255787892263,1.8877091778367403,-0.2736074913167437,-0.7034626692059717,0,-12.5,0,0,0,0,1413,1415,1425,1500,1500,1500
1747554039.935227,-0.21,-0.15,0.0,-0.07417649320975901,-0.23561944901923448,-0.35452000431134817,1.8834346532367707,-0.2046958736505123,-0.7266550165265834,0,-12.5,0,0,0,0,1413,1415,1425,1500,1500,1500
1747554040.032363,0.0,-0.09,0.08,-0.07963064712224129,-0.15926129424448257,-0.2825251726665821,1.8734410998074194,-0.14948688367137267,-0.7405845178061226,0,-12.5,0,0,0,0,1413,1415,1425,1500,1500,1500
1747554040.1350048,0.0,-0.09,0.08,-0.07963064712224129,-0.15926129424448257,-0.2825251726665821,1.8734410998074194,-0.14948688367137267,-0.7405845178061226,0,-12.5,0,0,0,0,1413,1415,1425,1500,1500,1500
1747554040.2338698,0.04,-0.07,0.0,-0.05781403147231216,-0.11999138607461016,-0.21925698728178766,1.8642424580043235,-0.10953881149841126,-0.7489349385199525,0,-12.5,0,0,0,0,1413,1415,1425,1500,1500,1500
1747554040.3343272,0.04,-0.07,0.0,-0.05781403147231216,-0.11999138607461016,-0.21925698728178766,1.8642424580043235,-0.10953881149841126,-0.7489349385199525,0,-12.5,0,0,0,0,1413,1415,1425,1500,1500,1500
1747554040.4175644,0.19,-0.07,0.02,-0.02399827721492203,-0.07853981633974483,-0.1538071403320003,1.8593175965695927,-0.07928378041505081,-0.75552733122519,0,-12.5,0,0,0,0,1413,1415,1425,1500,1500,1500
1747554040.5166883,0.2,0.0,0.04,-0.015271630954950384,-0.032724923474893676,-0.10690141668465268,1.856679518165338,-0.06043180084939172,-0.7577256332814818,0,-12.5,0,0,0,0,1413,1415,1425,1500,1500,1500
1747554040.617398,0.2,0.0,0.04,-0.015271630954950384,-0.032724923474893676,-0.10690141668465268,1.856679518165338,-0.06043180084939172,-0.7577256332814818,0,-12.5,0,0,0,0,1413,1415,1425,1500,1500,1500
1747554040.7166364,0.15,-0.03,0.03,0.0,0.004363323129985824,-0.07417649320975901,1.8555229266465438,-0.04895157854892513,-0.7554763199446082,0,-12.5,0,0,0,0,1413,1415,1425,1500,1500,1500
1747554040.8090231,0.11,-0.07,0.07,0.008726646259971648,0.03381575425739013,-0.04908738521234052,1.8553866873518534,-0.04267284345859887,-0.7501021618748942,0,-12.5,0,0,0,0,1413,1415,1425,1500,1500,1500
1747554040.9006867,0.11,-0.07,0.07,0.008726646259971648,0.03381575425739013,-0.04908738521234052,1.8553866873518534,-0.04267284345859887,-0.7501021618748942,0,-12.5,0,0,0,0,1413,1415,1425,1500,1500,1500
1747554041.000561,0.12,-0.06,0.05,0.028361600344907856,0.07417649320975901,-0.022907446432425576,1.858045999838063,-0.04059713043817468,-0.740544380141752,0,-12.5,0,0,0,0,1413,1415,1425,1500,1500,1500
1747554041.1009212,0.12,-0.06,0.05,0.028361600344907856,0.07417649320975901,-0.022907446432425576,1.858045999838063,-0.04059713043817468,-0.740544380141752,0,-12.5,0,0,0,-1e-06,1413,1415,1425,1500,1500,1500
1747554041.215574,0.19,-0.01,0.07,0.028361600344907856,0.07417649320975901,-0.022907446432425576,1.8616749224090432,-0.04351444518796308,-0.7264384953643193,0,-12.5,0,0,0,-1e-06,1413,1415,1425,1500,1500,1500
1747554041.3168566,0.09,-0.03,0.1,0.017453292519943295,0.13308135546456762,0.006544984694978736,1.8641188661324493,-0.049121253412062776,-0.7077741387882941,0,-3.503365,0,0,0,-0.000811,1449,1450,1455,1500,1500,1500
1747554041.400925,0.09,-0.03,0.1,0.017453292519943295,0.13308135546456762,0.006544984694978736,1.8641188661324493,-0.049121253412062776,-0.7077741387882941,0,0,0,0,0,0,1489,1490,1495,1500,1500,1500
1747554041.500861,0.28,0.04,0.09,0.008726646259971648,0.16035212502697901,0.008726646259971648,1.863646249460539,-0.05658929156086953,-0.6870041293172834,0,0,0,0,-0.093848,0,1500,1500,1500,1500,1500,1500
1747554041.5928411,0.32,-0.24,-0.01,0.050178215994836975,0.16035212502697901,0.028361600344907856,1.8656679378670038,-0.07279666036444754,-0.6639018508916993,0,0,0,0.01399,-0.28,0,1500,1500,1500,1500,1460,1460
1747554041.683005,0.32,-0.24,-0.01,0.050178215994836975,0.16035212502697901,0.028361600344907856,1.8656679378670038,-0.07279666036444754,-0.6639018508916993,0,0,0,0.000465,-0.28,0,1500,1500,1500,1500,1454,1454
1747554041.7824667,0.16,0.01,0.01,0.07308566242726255,0.14835298641951802,0.03599741582238305,1.8722607847476749,-0.0869609570403168,-0.6435193124018105,0,0,0,1e-06,-0.28,0,1500,1500,1500,1500,1454,1454
1747554041.8823512,0.16,0.01,0.01,0.07308566242726255,0.14835298641951802,0.03599741582238305,1.8722607847476749,-0.0869609570403168,-0.6435193124018105,0,0,0,0,-0.28,0,1500,1500,1500,1500,1454,1454
1747554041.9823542,0.27,-0.08,0.04,-0.02181661564992912,0.1439896632895322,0.044724062082354694,1.8772174318786348,-0.10146814873619553,-0.6237722185192396,0,0,0,0,-0.28,0,1500,1500,1500,1500,1454,1454
1747554042.083765,0.0,-0.04,0.02,-0.09926560120717749,0.12108221685710661,0.03490658503988659,1.8654642744088454,-0.11321786276079435,-0.6073511819122785,0,0,0,0,-0.28,0,1500,1500,1500,1500,1454,1454
1747554042.16574,0.0,-0.04,0.02,-0.09926560120717749,0.12108221685710661,0.03490658503988659,1.8654642744088454,-0.11321786276079435,-0.6073511819122785,0,0,0,0,-0.28,0,1500,1500,1500,1500,1454,1454
1747554042.2664428,0.02,-0.01,0.04,-0.15707963267948966,0.11017390903214205,0.022907446432425576,1.8431054510696014,-0.12260727925849282,-0.5913360205308815,0,0,0,0,-0.28,0,1500,1500,1500,1500,1454,1454
1747554042.3664358,0.02,-0.01,0.04,-0.15707963267948966,0.11017390903214205,0.022907446432425576,1.8431054510696014,-0.12260727925849282,-0.5913360205308815,0,0,0,0,-0.28,0,1500,1500,1500,1500,1454,1454
1747554042.4502296,0.07,-0.03,0.05,-0.18216874067690814,0.10690141668465268,0.01090830782496456,1.8145481685285558,-0.12932996152110246,-0.575520813975872,0,0,0,0,-0.28,0,1500,1500,1500,1500,1454,1454
1747554042.5498767,0.07,-0.01,0.03,-0.20507618710933373,0.09926560120717749,0.007635815477475192,-2.9057906564273055,-1.5707963267948966,2.8367768415578514,0,0,0,0,-0.28,0,1500,1500,1500,1500,1454,1454
1747554042.6329665,0.07,-0.01,0.03,-0.20507618710933373,0.09926560120717749,0.007635815477475192,-2.9057906564273055,-1.5707963267948966,2.8367768415578514,0,0,0,0,-0.28,0,1500,1500,1500,1500,1454,1454
1747554042.7332945,0.07,-0.05,0.01,-0.21271200258680892,0.07963064712224129,0.001090830782496456,1.7497852093934374,-0.13585853308540893,-0.5476541410519642,0,0,0,0,-0.28,0,1500,1500,1500,1500,1454,1454
1747554042.832287,0.07,-0.05,0.01,-0.21271200258680892,0.07963064712224129,0.001090830782496456,1.7497852093934374,-0.13585853308540893,-0.5476541410519642,0,0,0,0,-0.28,0,1500,1500,1500,1500,1454,1454
1747554042.916669,0.0,-0.05,0.01,-0.21380283336930536,0.0719948316447661,-0.003272492347489368,1.7147878262336778,-0.13783242897272038,-0.5356735547477185,0,0,0,0,-0.28,0,1500,1500,1500,1500,1454,1454
1747554043.0166297,0.0,-0.07,0.03,-0.20943951023931956,0.0719948316447661,-0.004363323129985824,1.6827415597492221,-0.13917903101581613,-0.5251249577631001,0,0,0,0,-0.28,0,1500,1500,1500,1500,1454,1454
1747554043.1158936,0.0,-0.07,0.03,-0.20943951023931956,0.0719948316447661,-0.004363323129985824,1.6827415597492221,-0.13917903101581613,-0.5251249577631001,0,0,0,0,-0.28,0,1500,1500,1500,1500,1454,1454
1747554043.200257,-0.04,-0.07,0.09,-0.20725784867432664,0.061086523819801536,-0.00545415391248228,1.648695743282033,-0.1401452651046051,-0.5150246168621045,0,0,0,0,-0.28,0,1500,1500,1500,1500,1454,1454
1747554043.2999156,-0.04,-0.07,0.09,-0.20725784867432664,0.061086523819801536,-0.00545415391248228,1.648695743282033,-0.1401452651046051,-0.5150246168621045,0,0,0,0,-0.28,0,1500,1500,1500,1500,1454,1454
1747554043.3825996,-0.01,-0.09,0.04,-0.18216874067690814,0.19416787928436915,-0.001090830782496456,1.6193693866581504,-0.1407139633839305,-0.5066789201945222,0,0,0,0,-0.28,0,1500,1500,1500,1500,1454,1454
1747554043.479061,0.0,-0.07,0.06,-0.15162547876700738,0.05126904677733343,0.007635815477475192,1.5923871110269623,-0.14098622908494166,-0.49876577350087775,0,0,0,0,-0.28,0,1500,1500,1500,1500,1454,1454
1747554043.582962,0.0,-0.07,0.06,-0.15162547876700738,0.05126904677733343,0.007635815477475192,1.5923871110269623,-0.14098622908494166,-0.49876577350087775,0,0,0,0,-0.28,0,1500,1500,1500,1500,1454,1454
1747554043.6660585,-0.03,-0.1,0.09,-0.11453723216212788,0.037088246604879506,0.014180800172453928,1.571495958615341,-0.14180507629801722,-0.49218787781746975,0,0,0,0,-0.28,0,1500,1500,1500,1500,1454,1454
1747554043.7669408,-0.03,-0.1,0.09,-0.11453723216212788,0.037088246604879506,0.014180800172453928,1.571495958615341,-0.14180507629801722,-0.49218787781746975,0,0,0,0,-0.28,0,1500,1500,1500,1500,1454,1454
1747554043.8665657,-0.11,-0.14,0.07,-0.07853981633974483,0.030543261909900768,0.030543261909900768,1.5559912466552888,-0.14512493500553075,-0.4867672218459912,0,0,0,0,-0.28,0,1500,1500,1500,1500,1454,1454
1747554043.9659722,-0.1,-0.12,0.05,-0.05672320068981571,0.016362461737446838,0.06217735460229799,1.5454030358039967,-0.1519114913606124,-0.4832000437932517,0,0,0,0,0,0,1500,1500,1500,1500,1494,1494
1747554044.06647,-0.1,-0.12,0.05,-0.05672320068981571,0.016362461737446838,0.06217735460229799,1.5454030358039967,-0.1519114913606124,-0.4832000437932517,0,0,0,0,0.231453,0,1500,1500,1500,1500,1534,1534
1747554044.1493232,-0.04,-0.15,0.0,-0.016362461737446838,0.00545415391248228,0.08835729338221293,1.5383259348836977,-0.16405421652433858,-0.48139901136323904,0,0,0,0,0.28,0,1500,1500,1500,1500,1543,1543
1747554044.2494504,-0.04,-0.15,0.0,-0.016362461737446838,0.00545415391248228,0.08835729338221293,1.5383259348836977,-0.16405421652433858,-0.48139901136323904,0,0,0,0,0.28,0,1500,1500,1500,1500,1543,1543
1747554044.3499026,-0.12,-0.17,0.06,0.09053895494720585,-0.015271630954950384,0.12108221685710661,1.5443055207422782,-0.17967932153809643,-0.4810941052771539,0,0,0,0,0.28,0,1500,1500,1500,1500,1543,1543
1747554044.433387,0.08,-0.38,0.02,0.2007128639793479,-0.028361600344907856,0.15271630954950383,1.5654713423972018,-0.20060252585476093,-0.48375021067870366,0,0,0,0,0.28,0,1500,1500,1500,1500,1543,1543
1747554044.5322764,0.08,-0.38,0.02,0.2007128639793479,-0.028361600344907856,0.15271630954950383,1.5654713423972018,-0.20060252585476093,-0.48375021067870366,0,0,0,0,0.28,0,1500,1500,1500,1500,1543,1543
1747554044.6329284,0.02,-0.1,-0.03,0.3119776037939864,-0.044724062082354694,0.17016960206944712,1.6079085747245567,-0.22466104309369184,-0.489818327357916,0,0,0,0,0.28,0,1500,1500,1500,1500,1543,1543
1747554044.7323825,-0.08,-0.05,-0.01,0.37742745074377376,-0.04799655442984406,0.17671458676442586,1.6639010310500901,-0.25094362167930456,-0.4987864633371366,0,0,0,0,0.28,0,1500,1500,1500,1500,1543,1543
1747554044.8326068,-0.08,-0.05,-0.01,0.37742745074377376,-0.04799655442984406,0.17671458676442586,1.6639010310500901,-0.25094362167930456,-0.4987864633371366,0,0,0,0,0.28,0,1500,1500,1500,1500,1543,1543
1747554044.915833,-0.01,0.02,0.0,0.4112432050011639,-0.05235987755982989,0.1636246173744684,1.7245075221587653,-0.27422381014387764,-0.5098740780172858,0,0,0,0,0.28,0,1500,1500,1500,1500,1543,1543
1747554045.0166414,-0.01,0.02,0.0,0.4112432050011639,-0.05235987755982989,0.1636246173744684,1.7245075221587653,-0.27422381014387764,-0.5098740780172858,0,0,0,0,0.28,0,1500,1500,1500,1500,1543,1543
1747554045.1165707,-0.09,-0.04,0.0,0.4243331743911214,-0.05999569303730508,0.13744467859455345,1.7927006046937668,-0.2948451823349629,-0.5234697820076912,0,0,0,0,0.28,0,1500,1500,1500,1500,1543,1543
1747554045.2172306,-0.08,-0.01,0.05,0.421060682043632,-0.07308566242726255,0.08835729338221293,1.8624213831065466,-0.3083398710206343,-0.5381849811249124,0,0,0,0,0.28,0,1500,1500,1500,1500,1543,1543
1747554045.316604,-0.08,-0.01,0.05,0.421060682043632,-0.07308566242726255,0.08835729338221293,1.8624213831065466,-0.3083398710206343,-0.5381849811249124,0,0,0,0,0.28,0,1500,1500,1500,1500,1543,1543
1747554045.399967,-0.1,0.09,0.06,0.41015237421866746,-0.08072147790473774,0.044724062082354694,1.926560473218688,-0.31339629732196844,-0.551654508433437,0,0,0,0,0.28,0,1500,1500,1500,1500,1543,1543
1747554045.4992776,-0.1,0.09,0.06,0.41015237421866746,-0.08072147790473774,0.044724062082354694,1.926560473218688,-0.31339629732196844,-0.551654508433437,0,0,0,0,0.28,0,1500,1500,1500,1500,1543,1543
1747554045.5994203,-0.11,0.1,0.08,0.40578905108868163,-0.08835729338221293,-0.006544984694978736,1.988494730875063,-0.3103417014906886,-0.5638364990322172,0,0,0,0,0.28,0,1500,1500,1500,1500,1543,1543
1747554045.6826448,-0.14,0.08,-0.02,0.38069994309126315,-0.09817477042468103,-0.04908738521234052,2.0521865073092536,-0.29996716118220534,-0.5754019902789735,0,0,0,0,0.28,0,1500,1500,1500,1500,1543,1543
1747554045.7825334,-0.14,0.08,-0.02,0.38069994309126315,-0.09817477042468103,-0.04908738521234052,2.0521865073092536,-0.29996716118220534,-0.5754019902789735,0,0,0,0,0.28,0,1500,1500,1500,1500,1543,1543
1747554045.8825681,-0.09,0.13,0.08,0.3567016658763411,-0.10471975511965978,-0.09053895494720585,2.112101478997979,-0.2822572675716968,-0.5842943984993885,0,0,0,0,0.28,0,1500,1500,1500,1500,1543,1543
1747554045.9795356,-0.1,0.16,0.05,0.32288591161895097,-0.11562806294462433,-0.1265363707695889,2.166247557362681,-0.2582637616230176,-0.5899869450640669,0,0,0,0,0.28,0,1500,1500,1500,1500,1543,1543
1747554046.08249,-0.1,0.16,0.05,0.32288591161895097,-0.11562806294462433,-0.1265363707695889,2.166247557362681,-0.2582637616230176,-0.5899869450640669,0,0,0,0,0.28,0,1500,1500,1500,1500,1543,1543
1747554046.1666584,-0.14,0.16,0.09,0.3010692959690218,-0.11671889372712078,-0.1461713248545251,2.2124095808829285,-0.23187885464116118,-0.5927191017197411,0,0,0,0,0.28,0,1500,1500,1500,1500,1543,1543
1747554046.266446,-0.14,0.16,0.09,0.3010692959690218,-0.11671889372712078,-0.1461713248545251,2.2124095808829285,-0.23187885464116118,-0.5927191017197411,0,0,0,0,0.28,0,1500,1500,1500,1500,1543,1543
1747554046.36583,-0.01,0.16,0.09,0.28579766501407144,-0.12326387842209953,-0.15926129424448257,2.2561779837375693,-0.20097551507155795,-0.592426626939792,0,0,0,0,0.28,0,1500,1500,1500,1500,1543,1543
1747554046.4474099,-0.04,0.18,0.0,0.2716168648416175,-0.11344640137963143,-0.15926129424448257,2.296708978652808,-0.16937173283032933,-0.5901529170151963,0,0,0,0,0.28,0,1500,1500,1500,1500,1543,1543
1747554046.5496879,-0.04,0.18,0.0,0.2716168648416175,-0.11344640137963143,-0.15926129424448257,2.296708978652808,-0.16937173283032933,-0.5901529170151963,0,0,0,0,0.28,0,1500,1500,1500,1500,1543,1543
1747554046.6329973,0.0,0.17,0.1,0.25634523388666713,-0.10799224746714914,-0.15271630954950383,2.3325657033427594,-0.14101171714229727,-0.586646651036248,0,0,0,0,0.28,0,1500,1500,1500,1500,1543,1543
1747554046.7324004,0.0,0.17,0.1,0.25634523388666713,-0.10799224746714914,-0.15271630954950383,2.3325657033427594,-0.14101171714229727,-0.586646651036248,0,0,0,0,0.28,0,1500,1500,1500,1500,1543,1543
1747554046.833034,0.0,0.2,0.06,0.2399827721492203,-0.10253809355466686,-0.14289883250703572,2.3665656077641737,-0.11450377013994774,-0.5823502841372414,0,0,0,0,0.28,0,1500,1500,1500,1500,1543,1543
1747554046.9161074,-0.09,0.17,0.07,0.22252947962927702,-0.08944812416470939,-0.12871803233458182,2.3993370123995845,-0.08896090751556358,-0.5769869806193423,0,0,0,0,0.28,0,1500,1500,1500,1500,1543,1543
1747554047.016699,-0.09,0.17,0.07,0.22252947962927702,-0.08944812416470939,-0.12871803233458182,2.3993370123995845,-0.08896090751556358,-0.5769869806193423,0,0,0,0,0.28,0,1500,1500,1500,1500,1543,1543
1747554047.1162152,-0.04,0.14,0.12,0.2083486794568231,-0.07963064712224129,-0.11017390903214205,2.429968841274318,-0.06607330755760163,-0.5714295472411087,0,0,0,0,0.28,0,1500,1500,1500,1500,1543,1543
1747554047.1994352,-0.04,0.14,0.12,0.2083486794568231,-0.07963064712224129,-0.11017390903214205,2.429968841274318,-0.06607330755760163,-0.5714295472411087,0,0,0,0,0.28,0,1500,1500,1500,1500,1543,1543
1747554047.299815,-0.11,0.17,0.1,0.19634954084936207,-0.06981317007977318,-0.09490227807719166,2.4584366166236213,-0.04585011995425823,-0.5666255443295642,0,0,0,0,0.28,0,1500,1500,1500,1500,1543,1543
1747554047.3825374,-0.11,0.17,0.1,0.19634954084936207,-0.06981317007977318,-0.09490227807719166,2.4584366166236213,-0.04585011995425823,-0.5666255443295642,0,0,0,0,0.28,0,1500,1500,1500,1500,1543,1543
1747554047.4831085,-0.03,1.43,0.11,0.17998707911191522,-0.06217735460229799,-0.07963064712224129,2.4851716451080526,-0.028529356553196973,-0.5624158364289273,0,0,0,0,0.28,0,1500,1500,1500,1500,1543,1543
1747554047.5823803,-0.12,0.12,0.06,0.17235126363444003,-0.05345070834232634,-0.06217735460229799,2.5086888854271683,-0.014997813579546253,-0.5592627089578693,0,0,0,0,0.28,0,1500,1500,1500,1500,1543,1543
1747554047.6675298,-0.12,0.12,0.06,0.17235126363444003,-0.05345070834232634,-0.06217735460229799,2.5086888854271683,-0.014997813579546253,-0.5592627089578693,0,0,0,0,0.28,0,1500,1500,1500,1500,1543,1543
1747554047.7661257,-0.09,0.17,0.14,0.15162547876700738,-0.04036073895236887,-0.04799655442984406,2.531927831722302,-0.0029894530596713664,-0.5563999275355082,0,0,0,0,0.28,0,1500,1500,1500,1500,1543,1543
1747554047.851094,-0.09,0.17,0.14,0.15162547876700738,-0.04036073895236887,-0.04799655442984406,2.531927831722302,-0.0029894530596713664,-0.5563999275355082,0,0,0,0,0.28,0,1500,1500,1500,1500,1543,1543
1747554047.9500365,-0.13,0.09,0.07,0.1461713248545251,-0.02945243112740431,-0.03599741582238305,2.5518568861060236,0.005750985852297139,-0.5542502465546917,0,0,0,0,0.28,0,1500,1500,1500,1500,1543,1543
1747554048.050797,-0.1,0.15,0.15,0.1308996938995747,-0.022907446432425576,-0.022907446432425576,2.5717450723857813,0.012128874013063777,-0.5525703278668636,0,0,0,0,0.28,0,1500,1500,1500,1500,1543,1543
1747554048.1343217,-0.1,0.15,0.15,0.1308996938995747,-0.022907446432425576,-0.022907446432425576,2.5717450723857813,0.012128874013063777,-0.5525703278668636,0,0,0,0,0,0,1500,1500,1500,1500,1503,1503
1747554048.2352576,-0.04,0.1,0.06,0.11344640137963143,-0.013089969389957472,-0.017453292519943295,2.5885123629089377,0.016435722380770127,-0.5512537757614819,0,0,0,0,0,0,1500,1500,1500,1500,1500,1500
1747554048.32929,-0.11,0.14,0.0,0.05345070834232634,-0.007635815477475192,0.001090830782496456,2.6037037643962346,0.018219316634431895,-0.5506828637276918,0,0,0,0,0,0,1500,1500,1500,1500,1500,1500
1747554048.4163158,-0.11,0.14,0.0,0.05345070834232634,-0.007635815477475192,0.001090830782496456,2.6037037643962346,0.018219316634431895,-0.5506828637276918,0,0,0,0,0,0,1500,1500,1500,1500,1500,1500
1747554048.517986,-0.05,0.15,0.15,-0.04036073895236887,0.006544984694978736,0.011999138607461015,2.6022681051778607,0.018748174684858978,-0.5511095593571418,0,0,0,0.065756,0.000502,0,1500,1500,1500,1500,1500,1500
1747554048.6155574,-0.05,0.15,0.15,-0.04036073895236887,0.006544984694978736,0.011999138607461015,2.6022681051778607,0.018748174684858978,-0.5511095593571418,0,0,0,0.7,0.004367,0,1540,1540,1460,1500,1500,1500
1747554048.715844,-0.12,0.14,0.02,-0.11344640137963143,0.014180800172453928,0.019634954084936207,2.5876275342238992,0.017692416037935883,-0.5524756373589451,0,0,0,0.7,0.004367,0,1551,1551,1422,1500,1500,1500
1747554048.8160276,-0.07,0.11,0.15,-0.16253378659197193,0.018544123302439753,0.02945243112740431,2.5659414993153242,0.014600631785390927,-0.5539313473047573,0,0,0,0.7,0.004963,0,1551,1551,1422,1500,1500,1500
1747554048.8991086,-0.07,0.11,0.15,-0.16253378659197193,0.018544123302439753,0.02945243112740431,2.5659414993153242,0.014600631785390927,-0.5539313473047573,0,0,0,0.7,0.004963,0,1551,1551,1422,1500,1500,1500
1747554049.0003831,-0.28,0.04,0.11,-0.13526301702956053,-0.04145156973486533,0.06872233929727672,2.540241438670495,0.010729041899238873,-0.5588593774319099,0,0,0,0.7,0.004963,0,1551,1551,1422,1500,1500,1500
1747554049.0993073,-0.28,0.04,0.11,-0.13526301702956053,-0.04145156973486533,0.06872233929727672,2.540241438670495,0.010729041899238873,-0.5588593774319099,0,0,0,0.7,0.004963,0,1551,1551,1422,1500,1500,1500
1747554049.1826725,-0.03,0.09,0.06,-0.10362892433716332,-0.15489797111449674,0.10581058590215622,2.5219480976403124,0.016157495656710232,-0.5778320120418132,0,0,0,0.7,0.004963,0,1551,1551,1422,1500,1500,1500
1747554049.282887,-0.1,0.03,0.14,-0.06981317007977318,-0.21271200258680892,0.15162547876700738,2.507039070497066,0.028400006778908072,-0.6109836457565454,0,0,0,0.7,0.004963,0,1551,1551,1422,1500,1500,1500
1747554049.3828957,-0.1,0.03,0.14,-0.06981317007977318,-0.21271200258680892,0.15162547876700738,2.507039070497066,0.028400006778908072,-0.6109836457565454,0,0,0,0.7,0.004963,0,1551,1551,1422,1500,1500,1500
1747554049.483161,-0.14,0.02,0.09,-0.0272707695624114,-0.24434609527920614,0.20289452554434081,2.4975337345311823,0.04111351405305669,-0.6549355508806659,0,0,0,0.7,0.004963,0,1551,1551,1422,1500,1500,1500
1747554049.5820267,-0.04,0.05,0.16,0.006544984694978736,-0.272707695624114,0.2454369260617026,2.4933752140547782,0.05202366574049284,-0.7037897621485785,0,0,0,0.7,0.004963,0,1551,1551,1422,1500,1500,1500
1747554049.6658356,-0.04,0.05,0.16,0.006544984694978736,-0.272707695624114,0.2454369260617026,2.4933752140547782,0.05202366574049284,-0.7037897621485785,0,0,0,0.7,0.004963,0,1551,1551,1422,1500,1500,1500
1747554049.766212,-0.03,0.06,-0.05,0.037088246604879506,-0.27598018797160334,0.27379852640661045,2.4927693503426807,0.061803361275707916,-0.7618359856881014,0,0,0,0.7,0.004963,0,1551,1551,1422,1500,1500,1500
1747554049.8669703,-0.03,0.06,-0.05,0.037088246604879506,-0.27598018797160334,0.27379852640661045,2.4927693503426807,0.061803361275707916,-0.7618359856881014,0,0,0,0.7,0.004963,0,1551,1551,1422,1500,1500,1500
1747554049.9663377,-0.07,0.08,0.2,0.06435901616729091,-0.2912518189265537,0.30543261909900765,2.4959628833534913,0.07015261930044533,-0.8247014086969224,0,0,0,0.7,0.004963,0,1551,1551,1422,1500,1500,1500
1747554050.066984,-0.09,0.09,0.02,0.0818123086872342,-0.29670597283903605,0.32179508083645453,2.5028071644508945,0.07747640520200351,-0.8911182573859466,0,0,0,0.7,0.008518,0,1551,1551,1422,1500,1500,1500
1747554050.1501102,-0.09,0.09,0.02,0.0818123086872342,-0.29670597283903605,0.32179508083645453,2.5028071644508945,0.07747640520200351,-0.8911182573859466,0,0,0,0,0,0,1511,1511,1462,1500,1500,1500
1747554050.250036,0.01,0.11,0.17,0.09381144729469522,-0.30652344988150415,0.3337942194439155,2.5104495521055927,0.0845583369935922,-0.9557882100215145,0,0,0,0,0,0,1500,1500,1500,1500,1500,1500
1747554050.3498192,0.01,0.11,0.17,0.09381144729469522,-0.30652344988150415,0.3337942194439155,2.5104495521055927,0.0845583369935922,-0.9557882100215145,0,0,0,-0.004893,0,0,1500,1500,1500,1500,1500,1500
1747554050.43269,-0.07,0.18,0.16,0.04036073895236887,-0.19416787928436915,0.3010692959690218,2.5132889318884337,0.0878729707812245,-1.0202388567951897,0,0,0,-0.665755,0,0,1460,1460,1540,1500,1500,1500
1747554050.5262406,0.0,0.09,0.1,0.015271630954950384,-0.11126473981463851,0.28034351110158917,2.5111122853506584,0.08029882862138076,-1.0672126377721103,0,0,0,-0.7,0,0,1443,1443,1570,1500,1500,1500
1747554050.6331818,0.0,0.09,0.1,0.015271630954950384,-0.11126473981463851,0.28034351110158917,2.5111122853506584,0.08029882862138076,-1.0672126377721103,0,0,0,-0.7,0,0,1443,1443,1570,1500,1500,1500
1747554050.7323039,-0.13,0.34,0.12,-0.032724923474893676,-0.05672320068981571,0.25743606466916363,2.505474462920726,0.06599922141861454,-1.1086135731081412,0,0,0,-0.7,0,0,1443,1443,1570,1500,1500,1500
1747554050.8331978,-0.13,0.34,0.12,-0.032724923474893676,-0.05672320068981571,0.25743606466916363,2.505474462920726,0.06599922141861454,-1.1086135731081412,0,0,0,-0.7,0,0,1443,1443,1570,1500,1500,1500
1747554050.9163702,0.08,0.35000000000000003,0.09,-0.12544553998709243,0.08290313946973066,0.1810779098944117,2.4881268868806043,0.044376810774886206,-1.1335434883190245,0,0,0,-0.7,0,0,1443,1443,1570,1500,1500,1500
1747554051.0170233,0.02,0.21,0.18,-0.18762289458939044,0.22252947962927702,0.11671889372712078,2.461570138772085,0.010909542778794875,-1.1363118431422734,0,0,0,-0.7,0,0,1443,1443,1570,1500,1500,1500
1747554051.1179292,0.02,0.21,0.18,-0.18762289458939044,0.22252947962927702,0.11671889372712078,2.461570138772085,0.010909542778794875,-1.1363118431422734,0,0,0,-0.7,0,0,1443,1443,1570,1500,1500,1500
1747554051.2158556,-0.02,0.18,-0.04,-0.23561944901923448,0.2923426497090502,0.061086523819801536,2.429408785695029,-0.026203695446228237,-1.1211220668339428,0,0,0,-0.7,0,0,1443,1443,1570,1500,1500,1500
1747554051.305539,-0.1,0.09,0.17,-0.2792526803190927,0.3272492347489368,0.002181661564992912,2.3873198433156286,-0.06499016413254563,-1.0914855803560988,0,0,0,-0.7,0,0,1443,1443,1570,1500,1500,1500
1747554051.399679,-0.1,0.09,0.17,-0.2792526803190927,0.3272492347489368,0.002181661564992912,2.3873198433156286,-0.06499016413254563,-1.0914855803560988,0,0,0,-0.7,0,0,1443,1443,1570,1500,1500,1500
1747554051.49989,-0.09,0.09,-0.04,-0.30543261909900765,0.35015668118136234,-0.050178215994836975,2.3417746659375283,-0.09741391849865325,-1.054235053788966,0,0,0,-0.7,0,0,1443,1443,1570,1500,1500,1500
1747554051.599448,-0.09,0.09,-0.04,-0.30543261909900765,0.35015668118136234,-0.050178215994836975,2.3417746659375283,-0.09741391849865325,-1.054235053788966,0,0,0,-0.7,0,0,1443,1443,1570,1500,1500,1500
1747554051.6829016,-0.03,0.1,0.06,-0.32179508083645453,0.36324665057131983,-0.09817477042468103,2.287554378444874,-0.12585427817473144,-1.0051265251919512,0,0,0,-0.7,0,0,1443,1443,1570,1500,1500,1500
1747554051.7824087,-0.03,0.08,-0.03,-0.3294308963139297,0.3785182815262702,-0.13526301702956053,2.2329260587589532,-0.14657635539310362,-0.9520362657127076,0,0,0,-0.7,0,0,1443,1443,1570,1500,1500,1500
1747554051.8825316,-0.03,0.08,-0.03,-0.3294308963139297,0.3785182815262702,-0.13526301702956053,2.2329260587589532,-0.14657635539310362,-0.9520362657127076,0,0,0,-0.7,0,0,1443,1443,1570,1500,1500,1500
1747554051.9823112,-0.02,0.04,-0.03,-0.3370667117914049,0.3937899124812206,-0.15926129424448257,2.171525607648466,-0.16327103636276388,-0.8888031085173163,0,0,0,-0.7,0,0,1443,1443,1570,1500,1500,1500
1747554052.082318,-0.02,0.04,-0.03,-0.3370667117914049,0.3937899124812206,-0.15926129424448257,2.171525607648466,-0.16327103636276388,-0.8888031085173163,0,0,0,-0.7,0,0,1443,1443,1570,1500,1500,1500
1747554052.1655173,-0.08,-0.01,0.02,-0.30652344988150415,0.41560652813114973,-0.1636246173744684,2.109909722146145,-0.1757743822223283,-0.8208360682732576,0,0,0,-0.7,0,0,1443,1443,1570,1500,1500,1500
1747554052.266012,-0.18,1.28,-0.11,-0.2825251726665821,0.4276056667386107,-0.16689710972195776,2.051623601774494,-0.18520751347761977,-0.7497507667882882,0,0,0,-0.7,0,0,1443,1443,1570,1500,1500,1500
1747554052.366349,-0.18,1.28,-0.11,-0.2825251726665821,0.4276056667386107,-0.16689710972195776,2.051623601774494,-0.18520751347761977,-0.7497507667882882,0,0,0,-0.7,0,0,1443,1443,1570,1500,1500,1500
1747554052.449168,-0.17,-0.02,-0.05,-0.25416357232167425,0.42978732830360367,-0.16253378659197193,2.0010315837772903,-0.19022978244958394,-0.6821493075308204,0,0,0,-0.7,0,0,1443,1443,1570,1500,1500,1500
1747554052.548415,-0.17,-0.02,-0.05,-0.25416357232167425,0.42978732830360367,-0.16253378659197193,2.0010315837772903,-0.19022978244958394,-0.6821493075308204,0,0,0,-0.7,0,0,1443,1443,1570,1500,1500,1500
1747554052.632695,-0.1,-0.02,-0.05,-0.22907446432425577,0.4232423436086249,-0.16035212502697901,1.9509636702607371,-0.19176810882860484,-0.6103260098520509,0,0,0,-0.7,0,0,1443,1443,1570,1500,1500,1500
1747554052.7326562,-0.11,-0.08,1.28,-0.20507618710933373,0.4276056667386107,-0.136353847812057,1.9077131926637492,-0.19208722804538322,-0.5434827323952456,0,0,0,0,0,0,1483,1483,1530,1500,1500,1500
1747554052.8328388,-0.11,-0.08,1.28,-0.20507618710933373,0.4276056667386107,-0.136353847812057,1.9077131926637492,-0.19208722804538322,-0.5434827323952456,0,0,0,0,0,0,1500,1500,1500,1500,1500,1500
1747554052.9169216,-0.17,-0.05,-0.09,-0.136353847812057,0.37960911230876665,-0.10144726277217041,1.867965559634125,-0.19363735429627987,-0.4742099108367641,0,0,0,0,0,0,1500,1500,1500,1500,1500,1500
1747554053.016278,-0.17,-0.05,-0.09,-0.136353847812057,0.37960911230876665,-0.10144726277217041,1.867965559634125,-0.19363735429627987,-0.4742099108367641,0,0,0,0,0,0,1500,1500,1500,1500,1500,1500
1747554053.116476,-0.18,-0.07,-0.05,-0.08290313946973066,0.2454369260617026,-0.04581489286485115,1.8433670603172345,-0.19416198357272305,-0.42594972446112056,0,0,0,0,0,0,1500,1500,1500,1500,1500,1500
1747554053.2165883,-0.15,-0.07,-0.1,-0.03381575425739013,0.17235126363444003,-0.016362461737446838,1.8299556997336888,-0.19646296026547908,-0.3955589894624394,-3,0,0,0,0,0,1538,1461,1500,1460,1460,1460
1747554053.3163092,-0.15,-0.07,-0.1,-0.03381575425739013,0.17235126363444003,-0.016362461737446838,1.8299556997336888,-0.19646296026547908,-0.3955589894624394,-3,0,0,0,0,0,1538,1461,1500,1430,1445,1445
1747554053.4004257,-0.12,-0.02,0.0,0.004363323129985824,0.12544553998709243,0.007635815477475192,1.8242649592687763,-0.20072064060548897,-0.3727282638119995,-3,0,0,0,0,0,1538,1461,1500,1430,1445,1445
1747554053.5033422,0.17,-0.24,-0.19,0.009817477042468103,0.07635815477475191,0.05126904677733343,1.8238772204200346,-0.20697765132429105,1.7800482863778218,-3,0,0,0,0,0,1538,1461,1500,1430,1445,1445
1747554053.600314,0.17,-0.24,-0.19,0.009817477042468103,0.07635815477475191,0.05126904677733343,1.8238772204200346,-0.20697765132429105,1.7800482863778218,-3,0,0,0,0,0,1538,1461,1500,1430,1445,1445
1747554053.6830752,-0.08,0.0,-0.01,0.04363323129985824,0.037088246604879506,0.1341721862470641,1.8265384112235328,-0.22275324277802444,1.7835237514584243,-3,0,0,0,0,0,1538,1461,1500,1430,1445,1445
1747554053.782644,-0.08,0.0,-0.01,0.04363323129985824,0.037088246604879506,0.1341721862470641,1.8265384112235328,-0.22275324277802444,1.7835237514584243,-3,0,0,0,0,0,1538,1461,1500,1430,1445,1445
1747554053.883025,-0.01,0.06,-0.07,0.06435901616729091,-0.015271630954950384,0.15817046346198613,1.8368479405632254,-0.2449748496718982,1.7783501356172569,-3,0,0,0,0,0,1538,1461,1500,1430,1445,1445
1747554053.9833994,-0.11,0.0,0.04,0.0545415391248228,-0.04363323129985824,0.15489797111449674,1.8483261643502797,-0.26539190765864457,1.7678635221573824,-3,0,0,0,0,0,1538,1461,1500,1430,1445,1445
1747554054.0838912,-0.11,0.0,0.04,0.0545415391248228,-0.04363323129985824,0.15489797111449674,1.8483261643502797,-0.26539190765864457,1.7678635221573824,-3,0,0,0,0,0,1538,1461,1500,1430,1445,1445
1747554054.1666875,-0.12,0.06,0.02,0.022907446432425576,-0.05890486225480862,0.13853550937704992,1.8583914127405459,-0.2843132224093175,1.7528543179394929,-3,0,0,0,0,0,1538,1461,1500,1430,1445,1445
1747554054.266572,-0.12,0.06,0.02,0.022907446432425576,-0.05890486225480862,0.13853550937704992,1.8583914127405459,-0.2843132224093175,1.7528543179394929,-3,0,0,0,0,0,1538,1461,1500,1430,1445,1445
1747554054.365991,-0.05,0.05,0.0,0.001090830782496456,-0.08072147790473774,0.1308996938995747,1.8644853650109139,-0.2994642850501697,1.7363091134233353,-3,0,0,0,0,0,1538,1461,1500,1430,1445,1445
1747554054.4494665,-0.06,0.04,-0.05,-0.020725784867432664,-0.0916297857297023,0.12108221685710661,1.8689413276490707,-0.3135726961268241,1.7167284076598652,-3,0,0,0,0,0,1538,1461,1500,1430,1445,1445
1747554054.5495865,-0.06,0.04,-0.05,-0.020725784867432664,-0.0916297857297023,0.12108221685710661,1.8689413276490707,-0.3135726961268241,1.7167284076598652,-3,0,0,0,0,0,1538,1461,1500,1430,1445,1445
1747554054.633311,-0.11,0.02,-0.02,-0.028361600344907856,-0.11017390903214205,0.11562806294462433,1.8717303107796452,-0.325550773602156,1.694781217872997,-3,0,0,0,0,0,1538,1461,1500,1430,1445,1445
1747554054.7335093,-0.11,0.02,-0.02,-0.028361600344907856,-0.11017390903214205,0.11562806294462433,1.8717303107796452,-0.325550773602156,1.694781217872997,-3,0,0,0,0,0,1538,1461,1500,1430,1445,1445
1747554054.833369,-0.04,0.09,-0.03,-0.03381575425739013,-0.12326387842209953,0.1090830782496456,1.8746451953126249,-0.33648883726875417,1.6707095548192599,-3,0,0,0,0,0,1538,1461,1500,1430,1445,1445
1747554054.9162135,-0.02,0.08,-0.03,-0.038179077387375956,-0.13199052468207118,0.10471975511965978,1.877609139077192,-0.34586248209769954,1.6463106210064204,-3,0,0,0,0,0,1538,1461,1500,1430,1445,1445
1747554055.0166185,-0.02,0.08,-0.03,-0.038179077387375956,-0.13199052468207118,0.10471975511965978,1.877609139077192,-0.34586248209769954,1.6463106210064204,-3,0,0,0,0,0,1538,1461,1500,1430,1445,1445
1747554055.1164062,-0.04,0.09,0.04,-0.03490658503988659,-0.1461713248545251,0.10362892433716332,1.8810064309954675,-0.35480628957050075,1.6196097686000581,-3,0,0,0,0,0,1538,1461,1500,1430,1445,1445
1747554055.2002378,-0.04,0.09,0.04,-0.03490658503988659,-0.1461713248545251,0.10362892433716332,1.8810064309954675,-0.35480628957050075,1.6196097686000581,-3,0,0,0,0,0,1538,1461,1500,1430,1445,1445
1747554055.3038492,-0.2,0.01,-0.13,-0.03490658503988659,-0.15817046346198613,0.10144726277217041,1.8851535741803287,-0.36276217410808026,1.5909376343116899,-3,0,0,0,0,0,1538,1461,1500,1430,1445,1445
1747554055.3998823,-0.06,0.05,0.02,-0.038179077387375956,-0.15707963267948966,0.09926560120717749,1.8898645142670234,-0.3696170441153448,1.5629331765330614,-3,0,0,0,0,0,1538,1461,1500,1430,1445,1445
1747554055.499564,-0.06,0.05,0.02,-0.038179077387375956,-0.15707963267948966,0.09926560120717749,1.8898645142670234,-0.3696170441153448,1.5629331765330614,-3,0,0,0,0,0,1538,1461,1500,1430,1445,1445
1747554055.6000743,-0.03,0.07,-0.02,-0.04036073895236887,-0.16035212502697901,0.09490227807719166,1.894832471209289,-0.3758838496787068,1.5322722034125185,-3,0,0,0,0,0,1538,1461,1500,1430,1445,1445
1747554055.6999114,-0.03,0.07,-0.02,-0.04036073895236887,-0.16035212502697901,0.09490227807719166,1.894832471209289,-0.3758838496787068,1.5322722034125185,-3,0,0,0,0,0,1538,1461,1500,1430,1445,1445
