time,ay,ax,az,gy,gx,gz,roll,pitch,yaw,cmd_fx,cmd_fy,cmd_fz,cmd_tx,cmd_ty,cmd_tz,pwm_1,pwm_2,pwm_3,pwm_4,pwm_5,pwm_6
1747550298.344131,0.0,0.0,0.0,0.0,0.0,0.0,0.0,0.0,0.0,0,0,0,0,0,0,1500,1500,1500,1500,1500,1500
1747550298.431966,0.03,0.03,-0.34,0.0,-0.003272492347489368,0.001090830782496456,-0.009068530795083789,0.1022135448080068,-0.0004638953975721025,0,0,0,0,0,0,1500,1500,1500,1500,1500,1500
1747550298.5324671,0.03,0.03,-0.34,0.0,-0.003272492347489368,0.001090830782496456,-0.009068530795083789,0.1022135448080068,-0.0004638953975721025,0,0,0,0,0,0,1500,1500,1500,1500,1500,1500
1747550298.6341102,0.02,0.02,-0.35000000000000003,0.002181661564992912,0.003272492347489368,-0.001090830782496456,-0.00894597981545772,0.1022135448080068,-0.0004576265417293744,0,0,0,0,0,0,1500,1500,1500,1500,1500,1500
1747550298.7351358,0.03,0.0,-0.28,-0.004363323129985824,-0.00545415391248228,-0.001090830782496456,-0.00894597981545772,0.1022135448080068,-0.0004576265417293744,0,0,0,0,0,0,1500,1500,1500,1500,1500,1500
1747550298.8301396,0.03,0.0,-0.28,-0.004363323129985824,-0.00545415391248228,-0.001090830782496456,-0.00894597981545772,0.1022135448080068,-0.0004576265417293744,0,0,0,0,0,0,1500,1500,1500,1500,1500,1500
1747550298.917276,0.04,0.01,-0.34,0.001090830782496456,-0.003272492347489368,0.0,-0.00894597981545772,0.1022135448080068,-0.0004576265417293744,0,0,0,0,0,0,1500,1500,1500,1500,1500,1500
1747550299.015126,0.04,0.01,-0.34,0.001090830782496456,-0.003272492347489368,0.0,-0.00894597981545772,0.1022135448080068,-0.0004576265417293744,0,0,0,0,0,0,1500,1500,1500,1500,1500,1500
1747550299.1160192,0.02,0.03,-0.27,0.003272492347489368,-0.003272492347489368,0.001090830782496456,-0.00894597981545772,0.1022135448080068,-0.0004576265417293744,0,0,0,0,0,0,1500,1500,1500,1500,1500,1500
1747550299.2152197,0.03,0.0,-0.32,0.001090830782496456,-0.003272492347489368,0.0,-0.00894597981545772,0.1022135448080068,-0.0004576265417293744,0,0,0,0,0,0,1500,1500,1500,1500,1500,1500
1747550299.3158414,0.03,0.0,-0.32,0.001090830782496456,-0.003272492347489368,0.0,-0.00894597981545772,0.1022135448080068,-0.0004576265417293744,0,0,0,0,0,0,1500,1500,1500,1500,1500,1500
1747550299.4176395,0.02,0.02,-0.29,-0.002181661564992912,0.002181661564992912,0.0,-0.00894597981545772,0.1022135448080068,-0.0004576265417293744,0,-2.683736,0,0,0,0,1540,1540,1500,1500,1500,1500
1747550299.5151687,0.03,0.01,-0.33,0.0,0.002181661564992912,0.001090830782496456,-0.00894597981545772,0.1022135448080068,-0.0004576265417293744,0,-12.5,0,0,0,0,1577,1576,1540,1500,1500,1500
1747550299.617243,0.03,0.01,-0.33,0.0,0.002181661564992912,0.001090830782496456,-0.00894597981545772,0.1022135448080068,-0.0004576265417293744,0,-12.5,0,0,0,-6e-05,1577,1576,1567,1500,1500,1500
1747550299.7161803,-0.04,-0.16,-0.28,-0.004363323129985824,0.002181661564992912,0.011999138607461015,-0.009062262195982702,0.1022140990436856,-0.00034134937346282746,0,-12.5,0,0,0,-0.000215,1577,1576,1567,1500,1500,1500
1747550299.8156254,-0.04,-0.16,-0.28,-0.004363323129985824,0.002181661564992912,0.011999138607461015,-0.009062262195982702,0.1022140990436856,-0.00034134937346282746,0,-12.5,0,0,0,-0.000215,1577,1576,1567,1500,1500,1500
1747550299.9138074,0.06,0.05,-0.31,0.003272492347489368,0.003272492347489368,0.00545415391248228,-0.009184705722326488,0.10209156129726175,-0.00034705215580866977,0,-12.5,0,0,0,-0.000215,1577,1576,1567,1500,1500,1500
1747550300.0135822,0.02,-0.09,-0.36,-0.002181661564992912,-0.001090830782496456,0.0,-0.009062262195982702,0.1022140990436856,-0.00034134937346282746,0,-12.5,0,0,0,-0.000215,1577,1576,1567,1500,1500,1500
1747550300.1146739,0.02,-0.09,-0.36,-0.002181661564992912,-0.001090830782496456,0.0,-0.009062262195982702,0.1022140990436856,-0.00034134937346282746,0,-12.5,0,0,0,-0.000215,1577,1576,1567,1500,1500,1500
1747550300.2140708,0.09,0.04,-0.31,-0.001090830782496456,0.003272492347489368,0.0,-0.009062262195982702,0.1022140990436856,-0.00034134937346282746,0,-12.5,0,0,0,-0.000215,1577,1576,1567,1500,1500,1500
1747550300.313963,0.05,0.04,-0.35000000000000003,0.003272492347489368,-0.001090830782496456,0.0,-0.00906215613605613,0.1020915538076843,-0.00034079086745816346,0,0,0,0,0,0,1537,1536,1527,1500,1500,1500
1747550300.4128914,0.05,0.04,-0.35000000000000003,0.003272492347489368,-0.001090830782496456,0.0,-0.00906215613605613,0.1020915538076843,-0.00034079086745816346,0,0,0,0,0,0,1500,1500,1500,1500,1500,1500
1747550300.496751,0.11,0.16,-0.27,0.001090830782496456,0.003272492347489368,0.00545415391248228,-0.008939606685015153,0.10209154631810682,-0.00033452957908093665,0,0,0,0,0,0,1500,1500,1500,1500,1500,1500
1747550300.5991652,0.11,0.16,-0.27,0.001090830782496456,0.003272492347489368,0.00545415391248228,-0.008939606685015153,0.10209154631810682,-0.00033452957908093665,0,0,0,0,0,0,1500,1500,1500,1500,1500,1500
1747550300.69889,0.14,-0.06,-0.38,-0.002181661564992912,-0.002181661564992912,0.0,-0.00869450818131792,0.10209153133895192,-0.0003220070022482851,0,6.616764,0,0,0,0,1460,1460,1460,1500,1500,1500
1747550300.7979097,0.02,0.0,-0.29,0.003272492347489368,0.001090830782496456,0.002181661564992912,-0.00869450818131792,0.10209153133895192,-0.0003220070022482851,0,12.5,0,0,0,0,1420,1420,1425,1500,1500,1500
1747550300.9002876,0.02,0.0,-0.29,0.003272492347489368,0.001090830782496456,0.002181661564992912,-0.00869450818131792,0.10209153133895192,-0.0003220070022482851,0,12.5,0,0,0,0,1413,1415,1425,1500,1500,1500
1747550300.9989803,-0.12,-0.45,-0.61,0.002181661564992912,-0.003272492347489368,-0.007635815477475192,-0.008688778868982068,0.10209832438805898,-0.0001994475239618811,0,12.5,0,0,0,0,1413,1415,1425,1500,1500,1500
1747550301.0993948,-0.12,-0.45,-0.61,0.002181661564992912,-0.003272492347489368,-0.007635815477475192,-0.008688778868982068,0.10209832438805898,-0.0001994475239618811,0,12.5,0,0,0,0,1413,1415,1425,1500,1500,1500
1747550301.183356,0.19,-0.1,-0.38,-0.00545415391248228,0.0,0.006544984694978736,-0.00855952178831278,0.10221511763906936,-7.118186677852391e-05,0,12.5,0,0,0,0,1413,1415,1425,1500,1500,1500
1747550301.2858565,0.05,0.06,-0.28,0.004363323129985824,0.003272492347489368,0.0,-0.00855952178831278,0.10221511763906936,-7.118186677852391e-05,0,12.5,0,0,0,0,1413,1415,1425,1500,1500,1500
1747550301.3836193,0.05,0.06,-0.28,0.004363323129985824,0.003272492347489368,0.0,-0.00855952178831278,0.10221511763906936,-7.118186677852391e-05,0,12.5,0,0,0,0,1413,1415,1425,1500,1500,1500
1747550301.482599,0.1,-0.12,-0.29,-0.002181661564992912,0.0,0.0,-0.00855952178831278,0.10221511763906936,-7.118186677852391e-05,0,12.5,0,0,0,0,1413,1415,1425,1500,1500,1500
1747550301.5808632,0.09,0.0,-0.35000000000000003,0.006544984694978736,-0.002181661564992912,-0.002181661564992912,-0.00855952178831278,0.10221511763906936,-7.118186677852391e-05,0,6.920501,0,0,0,0,1434,1435,1443,1500,1500,1500
1747550301.667208,0.09,0.0,-0.35000000000000003,0.006544984694978736,-0.002181661564992912,-0.002181661564992912,-0.00855952178831278,0.10221511763906936,-7.118186677852391e-05,0,0,0,0,0,0,1474,1475,1483,1500,1500,1500
1747550301.7659428,0.0,0.01,-0.3,0.002181661564992912,0.003272492347489368,0.0,-0.008436971311331585,0.1022150951700524,-6.491300921137565e-05,0,0,0,0,0,0,1500,1500,1500,1500,1500,1500
1747550301.895797,0.0,0.01,-0.3,0.002181661564992912,0.003272492347489368,0.0,-0.008436971311331585,0.1022150951700524,-6.491300921137565e-05,0,0,0,0,0,0,1500,1500,1500,1500,1500,1500
1747550302.0069292,-0.16,-0.12,-0.22,0.0,-0.001090830782496456,0.0,-0.008192292343913164,0.10209876627344582,-5.1850367148577464e-05,0,0,0,0,0,0,1500,1500,1500,1500,1500,1500
1747550302.117866,0.0,0.1,-0.36,-0.001090830782496456,0.003272492347489368,-0.003272492347489368,-0.008192212286779606,0.10197621499593243,-5.134792261908849e-05,0,0,0,0,0,0,1500,1500,1500,1500,1500,1500
1747550302.215723,0.03,0.01,-0.29,0.003272492347489368,0.001090830782496456,0.0,-0.008192212286779606,0.10197621499593243,-5.134792261908849e-05,0,0,0,0,0,0,1500,1500,1500,1500,1500,1500
1747550302.3177302,0.03,0.01,-0.29,0.003272492347489368,0.001090830782496456,0.0,-0.008192212286779606,0.10197621499593243,-5.134792261908849e-05,0,0,0,0,0,0,1500,1500,1500,1500,1500,1500
1747550302.414927,0.02,-0.01,-0.28,0.002181661564992912,0.002181661564992912,0.003272492347489368,-0.008192212286779606,0.10197621499593243,-5.134792261908849e-05,0,0,0,0,0,0,1500,1500,1500,1500,1500,1500
1747550302.5125563,0.05,0.01,-0.37,0.003272492347489368,0.004363323129985824,-0.001090830782496456,-0.008192212286779606,0.10197621499593243,-5.134792261908849e-05,0,0,0,0,0,0,1500,1500,1500,1500,1500,1500
1747550302.6171958,0.05,0.01,-0.37,0.003272492347489368,0.004363323129985824,-0.001090830782496456,-0.008192212286779606,0.10197621499593243,-5.134792261908849e-05,0,0,0,0,0,0,1500,1500,1500,1500,1500,1500
1747550302.7149775,0.04,0.01,-0.34,-0.001090830782496456,-0.002181661564992912,0.001090830782496456,-0.008192212286779606,0.10197621499593243,-5.134792261908849e-05,0,0,0,0,0,0,1500,1500,1500,1500,1500,1500
1747550302.8183668,0.04,0.01,-0.34,-0.001090830782496456,-0.002181661564992912,0.001090830782496456,-0.008192212286779606,0.10197621499593243,-5.134792261908849e-05,0,0,0,0,0,0,1500,1500,1500,1500,1500,1500
1747550302.9160454,0.04,0.0,-0.35000000000000003,0.0,0.003272492347489368,0.0,-0.008192212286779606,0.10197621499593243,-5.134792261908849e-05,0,0,0,0,0,0,1500,1500,1500,1500,1500,1500
1747550303.016237,0.02,0.0,-0.29,0.002181661564992912,0.003272492347489368,-0.002181661564992912,-0.008192212286779606,0.10197621499593243,-5.134792261908849e-05,0,0,0,0,0,0,1500,1500,1500,1500,1500,1500
1747550303.1136997,0.02,0.0,-0.29,0.002181661564992912,0.003272492347489368,-0.002181661564992912,-0.008192212286779606,0.10197621499593243,-5.134792261908849e-05,0,-12.5,0,0,0,0,1540,1540,1540,1500,1500,1500
1747550303.1999528,0.04,-0.01,-0.36,-0.002181661564992912,0.001090830782496456,0.001090830782496456,-0.008192212286779606,0.10197621499593243,-5.134792261908849e-05,0,-12.5,0,0,0,0,1580,1580,1580,1500,1500,1500
1747550303.2999067,0.04,-0.01,-0.36,-0.002181661564992912,0.001090830782496456,0.001090830782496456,-0.008192212286779606,0.10197621499593243,-5.134792261908849e-05,0,-12.5,0,0,0,0,1614,1611,1596,1500,1500,1500
1747550303.4002764,0.03,0.0,-0.28,0.0,0.001090830782496456,0.0,-0.008192212286779606,0.10197621499593243,-5.134792261908849e-05,0,-12.5,0,0,0,0,1614,1611,1596,1500,1500,1500
1747550303.4972289,0.5700000000000001,-0.12,-0.53,0.009817477042468103,0.011999138607461015,-0.002181661564992912,-0.008314766932537083,0.1019762374643995,-5.7601644220204004e-05,0,-12.5,0,0,0,0,1614,1611,1596,1500,1500,1500
1747550303.5991728,0.5700000000000001,-0.12,-0.53,0.009817477042468103,0.011999138607461015,-0.002181661564992912,-0.008314766932537083,0.1019762374643995,-5.7601644220204004e-05,0,-12.5,0,0,0,0,1614,1611,1596,1500,1500,1500
1747550303.699636,-0.12,-0.37,-0.21,0.002181661564992912,0.002181661564992912,0.004363323129985824,-0.008204719308998737,0.10197521140445588,-0.000296448846788233,0,-12.5,0,0,0,0,1614,1611,1596,1500,1500,1500
1747550303.7998602,0.05,0.09,-0.41000000000000003,0.004363323129985824,0.0,-0.001090830782496456,-0.00808216479834217,0.10197520391496764,-0.0002901951260813132,0,-12.5,0,0,0,0,1614,1611,1596,1500,1500,1500
1747550303.8998554,0.05,0.09,-0.41000000000000003,0.004363323129985824,0.0,-0.001090830782496456,-0.00808216479834217,0.10197520391496764,-0.0002901951260813132,0,-12.5,0,0,0,0,1614,1611,1596,1500,1500,1500
1747550303.9974577,0.0,0.04,-0.32,0.0,0.003272492347489368,-0.003272492347489368,-0.00808216479834217,0.10197520391496764,-0.0002901951260813132,0,-12.5,0,0,0,0,1614,1611,1596,1500,1500,1500
1747550304.098586,0.0,0.04,-0.32,0.0,0.003272492347489368,-0.003272492347489368,-0.00808216479834217,0.10197520391496764,-0.0002901951260813132,0,0,0,0,0,0,1574,1571,1556,1500,1500,1500
1747550304.199737,0.06,0.13,-0.33,0.001090830782496456,0.002181661564992912,-0.001090830782496456,-0.00808216479834217,0.10197520391496764,-0.0002901951260813132,0,0,0,0,0,0,1534,1531,1516,1500,1500,1500
1747550304.2992506,-0.02,-0.01,-0.45,0.002181661564992912,0.002181661564992912,-0.006544984694978736,-0.00808216479834217,0.10197520391496764,-0.0002901951260813132,0,0,0,0,0,0,1500,1500,1500,1500,1500,1500
1747550304.398783,-0.02,-0.01,-0.45,0.002181661564992912,0.002181661564992912,-0.006544984694978736,-0.00808216479834217,0.10197520391496764,-0.0002901951260813132,0,0,0,0,0,0,1500,1500,1500,1500,1500,1500
1747550304.5014515,0.16,-0.26,-0.27,0.006544984694978736,0.001090830782496456,-0.009817477042468103,-0.007959610408285422,0.1019751964254794,-0.0002839414053516949,0,5.607359,0,0,0,0,1460,1460,1460,1500,1500,1500
1747550304.599919,0.01,0.04,-0.34,0.003272492347489368,-0.002181661564992912,-0.002181661564992912,-0.008204624241970708,0.1018526616763943,-0.00029594335195757805,0,12.5,0,0,0,0.005907,1420,1420,1420,1500,1500,1500
1747550304.6831536,0.01,0.04,-0.34,0.003272492347489368,-0.002181661564992912,-0.002181661564992912,-0.008204624241970708,0.1018526616763943,-0.00029594335195757805,0,12.5,0,0,0,0.005907,1380,1380,1391,1500,1500,1500
1747550304.7849221,-0.02,-0.04,-0.2,0.007635815477475192,-0.002181661564992912,-0.015271630954950384,-0.008088216233477314,0.10172961170016323,-0.0004117466761354547,0,12.5,0,0,0,0.005907,1369,1372,1391,1500,1500,1500
1747550304.8832645,-0.02,-0.04,-0.2,0.007635815477475192,-0.002181661564992912,-0.015271630954950384,-0.008088216233477314,0.10172961170016323,-0.0004117466761354547,0,12.5,0,0,0,0.005907,1369,1372,1391,1500,1500,1500
1747550304.9829273,0.14,0.51,-0.34,0.00545415391248228,0.003272492347489368,-0.011999138607461015,-0.008109235026782314,0.11730565252321026,-0.0005980893240361941,0,12.5,0,0,0,0.005907,1369,1372,1391,1500,1500,1500
1747550305.0833476,0.05,-0.04,-0.25,0.006544984694978736,0.001090830782496456,0.0,-0.007971796405249157,0.1016065782479791,-0.0005275620902527262,0,12.5,0,0,0,0.005907,1369,1372,1391,1500,1500,1500
1747550305.182557,0.05,-0.04,-0.25,0.006544984694978736,0.001090830782496456,0.0,-0.007971796405249157,0.1016065782479791,-0.0005275620902527262,0,12.5,0,0,0,0.005907,1369,1372,1391,1500,1500,1500
1747550305.2826102,0.0,-0.03,-0.34,0.0,-0.001090830782496456,0.0,-0.007849246736036524,0.10160658573718535,-0.0005213310725634647,0,12.5,0,0,0,0.005907,1369,1372,1391,1500,1500,1500
1747550305.38133,0.04,0.0,-0.28,0.006544984694978736,-0.001090830782496456,0.0,-0.007849246736036524,0.10160658573718535,-0.0005213310725634647,0,2.878609,0,0,0,0,1409,1412,1431,1500,1500,1500
1747550305.4838157,0.04,0.0,-0.28,0.006544984694978736,-0.001090830782496456,0.0,-0.007849246736036524,0.10160658573718535,-0.0005213310725634647,0,0,0,0,0,0,1449,1452,1471,1500,1500,1500
1747550305.5836172,0.28,-0.17,-0.12,-0.002181661564992912,0.0,-0.00545415391248228,-0.007849246736036524,0.10160658573718535,-0.0005213310725634647,0,0,0,0,0,0,1489,1492,1500,1500,1500,1500
1747550305.6746447,0.07,0.26,-0.44,0.002181661564992912,-0.003272492347489368,0.003272492347489368,-0.007726697183584534,0.10160659322639161,-0.0005151000548337211,0,0,0,0,0,0,1500,1500,1500,1500,1500,1500
1747550305.76671,0.07,0.26,-0.44,0.002181661564992912,-0.003272492347489368,0.003272492347489368,-0.007726697183584534,0.10160659322639161,-0.0005151000548337211,0,0,0,0,0,0,1500,1500,1500,1500,1500,1500
1747550305.8647106,0.09,0.0,-0.31,0.003272492347489368,-0.002181661564992912,-0.002181661564992912,-0.007604147746067557,0.10160660071559786,-0.0005088690370639795,0,0,0,0,0,0,1500,1500,1500,1500,1500,1500
1747550305.9518218,0.09,0.0,-0.31,0.003272492347489368,-0.002181661564992912,-0.002181661564992912,-0.007604147746067557,0.10160660071559786,-0.0005088690370639795,0,0,0,0,0,0,1500,1500,1500,1500,1500,1500
1747550306.0477638,0.04,-0.02,-0.38,0.0,-0.003272492347489368,-0.001090830782496456,-0.007726697183584534,0.10160659322639161,-0.0005151000548337211,0,0,0,0,0,0,1500,1500,1500,1500,1500,1500
1747550306.144349,0.03,0.01,-0.29,0.001090830782496456,0.0,-0.002181661564992912,-0.007726697183584534,0.10160659322639161,-0.0005151000548337211,0,0,0,0,0,0,1500,1500,1500,1500,1500,1500
1747550306.2316408,0.03,0.01,-0.29,0.001090830782496456,0.0,-0.002181661564992912,-0.007726697183584534,0.10160659322639161,-0.0005151000548337211,0,0,0,0,0,0,1500,1500,1500,1500,1500,1500
1747550306.3313994,0.03,0.0,-0.35000000000000003,-0.002181661564992912,0.0,-0.001090830782496456,-0.007726697183584534,0.10160659322639161,-0.0005151000548337211,0,0,0,0,0,0,1500,1500,1500,1500,1500,1500
1747550306.432658,0.03,0.0,-0.35000000000000003,-0.002181661564992912,0.0,-0.001090830782496456,-0.007726697183584534,0.10160659322639161,-0.0005151000548337211,0,0,0,0,0,0,1500,1500,1500,1500,1500,1500
1747550306.533056,0.01,0.0,-0.35000000000000003,-0.003272492347489368,-0.003272492347489368,0.002181661564992912,-0.007726697183584534,0.10160659322639161,-0.0005151000548337211,0,0,0,0,0,0,1500,1500,1500,1500,1500,1500
1747550306.631723,0.03,0.0,-0.3,0.001090830782496456,-0.003272492347489368,-0.002181661564992912,-0.007726697183584534,0.10160659322639161,-0.0005151000548337211,0,0,0,0,0,0,1500,1500,1500,1500,1500,1500
1747550306.7350368,0.03,0.0,-0.3,0.001090830782496456,-0.003272492347489368,-0.002181661564992912,-0.007726697183584534,0.10160659322639161,-0.0005151000548337211,0,0,0,0,0,0,1500,1500,1500,1500,1500,1500
1747550306.8313398,0.03,0.0,-0.35000000000000003,0.0,-0.004363323129985824,0.0,-0.007726697183584534,0.10160659322639161,-0.0005151000548337211,0,0,0,0,0,0,1500,1500,1500,1500,1500,1500
1747550306.9323864,0.03,0.0,-0.35000000000000003,0.0,-0.004363323129985824,0.0,-0.007726697183584534,0.10160659322639161,-0.0005151000548337211,0,0,0,0,0,0,1500,1500,1500,1500,1500,1500
1747550307.0350058,0.02,0.0,-0.3,-0.001090830782496456,0.002181661564992912,0.0,-0.007726697183584534,0.10160659322639161,-0.0005151000548337211,0,0,0,0,0,0,1500,1500,1500,1500,1500,1500
1747550307.1327813,0.04,0.0,-0.38,0.001090830782496456,-0.002181661564992912,0.0,-0.007726697183584534,0.10160659322639161,-0.0005151000548337211,0,0,0,0,0,0,1500,1500,1500,1500,1500,1500
1747550307.2323904,0.04,0.0,-0.38,0.001090830782496456,-0.002181661564992912,0.0,-0.007726697183584534,0.10160659322639161,-0.0005151000548337211,0,0,0,0,0,0,1500,1500,1500,1500,1500,1500
1747550307.3314633,0.01,-0.01,-0.3,0.0,-0.002181661564992912,-0.001090830782496456,-0.007726697183584534,0.10160659322639161,-0.0005151000548337211,0,0,0,0,0,0,1500,1500,1500,1500,1500,1500
1747550307.4311144,0.01,-0.01,-0.33,0.001090830782496456,-0.002181661564992912,0.002181661564992912,-0.007726697183584534,0.10160659322639161,-0.0005151000548337211,0,-2.495869,0,0,0,0,1540,1540,1540,1500,1500,1500
1747550307.532537,0.01,-0.01,-0.33,0.001090830782496456,-0.002181661564992912,0.002181661564992912,-0.007726697183584534,0.10160659322639161,-0.0005151000548337211,0,-12.5,0,0,0,-0.00489,1580,1580,1580,1500,1500,1500
1747550307.6309278,0.02,0.0,-0.34,0.003272492347489368,0.001090830782496456,0.001090830782496456,-0.007726697183584534,0.10160659322639161,-0.0005151000548337211,0,-12.5,0,0,0,-0.00489,1620,1620,1620,1500,1500,1500
1747550307.7167575,0.02,0.0,-0.34,0.003272492347489368,0.001090830782496456,0.001090830782496456,-0.007726697183584534,0.10160659322639161,-0.0005151000548337211,0,-12.5,0,0,0,-0.00489,1660,1660,1657,1500,1500,1500
1747550307.816257,0.11,-0.01,-0.36,0.002181661564992912,0.001090830782496456,0.002181661564992912,-0.007604045553041544,0.10148405559878616,-0.0005083983745395997,0,-12.5,0,0,0,-0.00489,1692,1686,1657,1500,1500,1500
1747550307.9156969,0.24,-0.59,-0.16,-0.006544984694978736,0.00545415391248228,0.018544123302439753,-0.008087914039052305,0.10136197633043652,-0.00041024846654665834,0,-12.5,0,0,0,-0.00489,1692,1686,1657,1500,1500,1500
1747550308.016746,0.24,-0.59,-0.16,-0.006544984694978736,0.00545415391248228,0.018544123302439753,-0.008087914039052305,0.10136197633043652,-0.00041024846654665834,0,-12.5,0,0,0,-0.00489,1692,1686,1657,1500,1500,1500
1747550308.1136582,-0.04,-0.03,-0.19,-0.002181661564992912,-0.00545415391248228,0.009817477042468103,-0.007230269249088697,0.10160706504639712,-0.0003676301254669246,0,-12.5,0,0,0,-0.00489,1692,1686,1657,1500,1500,1500
1747550308.1979678,-0.04,-0.03,-0.19,-0.002181661564992912,-0.00545415391248228,0.009817477042468103,-0.007230269249088697,0.10160706504639712,-0.0003676301254669246,0,-12.5,0,0,0,-0.00489,1692,1686,1657,1500,1500,1500
1747550308.297309,-0.02,0.07,-0.23,0.007635815477475192,0.002181661564992912,-0.004363323129985824,-0.007352818358341727,0.10160706504639712,-0.00037386114396685836,0,-12.5,0,0,0,-0.00489,1692,1686,1657,1500,1500,1500
1747550308.3970237,0.05,0.17,-0.34,0.001090830782496456,0.001090830782496456,-0.004363323129985824,-0.007346587507576449,0.10160751439880442,-0.00025131528089821414,0,-12.5,0,0,0,-0.00489,1692,1686,1657,1500,1500,1500
1747550308.4826894,0.05,0.17,-0.34,0.001090830782496456,0.001090830782496456,-0.004363323129985824,-0.007346587507576449,0.10160751439880442,-0.00025131528089821414,0,-12.5,0,0,0,-0.00489,1692,1686,1657,1500,1500,1500
1747550308.5798092,-0.08,0.08,-0.13,0.003272492347489368,0.004363323129985824,-0.002181661564992912,-0.007346671627273391,0.10173006105818849,-0.0002517677726557431,0,0,0,0,0,0,1652,1646,1617,1500,1500,1500
1747550308.676129,0.0,-0.15,-0.41000000000000003,0.001090830782496456,0.00545415391248228,-0.002181661564992912,-0.007469222379864564,0.10173006854748909,-0.00025800635865174667,0,0,0,0,0,0,1612,1606,1577,1500,1500,1500
1747550308.7689989,0.0,-0.15,-0.41000000000000003,0.001090830782496456,0.00545415391248228,-0.002181661564992912,-0.007469222379864564,0.10173006854748909,-0.00025800635865174667,0,0,0,0,0,0,1572,1566,1537,1500,1500,1500
1747550308.8649337,-0.22,0.1,-0.34,0.002181661564992912,-0.001090830782496456,-0.006544984694978736,-0.00759177324392722,0.10173007603678969,-0.00026424494462766695,0,0,0,0,0,0,1532,1526,1500,1500,1500,1500
1747550308.947401,-0.22,0.1,-0.34,0.002181661564992912,-0.001090830782496456,-0.006544984694978736,-0.00759177324392722,0.10173007603678969,-0.00026424494462766695,0,0.455682,0,0,0,0,1492,1486,1500,1500,1500,1500
1747550309.048546,-0.04,0.34,-0.33,0.008726646259971648,-0.001090830782496456,-0.01090830782496456,-0.007591947943457967,0.10197517395701472,-0.00026518024303154054,0,12.5,0,0,0,0.005907,1452,1446,1460,1500,1500,1500
1747550309.147744,0.04,0.11,-0.28,-0.003272492347489368,0.0,0.003272492347489368,-0.007591860535743541,0.10185262422942247,-0.0002647125860051075,0,12.5,0,0,0,0.005907,1412,1406,1420,1500,1500,1500
1747550309.249401,0.04,0.11,-0.28,-0.003272492347489368,0.0,0.003272492347489368,-0.007591860535743541,0.10185262422942247,-0.0002647125860051075,0,12.5,0,0,0,0.005907,1372,1366,1380,1500,1500,1500
1747550309.3495722,-0.02,-0.21,-0.5,-0.001090830782496456,0.00545415391248228,-0.00545415391248228,-0.007469308141692327,0.10185261674002812,-0.00025846643275069823,0,12.5,0,0,0,0.005907,1332,1326,1340,1500,1500,1500
1747550309.4493637,-0.02,-0.21,-0.5,-0.001090830782496456,0.00545415391248228,-0.00545415391248228,-0.007469308141692327,0.10185261674002812,-0.00025846643275069823,0,12.5,0,0,0,0.005907,1292,1286,1320,1500,1500,1500
1747550309.5487282,0.31,-0.5700000000000001,-0.27,-0.014180800172453928,0.003272492347489368,0.019634954084936207,-0.007101489385735058,0.10160749942039052,-0.00023885324284074916,0,12.5,0,0,0,0.005907,1279,1283,1320,1500,1500,1500
1747550309.6492298,-0.07,-0.13,-0.28,0.0,-0.003272492347489368,0.001090830782496456,-0.007211374962562955,0.10124075980451185,1.3330290033103495e-06,0,12.5,0,0,0,0.005907,1279,1283,1320,1500,1500,1500
1747550309.7491958,-0.07,-0.13,-0.28,0.0,-0.003272492347489368,0.001090830782496456,-0.007211374962562955,0.10124075980451185,1.3330290033103495e-06,0,12.5,0,0,0,0.005907,1279,1283,1320,1500,1500,1500
1747550309.8495457,-0.22,0.12,-0.63,0.001090830782496456,0.003272492347489368,-0.009817477042468103,-0.006482056787581983,0.1007500750229642,-8.236662363862374e-05,0,12.5,0,0,0,0.005907,1279,1283,1320,1500,1500,1500
1747550309.9373443,0.63,0.73,-0.59,-0.00545415391248228,-0.002181661564992912,-0.009817477042468103,-0.006598416719580721,0.10075049438205523,3.399055545009796e-05,0,12.5,0,0,0,0.005907,1279,1283,1320,1500,1500,1500
1747550310.0325944,0.63,0.73,-0.59,-0.00545415391248228,-0.002181661564992912,-0.009817477042468103,-0.006598416719580721,0.10075049438205523,3.399055545009796e-05,0,12.5,0,0,0,0.005907,1279,1283,1320,1500,1500,1500
1747550310.1296256,-0.32,-0.29,-0.22,0.014180800172453928,-0.002181661564992912,-0.001090830782496456,-0.007456394117507328,0.10111826418050122,-1.0626655523380841e-05,0,1.4e-05,0,0,0,0,1319,1323,1360,1500,1500,1500
1747550310.2160223,-0.32,-0.29,-0.22,0.014180800172453928,-0.002181661564992912,-0.001090830782496456,-0.007456394117507328,0.10111826418050122,-1.0626655523380841e-05,0,0,0,0,0,0,1359,1363,1400,1500,1500,1500
1747550310.314854,1.23,0.93,-0.56,0.00545415391248228,-0.00545415391248228,0.019634954084936207,-0.007082255345498404,0.09953184420589062,0.0001361701614544628,0,0,0,0,0,0,1399,1403,1440,1500,1500,1500
1747550310.4071534,0.18,-0.55,-0.28,0.00545415391248228,0.0,-0.007635815477475192,-0.006843174397206309,0.09928631257305608,2.6685285462202548e-05,0,0,0,0,0,0,1439,1443,1480,1500,1500,1500
1747550310.497265,0.18,-0.55,-0.28,0.00545415391248228,0.0,-0.007635815477475192,-0.006843174397206309,0.09928631257305608,2.6685285462202548e-05,0,0,0,0,0,0,1479,1483,1500,1500,1500,1500
1747550310.598432,-0.01,0.14,-0.3,0.0,0.004363323129985824,0.0,-0.006971719314504308,0.09916338428752575,-0.00010149868509522782,0,0,0,0,0,0,1500,1500,1500,1500,1500,1500
1747550310.695911,-0.01,0.14,-0.3,0.0,0.004363323129985824,0.0,-0.006971719314504308,0.09916338428752575,-0.00010149868509522782,0,0,0,0,0,0,1500,1500,1500,1500,1500,1500
1747550310.7998474,0.17,0.17,-0.38,0.00545415391248228,0.002181661564992912,0.0,-0.006849398586472059,0.09953094568931532,-9.668035698390888e-05,0,0,0,0,0,0,1500,1500,1500,1500,1500,1500
1747550310.8988621,0.03,0.04,-0.32,-0.001090830782496456,-0.002181661564992912,0.002181661564992912,-0.006849398586472059,0.09953094568931532,-9.668035698390888e-05,0,0,0,0,0,0,1500,1500,1500,1500,1500,1500
1747550311.0185943,0.03,0.04,-0.32,-0.001090830782496456,-0.002181661564992912,0.002181661564992912,-0.006849398586472059,0.09953094568931532,-9.668035698390888e-05,0,0,0,0,0,0,1500,1500,1500,1500,1500,1500
1747550311.1267283,0.02,-0.07,-0.36,-0.001090830782496456,-0.004363323129985824,0.001090830782496456,-0.006849398586472059,0.09953094568931532,-9.668035698390888e-05,0,0,0,0,0,0,1500,1500,1500,1500,1500,1500
1747550311.2134738,0.01,0.01,-0.31,0.00545415391248228,0.001090830782496456,-0.001090830782496456,-0.00697192918419815,0.09953096066459091,-0.00010278278034229028,0,0,0,0,0,0,1500,1500,1500,1500,1500,1500
1747550311.3148785,0.01,0.01,-0.31,0.00545415391248228,0.001090830782496456,-0.001090830782496456,-0.00697192918419815,0.09953096066459091,-0.00010278278034229028,0,0,0,0,0,0,1500,1500,1500,1500,1500,1500
1747550311.4152153,0.02,-0.03,-0.33,-0.003272492347489368,0.003272492347489368,0.0,-0.00697199935298773,0.09965348911951888,-0.00010321083604053686,0,0,0,0,0,0,1500,1500,1500,1500,1500,1500
1747550311.516506,0.0,-0.01,-0.34,0.0,0.001090830782496456,0.001090830782496456,-0.00697199935298773,0.09965348911951888,-0.00010321083604053686,0,0,0,0,0,0,1500,1500,1500,1500,1500,1500
1747550311.614941,0.0,-0.01,-0.34,0.0,0.001090830782496456,0.001090830782496456,-0.00697199935298773,0.09965348911951888,-0.00010321083604053686,0,0,0,0,0,0,1500,1500,1500,1500,1500,1500
1747550311.699552,0.02,0.01,-0.32,0.0,-0.002181661564992912,0.001090830782496456,-0.00697199935298773,0.09965348911951888,-0.00010321083604053686,0,0,0,0,0,0,1500,1500,1500,1500,1500,1500
1747550311.7997732,0.02,0.01,-0.32,0.0,-0.002181661564992912,0.001090830782496456,-0.00697199935298773,0.09965348911951888,-0.00010321083604053686,0,0,0,0,0,0,1500,1500,1500,1500,1500,1500
1747550311.897249,0.0,0.0,-0.31,-0.002181661564992912,0.001090830782496456,-0.002181661564992912,-0.00697199935298773,0.09965348911951888,-0.00010321083604053686,0,0,0,0,0,0,1500,1500,1500,1500,1500,1500
1747550311.9813137,0.0,0.0,-0.31,-0.002181661564992912,0.001090830782496456,-0.002181661564992912,-0.00697199935298773,0.09965348911951888,-0.00010321083604053686,0,0,0,0,0,0,1500,1500,1500,1500,1500,1500
1747550312.0800657,0.04,-0.01,-0.32,-0.001090830782496456,0.001090830782496456,-0.003272492347489368,-0.00697199935298773,0.09965348911951888,-0.00010321083604053686,0,0,0,0,0,0,1500,1500,1500,1500,1500,1500
1747550312.1841083,0.0,0.01,-0.32,-0.004363323129985824,0.002181661564992912,0.0,-0.00697199935298773,0.09965348911951888,-0.00010321083604053686,0,0,0,0,0,0,1500,1500,1500,1500,1500,1500
1747550312.2828403,0.0,0.01,-0.32,-0.004363323129985824,0.002181661564992912,0.0,-0.00697199935298773,0.09965348911951888,-0.00010321083604053686,0,0,0,0,0,0,1500,1500,1500,1500,1500,1500
1747550312.382656,0.0,-0.02,-0.31,-0.002181661564992912,-0.002181661564992912,-0.001090830782496456,-0.00697199935298773,0.09965348911951888,-0.00010321083604053686,0,0,0,0,0,0,1500,1500,1500,1500,1500,1500
1747550312.482692,0.02,-0.01,-0.37,0.004363323129985824,0.0,0.0,-0.00697199935298773,0.09965348911951888,-0.00010321083604053686,0,0,0,0,0,0,1500,1500,1500,1500,1500,1500
1747550312.580982,0.02,-0.01,-0.37,0.004363323129985824,0.0,0.0,-0.00697199935298773,0.09965348911951888,-0.00010321083604053686,0,0,0,0,0,0,1500,1500,1500,1500,1500,1500
1747550312.6809256,0.02,0.0,-0.32,-0.002181661564992912,0.002181661564992912,0.001090830782496456,-0.00697199935298773,0.09965348911951888,-0.00010321083604053686,0,0,0,0,0,0,1500,1500,1500,1500,1500,1500
1747550312.7843187,0.02,0.0,-0.32,-0.002181661564992912,0.002181661564992912,0.001090830782496456,-0.00697199935298773,0.09965348911951888,-0.00010321083604053686,0,0,0,0,0,0,1500,1500,1500,1500,1500,1500
1747550312.8836563,-0.01,-0.01,-0.36,0.0,0.003272492347489368,0.001090830782496456,-0.00697199935298773,0.09965348911951888,-0.00010321083604053686,0,0,0,0,0,0,1500,1500,1500,1500,1500,1500
1747550312.9814587,0.01,0.0,-0.3,-0.003272492347489368,-0.001090830782496456,-0.003272492347489368,-0.00697199935298773,0.09965348911951888,-0.00010321083604053686,0,0,0,0,0,0,1500,1500,1500,1500,1500,1500
1747550313.0829983,0.01,0.0,-0.3,-0.003272492347489368,-0.001090830782496456,-0.003272492347489368,-0.00697199935298773,0.09965348911951888,-0.00010321083604053686,0,0,0,0,0,0,1500,1500,1500,1500,1500,1500
1747550313.1831946,0.02,0.0,-0.36,-0.001090830782496456,0.004363323129985824,-0.002181661564992912,-0.00697199935298773,0.09965348911951888,-0.00010321083604053686,0,0,0,0,0,0,1500,1500,1500,1500,1500,1500
1747550313.2825797,0.0,0.0,-0.33,0.0,0.00545415391248228,0.0,-0.00697199935298773,0.09965348911951888,-0.00010321083604053686,0,0,0,0,0,0,1500,1500,1500,1500,1500,1500
1747550313.3800745,0.0,0.0,-0.33,0.0,0.00545415391248228,0.0,-0.00697199935298773,0.09965348911951888,-0.00010321083604053686,0,0,0,0,0,0,1500,1500,1500,1500,1500,1500
1747550313.4636402,0.01,-0.01,-0.32,-0.003272492347489368,-0.001090830782496456,-0.002181661564992912,-0.00697199935298773,0.09965348911951888,-0.00010321083604053686,0,0,0,0,0,0,1500,1500,1500,1500,1500,1500
1747550313.5649335,0.01,-0.01,-0.32,-0.003272492347489368,-0.001090830782496456,-0.002181661564992912,-0.00697199935298773,0.09965348911951888,-0.00010321083604053686,0,0,0,0,0,0,1500,1500,1500,1500,1500,1500
1747550313.666339,0.0,0.0,-0.35000000000000003,0.001090830782496456,0.004363323129985824,0.0,-0.00697199935298773,0.09965348911951888,-0.00010321083604053686,0,0,0,0,0,0,1500,1500,1500,1500,1500,1500
1747550313.766196,0.02,0.01,-0.36,-0.002181661564992912,0.002181661564992912,-0.002181661564992912,-0.00697199935298773,0.09965348911951888,-0.00010321083604053686,0,0,0,0,0,0,1500,1500,1500,1500,1500,1500
1747550313.864404,0.02,0.01,-0.36,-0.002181661564992912,0.002181661564992912,-0.002181661564992912,-0.00697199935298773,0.09965348911951888,-0.00010321083604053686,0,0,0,0,0,0,1500,1500,1500,1500,1500,1500
1747550313.9642544,-0.01,-0.02,-0.28,0.0,0.001090830782496456,-0.002181661564992912,-0.00697199935298773,0.09965348911951888,-0.00010321083604053686,0,0,0,0,0,0,1500,1500,1500,1500,1500,1500
1747550314.0661035,0.0,0.0,-0.31,-0.003272492347489368,0.003272492347489368,-0.001090830782496456,-0.00697199935298773,0.09965348911951888,-0.00010321083604053686,0,0,0,0,0,0,1500,1500,1500,1500,1500,1500
1747550314.1667514,0.0,0.0,-0.31,-0.003272492347489368,0.003272492347489368,-0.001090830782496456,-0.00697199935298773,0.09965348911951888,-0.00010321083604053686,0,0,0,0,0,0,1500,1500,1500,1500,1500,1500
1747550314.2635794,0.0,-0.01,-0.35000000000000003,0.003272492347489368,0.002181661564992912,-0.001090830782496456,-0.00697199935298773,0.09965348911951888,-0.00010321083604053686,0,0,0,0,0,0,1500,1500,1500,1500,1500,1500
1747550314.3583128,0.01,0.01,-0.27,-0.001090830782496456,-0.002181661564992912,0.001090830782496456,-0.00697199935298773,0.09965348911951888,-0.00010321083604053686,0,0,0,0,0,0,1500,1500,1500,1500,1500,1500
1747550314.4625278,0.01,0.01,-0.27,-0.001090830782496456,-0.002181661564992912,0.001090830782496456,-0.00697199935298773,0.09965348911951888,-0.00010321083604053686,0,0,0,0,0,0,1500,1500,1500,1500,1500,1500
1747550314.5638418,0.0,-0.01,-0.35000000000000003,-0.001090830782496456,-0.002181661564992912,0.001090830782496456,-0.00697199935298773,0.09965348911951888,-0.00010321083604053686,0,0,0,0,0,0,1500,1500,1500,1500,1500,1500
1747550314.6667254,0.0,-0.01,-0.35000000000000003,-0.001090830782496456,-0.002181661564992912,0.001090830782496456,-0.00697199935298773,0.09965348911951888,-0.00010321083604053686,0,0,0,0,0,0,1500,1500,1500,1500,1500,1500
1747550314.7661088,0.02,0.0,-0.33,0.002181661564992912,0.002181661564992912,0.002181661564992912,-0.00697199935298773,0.09965348911951888,-0.00010321083604053686,0,0,0,0,0,0,1500,1500,1500,1500,1500,1500
1747550314.8648434,0.02,0.0,-0.34,0.0,0.0,0.001090830782496456,-0.00697199935298773,0.09965348911951888,-0.00010321083604053686,0,0,0,0,0,0,1500,1500,1500,1500,1500,1500
1747550314.9650977,0.02,0.0,-0.34,0.0,0.0,0.001090830782496456,-0.00697199935298773,0.09965348911951888,-0.00010321083604053686,0,0,0,0,0,0,1500,1500,1500,1500,1500,1500
1747550315.0650542,0.0,0.0,-0.31,-0.002181661564992912,-0.001090830782496456,0.001090830782496456,-0.00697199935298773,0.09965348911951888,-0.00010321083604053686,0,0,0,0,0,0,1500,1500,1500,1500,1500,1500
1747550315.1664922,-0.01,0.0,-0.3,-0.003272492347489368,0.004363323129985824,-0.001090830782496456,-0.00697199935298773,0.09965348911951888,-0.00010321083604053686,0,0,0,0,0,0,1500,1500,1500,1500,1500,1500
1747550315.2648726,-0.01,0.0,-0.3,-0.003272492347489368,0.004363323129985824,-0.001090830782496456,-0.00697199935298773,0.09965348911951888,-0.00010321083604053686,0,0,0,0,0,0,1500,1500,1500,1500,1500,1500
1747550315.3639808,0.0,-0.01,-0.35000000000000003,-0.002181661564992912,-0.006544984694978736,0.001090830782496456,-0.00697199935298773,0.09965348911951888,-0.00010321083604053686,0,0,0,0,0,0,1500,1500,1500,1500,1500,1500
1747550315.448436,0.0,-0.01,-0.35000000000000003,-0.002181661564992912,-0.006544984694978736,0.001090830782496456,-0.00697199935298773,0.09965348911951888,-0.00010321083604053686,0,0,0,0,0,0,1500,1500,1500,1500,1500,1500
1747550315.550327,0.02,0.0,-0.29,0.0,0.003272492347489368,-0.001090830782496456,-0.00697199935298773,0.09965348911951888,-0.00010321083604053686,0,0,0,0,0,0,1500,1500,1500,1500,1500,1500
1747550315.648839,0.02,0.0,-0.35000000000000003,0.001090830782496456,0.001090830782496456,-0.003272492347489368,-0.00697199935298773,0.09965348911951888,-0.00010321083604053686,0,0,0,0,0,0,1500,1500,1500,1500,1500,1500
1747550315.7467618,0.02,0.0,-0.35000000000000003,0.001090830782496456,0.001090830782496456,-0.003272492347489368,-0.00697199935298773,0.09965348911951888,-0.00010321083604053686,0,0,0,0,0,0,1500,1500,1500,1500,1500,1500
1747550315.8510292,0.0,0.01,-0.34,0.0,0.0,0.0,-0.00697199935298773,0.09965348911951888,-0.00010321083604053686,0,0,0,0,0,0,1500,1500,1500,1500,1500,1500
1747550315.9491298,0.01,0.0,-0.36,-0.001090830782496456,-0.001090830782496456,-0.001090830782496456,-0.00697199935298773,0.09965348911951888,-0.00010321083604053686,0,0,0,0,0,0,1500,1500,1500,1500,1500,1500
1747550316.0486271,0.01,0.0,-0.36,-0.001090830782496456,-0.001090830782496456,-0.001090830782496456,-0.00697199935298773,0.09965348911951888,-0.00010321083604053686,0,0,0,0,0,0,1500,1500,1500,1500,1500,1500
1747550316.1484568,0.0,0.01,-0.31,0.001090830782496456,-0.003272492347489368,0.0,-0.00697199935298773,0.09965348911951888,-0.00010321083604053686,0,0,0,0,0,0,1500,1500,1500,1500,1500,1500
1747550316.2487268,0.0,0.01,-0.31,0.001090830782496456,-0.003272492347489368,0.0,-0.00697199935298773,0.09965348911951888,-0.00010321083604053686,0,0,0,0,0,0,1500,1500,1500,1500,1500,1500
1747550316.3463402,0.01,0.0,-0.34,-0.001090830782496456,-0.004363323129985824,0.003272492347489368,-0.00697199935298773,0.09965348911951888,-0.00010321083604053686,0,0,0,0,0,0,1500,1500,1500,1500,1500,1500
1747550316.445951,0.0,0.0,-0.33,0.003272492347489368,-0.003272492347489368,0.0,-0.00697199935298773,0.09965348911951888,-0.00010321083604053686,0,0,0,0,0,0,1500,1500,1500,1500,1500,1500
1747550316.544553,0.0,0.0,-0.33,0.003272492347489368,-0.003272492347489368,0.0,-0.00697199935298773,0.09965348911951888,-0.00010321083604053686,0,0,0,0,0,0,1500,1500,1500,1500,1500,1500
1747550316.6471016,0.0,-0.01,-0.27,-0.001090830782496456,0.002181661564992912,0.001090830782496456,-0.00697199935298773,0.09965348911951888,-0.00010321083604053686,0,0,0,0,0,0,1500,1500,1500,1500,1500,1500
1747550316.7279725,0.0,0.0,-0.36,-0.001090830782496456,-0.004363323129985824,0.001090830782496456,-0.00697199935298773,0.09965348911951888,-0.00010321083604053686,0,0,0,0,0,0,1500,1500,1500,1500,1500,1500
1747550316.8290098,0.0,0.0,-0.36,-0.001090830782496456,-0.004363323129985824,0.001090830782496456,-0.00697199935298773,0.09965348911951888,-0.00010321083604053686,0,0,0,0,0,0,1500,1500,1500,1500,1500,1500
1747550316.9295757,0.0,-0.01,-0.36,-0.001090830782496456,0.002181661564992912,0.002181661564992912,-0.00697199935298773,0.09965348911951888,-0.00010321083604053686,0,0,0,0,0,0,1500,1500,1500,1500,1500,1500
1747550317.0310729,0.0,-0.01,-0.36,-0.001090830782496456,0.002181661564992912,0.002181661564992912,-0.00697199935298773,0.09965348911951888,-0.00010321083604053686,0,0,0,0,0,0,1500,1500,1500,1500,1500,1500
1747550317.130988,0.01,0.0,-0.32,-0.001090830782496456,0.002181661564992912,0.002181661564992912,-0.00697199935298773,0.09965348911951888,-0.00010321083604053686,0,0,0,0,0,0,1500,1500,1500,1500,1500,1500
1747550317.2138963,0.01,0.0,-0.34,-0.002181661564992912,0.001090830782496456,-0.001090830782496456,-0.00697199935298773,0.09965348911951888,-0.00010321083604053686,0,0,0,0,0,0,1500,1500,1500,1500,1500,1500
1747550317.3149455,0.01,0.0,-0.34,-0.002181661564992912,0.001090830782496456,-0.001090830782496456,-0.00697199935298773,0.09965348911951888,-0.00010321083604053686,0,0,0,0,0,0,1500,1500,1500,1500,1500,1500
1747550317.4148297,0.04,-0.01,-0.33,-0.002181661564992912,0.0,-0.001090830782496456,-0.00697199935298773,0.09965348911951888,-0.00010321083604053686,0,0,0,0,0,0,1500,1500,1500,1500,1500,1500
1747550317.511784,0.02,-0.01,-0.36,0.0,0.001090830782496456,0.0,-0.00697199935298773,0.09965348911951888,-0.00010321083604053686,0,0,0,0,0,0,1500,1500,1500,1500,1500,1500
1747550317.613622,0.02,-0.01,-0.36,0.0,0.001090830782496456,0.0,-0.00697199935298773,0.09965348911951888,-0.00010321083604053686,0,0,0,0,0,0,1500,1500,1500,1500,1500,1500
1747550317.7156477,0.0,0.01,-0.29,0.0,-0.001090830782496456,-0.001090830782496456,-0.00697199935298773,0.09965348911951888,-0.00010321083604053686,0,0,0,0,0,0,1500,1500,1500,1500,1500,1500
1747550317.8148508,0.0,0.01,-0.29,0.0,-0.001090830782496456,-0.001090830782496456,-0.00697199935298773,0.09965348911951888,-0.00010321083604053686,0,0,0,0,0,0,1500,1500,1500,1500,1500,1500
1747550317.914984,0.02,0.01,-0.34,0.003272492347489368,-0.002181661564992912,-0.001090830782496456,-0.00697199935298773,0.09965348911951888,-0.00010321083604053686,0,0,0,0,0,0,1500,1500,1500,1500,1500,1500
1747550318.016628,0.0,0.0,-0.34,-0.001090830782496456,0.0,-0.001090830782496456,-0.00697199935298773,0.09965348911951888,-0.00010321083604053686,0,0,0,0,0,0,1500,1500,1500,1500,1500,1500
1747550318.1137855,0.0,0.0,-0.34,-0.001090830782496456,0.0,-0.001090830782496456,-0.00697199935298773,0.09965348911951888,-0.00010321083604053686,0,0,0,0,0,0,1500,1500,1500,1500,1500,1500
1747550318.1987622,0.02,0.0,-0.38,-0.002181661564992912,0.001090830782496456,0.001090830782496456,-0.00697199935298773,0.09965348911951888,-0.00010321083604053686,0,0,0,0,0,0,1500,1500,1500,1500,1500,1500
1747550318.299982,0.02,0.0,-0.38,-0.002181661564992912,0.001090830782496456,0.001090830782496456,-0.00697199935298773,0.09965348911951888,-0.00010321083604053686,0,0,0,0,0,0,1500,1500,1500,1500,1500,1500
1747550318.3978028,0.01,-0.02,-0.32,-0.003272492347489368,-0.001090830782496456,0.0,-0.00697199935298773,0.09965348911951888,-0.00010321083604053686,0,0,0,0,0,0,1500,1500,1500,1500,1500,1500
1747550318.5000837,0.0,0.0,-0.33,0.001090830782496456,-0.001090830782496456,0.0,-0.00697199935298773,0.09965348911951888,-0.00010321083604053686,0,0,0,0,0,0,1500,1500,1500,1500,1500,1500
1747550318.5978107,0.01,0.0,-0.33,0.001090830782496456,0.0,-0.001090830782496456,-0.00697199935298773,0.09965348911951888,-0.00010321083604053686,0,0,0,0,0,0,1500,1500,1500,1500,1500,1500
1747550318.6977928,0.01,0.0,-0.33,0.001090830782496456,0.0,-0.001090830782496456,-0.00697199935298773,0.09965348911951888,-0.00010321083604053686,0,0,0,0,0,0,1500,1500,1500,1500,1500,1500
1747550318.7989597,0.01,0.0,-0.37,0.001090830782496456,0.002181661564992912,0.0,-0.00697199935298773,0.09965348911951888,-0.00010321083604053686,0,0,0,0,0,0,1500,1500,1500,1500,1500,1500
1747550318.8987267,0.01,0.0,-0.37,0.001090830782496456,0.002181661564992912,0.0,-0.00697199935298773,0.09965348911951888,-0.00010321083604053686,0,0,0,0,0,0,1500,1500,1500,1500,1500,1500
1747550318.9996123,0.0,0.0,-0.29,0.003272492347489368,0.001090830782496456,0.001090830782496456,-0.00697199935298773,0.09965348911951888,-0.00010321083604053686,0,0,0,0,0,0,1500,1500,1500,1500,1500,1500
1747550319.0989666,0.02,-0.01,-0.38,0.002181661564992912,-0.002181661564992912,0.0,-0.00697199935298773,0.09965348911951888,-0.00010321083604053686,0,0,0,0,0,0,1500,1500,1500,1500,1500,1500
1747550319.197644,0.02,-0.01,-0.38,0.002181661564992912,-0.002181661564992912,0.0,-0.00697199935298773,0.09965348911951888,-0.00010321083604053686,0,0,0,0,0,0,1500,1500,1500,1500,1500,1500
1747550319.2963014,0.03,0.01,-0.3,0.001090830782496456,-0.001090830782496456,0.0,-0.00697199935298773,0.09965348911951888,-0.00010321083604053686,0,0,0,0,0,0,1500,1500,1500,1500,1500,1500
1747550319.3863099,0.0,0.0,-0.38,-0.002181661564992912,-0.004363323129985824,-0.002181661564992912,-0.00697199935298773,0.09965348911951888,-0.00010321083604053686,0,0,0,0,0,0,1500,1500,1500,1500,1500,1500
1747550319.4863715,0.0,0.0,-0.38,-0.002181661564992912,-0.004363323129985824,-0.002181661564992912,-0.00697199935298773,0.09965348911951888,-0.00010321083604053686,0,0,0,0,0,0,1500,1500,1500,1500,1500,1500
1747550319.5804875,-0.02,0.01,-0.29,0.0,0.003272492347489368,-0.002181661564992912,-0.00697199935298773,0.09965348911951888,-0.00010321083604053686,0,0,0,0,0,0,1500,1500,1500,1500,1500,1500
1747550319.682729,-0.02,0.01,-0.29,0.0,0.003272492347489368,-0.002181661564992912,-0.00697199935298773,0.09965348911951888,-0.00010321083604053686,0,0,0,0,0,0,1500,1500,1500,1500,1500,1500
1747550319.782681,0.02,0.0,-0.33,0.0,0.001090830782496456,0.0,-0.00697199935298773,0.09965348911951888,-0.00010321083604053686,0,0,0,0,0,0,1500,1500,1500,1500,1500,1500
1747550319.8836067,0.0,0.01,-0.3,0.001090830782496456,-0.003272492347489368,-0.001090830782496456,-0.00697199935298773,0.09965348911951888,-0.00010321083604053686,0,0,0,0,0,0,1500,1500,1500,1500,1500,1500
1747550319.9834325,0.0,0.01,-0.3,0.001090830782496456,-0.003272492347489368,-0.001090830782496456,-0.00697199935298773,0.09965348911951888,-0.00010321083604053686,0,0,0,0,0,0,1500,1500,1500,1500,1500,1500
1747550320.098605,0.0,-0.01,-0.33,0.004363323129985824,-0.004363323129985824,0.001090830782496456,-0.00697199935298773,0.09965348911951888,-0.00010321083604053686,0,0,0,0,0,0,1500,1500,1500,1500,1500,1500
1747550320.2158036,0.02,0.0,-0.32,0.002181661564992912,-0.00545415391248228,0.0,-0.00697199935298773,0.09965348911951888,-0.00010321083604053686,0,0,0,0,0,0,1500,1500,1500,1500,1500,1500
1747550320.3125277,0.02,0.0,-0.32,0.002181661564992912,-0.00545415391248228,0.0,-0.00697199935298773,0.09965348911951888,-0.00010321083604053686,0,0,0,0,0,0,1500,1500,1500,1500,1500,1500
1747550320.4059467,0.02,0.0,-0.34,-0.001090830782496456,-0.001090830782496456,0.0,-0.00697199935298773,0.09965348911951888,-0.00010321083604053686,0,0,0,0,0,0,1500,1500,1500,1500,1500,1500
1747550320.4980676,0.02,0.0,-0.34,-0.001090830782496456,-0.001090830782496456,0.0,-0.00697199935298773,0.09965348911951888,-0.00010321083604053686,0,0,0,0,0,0,1500,1500,1500,1500,1500,1500
1747550320.5966694,-0.01,0.0,-0.31,0.001090830782496456,-0.001090830782496456,-0.001090830782496456,-0.00697199935298773,0.09965348911951888,-0.00010321083604053686,0,0,0,0,0,0,1500,1500,1500,1500,1500,1500
1747550320.6858222,0.03,-0.03,-0.31,0.001090830782496456,-0.002181661564992912,-0.002181661564992912,-0.00697199935298773,0.09965348911951888,-0.00010321083604053686,0,0,0,0,0,0,1500,1500,1500,1500,1500,1500
1747550320.7779436,0.03,-0.03,-0.31,0.001090830782496456,-0.002181661564992912,-0.002181661564992912,-0.00697199935298773,0.09965348911951888,-0.00010321083604053686,0,0,0,0,0,0,1500,1500,1500,1500,1500,1500
1747550320.882834,0.02,-0.01,-0.37,0.001090830782496456,-0.006544984694978736,0.0,-0.00697199935298773,0.09965348911951888,-0.00010321083604053686,0,0,0,0,0,0,1500,1500,1500,1500,1500,1500
1747550320.9781487,0.02,-0.01,-0.37,0.001090830782496456,-0.006544984694978736,0.0,-0.00697199935298773,0.09965348911951888,-0.00010321083604053686,0,0,0,0,0,0,1500,1500,1500,1500,1500,1500
1747550321.0805078,0.01,-0.01,-0.32,0.001090830782496456,0.001090830782496456,0.002181661564992912,-0.00697199935298773,0.09965348911951888,-0.00010321083604053686,0,0,0,0,0,0,1500,1500,1500,1500,1500,1500
1747550321.1813388,0.0,0.0,-0.35000000000000003,0.006544984694978736,0.002181661564992912,0.0,-0.00697199935298773,0.09965348911951888,-0.00010321083604053686,0,0,0,0,0,0,1500,1500,1500,1500,1500,1500
1747550321.2796288,0.0,0.0,-0.35000000000000003,0.006544984694978736,0.002181661564992912,0.0,-0.00697199935298773,0.09965348911951888,-0.00010321083604053686,0,0,0,0,0,0,1500,1500,1500,1500,1500,1500
1747550321.3817458,0.02,0.01,-0.31,-0.001090830782496456,-0.001090830782496456,0.0,-0.00697199935298773,0.09965348911951888,-0.00010321083604053686,0,0,0,0,0,0,1500,1500,1500,1500,1500,1500
1747550321.4649448,0.02,0.01,-0.31,-0.001090830782496456,-0.001090830782496456,0.0,-0.00697199935298773,0.09965348911951888,-0.00010321083604053686,0,0,0,0,0,0,1500,1500,1500,1500,1500,1500
1747550321.5653248,0.01,0.0,-0.36,0.002181661564992912,-0.001090830782496456,0.001090830782496456,-0.00697199935298773,0.09965348911951888,-0.00010321083604053686,0,0,0,0,0,0,1500,1500,1500,1500,1500,1500
1747550321.6638534,0.0,-0.01,-0.29,-0.004363323129985824,-0.001090830782496456,0.002181661564992912,-0.00697199935298773,0.09965348911951888,-0.00010321083604053686,0,0,0,0,0,0,1500,1500,1500,1500,1500,1500
1747550321.764816,0.0,-0.01,-0.29,-0.004363323129985824,-0.001090830782496456,0.002181661564992912,-0.00697199935298773,0.09965348911951888,-0.00010321083604053686,0,0,0,0,0,0,1500,1500,1500,1500,1500,1500
1747550321.8635812,0.02,-0.01,-0.39,0.003272492347489368,0.0,0.002181661564992912,-0.00697199935298773,0.09965348911951888,-0.00010321083604053686,0,0,0,0,0,0,1500,1500,1500,1500,1500,1500
1747550321.9477396,0.0,-0.01,-0.35000000000000003,-0.003272492347489368,-0.00545415391248228,-0.003272492347489368,-0.00697199935298773,0.09965348911951888,-0.00010321083604053686,0,0,0,0,0,0,1500,1500,1500,1500,1500,1500
1747550322.0514178,0.0,-0.01,-0.35000000000000003,-0.003272492347489368,-0.00545415391248228,-0.003272492347489368,-0.00697199935298773,0.09965348911951888,-0.00010321083604053686,0,0,0,0,0,0,1500,1500,1500,1500,1500,1500
1747550322.1468625,0.02,0.0,-0.36,0.001090830782496456,0.001090830782496456,0.0,-0.00697199935298773,0.09965348911951888,-0.00010321083604053686,0,0,0,0,0,0,1500,1500,1500,1500,1500,1500
1747550322.2491198,0.02,0.0,-0.36,0.001090830782496456,0.001090830782496456,0.0,-0.00697199935298773,0.09965348911951888,-0.00010321083604053686,0,0,0,0,0,0,1500,1500,1500,1500,1500,1500
1747550322.34783,0.0,-0.02,-0.27,-0.001090830782496456,-0.003272492347489368,-0.001090830782496456,-0.00697199935298773,0.09965348911951888,-0.00010321083604053686,0,0,0,0,0,0,1500,1500,1500,1500,1500,1500
1747550322.4472635,0.03,0.0,-0.36,-0.001090830782496456,-0.001090830782496456,0.002181661564992912,-0.00697199935298773,0.09965348911951888,-0.00010321083604053686,0,0,0,0,0,0,1500,1500,1500,1500,1500,1500
1747550322.5474746,0.03,0.0,-0.36,-0.001090830782496456,-0.001090830782496456,0.002181661564992912,-0.00697199935298773,0.09965348911951888,-0.00010321083604053686,0,0,0,0,0,0,1500,1500,1500,1500,1500,1500
1747550322.6465027,0.0,0.01,-0.31,-0.003272492347489368,-0.002181661564992912,-0.001090830782496456,-0.00697199935298773,0.09965348911951888,-0.00010321083604053686,0,0,0,0,0,0,1500,1500,1500,1500,1500,1500
1747550322.733804,0.0,0.01,-0.31,-0.003272492347489368,-0.002181661564992912,-0.001090830782496456,-0.00697199935298773,0.09965348911951888,-0.00010321083604053686,0,0,0,0,0,0,1500,1500,1500,1500,1500,1500
1747550322.8328958,0.03,0.0,-0.35000000000000003,-0.002181661564992912,0.00545415391248228,0.0,-0.00697199935298773,0.09965348911951888,-0.00010321083604053686,0,0,0,0,0,0,1500,1500,1500,1500,1500,1500
1747550322.917055,0.02,0.0,-0.29,0.0,-0.001090830782496456,0.001090830782496456,-0.00697199935298773,0.09965348911951888,-0.00010321083604053686,0,0,0,0,0,0,1500,1500,1500,1500,1500,1500
1747550323.0165288,0.02,0.0,-0.29,0.0,-0.001090830782496456,0.001090830782496456,-0.00697199935298773,0.09965348911951888,-0.00010321083604053686,0,0,0,0,0,0,1500,1500,1500,1500,1500,1500
1747550323.115282,0.01,0.0,-0.39,0.0,-0.003272492347489368,0.0,-0.00697199935298773,0.09965348911951888,-0.00010321083604053686,0,0,0,0,0,0,1500,1500,1500,1500,1500,1500
1747550323.1960402,0.01,0.0,-0.39,0.0,-0.003272492347489368,0.0,-0.00697199935298773,0.09965348911951888,-0.00010321083604053686,0,0,0,0,0,0,1500,1500,1500,1500,1500,1500
1747550323.2951753,0.0,0.0,-0.32,0.001090830782496456,0.001090830782496456,0.0,-0.00697199935298773,0.09965348911951888,-0.00010321083604053686,0,0,0,0,0,0,1500,1500,1500,1500,1500,1500
1747550323.3913856,0.03,-0.02,-0.34,-0.00545415391248228,0.0,0.0,-0.00697199935298773,0.09965348911951888,-0.00010321083604053686,0,0,0,0,0,0,1500,1500,1500,1500,1500,1500
1747550323.4827833,0.03,-0.02,-0.34,-0.00545415391248228,0.0,0.0,-0.00697199935298773,0.09965348911951888,-0.00010321083604053686,0,0,0,0,0,0,1500,1500,1500,1500,1500,1500
1747550323.580345,0.02,-0.02,-0.31,-0.002181661564992912,0.0,0.001090830782496456,-0.00697199935298773,0.09965348911951888,-0.00010321083604053686,0,0,0,0,0,0,1500,1500,1500,1500,1500,1500
1747550323.682424,0.02,-0.02,-0.31,-0.002181661564992912,0.0,0.001090830782496456,-0.00697199935298773,0.09965348911951888,-0.00010321083604053686,0,0,0,0,0,0,1500,1500,1500,1500,1500,1500
1747550323.7804863,0.02,-0.01,-0.36,-0.001090830782496456,0.0,0.001090830782496456,-0.00697199935298773,0.09965348911951888,-0.00010321083604053686,0,0,0,0,0,0,1500,1500,1500,1500,1500,1500
1747550323.880896,0.0,-0.01,-0.29,-0.002181661564992912,0.001090830782496456,-0.001090830782496456,-0.00697199935298773,0.09965348911951888,-0.00010321083604053686,0,0,0,0,0,0,1500,1500,1500,1500,1500,1500
1747550323.963787,0.0,-0.01,-0.29,-0.002181661564992912,0.001090830782496456,-0.001090830782496456,-0.00697199935298773,0.09965348911951888,-0.00010321083604053686,0,0,0,0,0,0,1500,1500,1500,1500,1500,1500
1747550324.062463,0.02,0.0,-0.34,0.0,-0.001090830782496456,0.0,-0.00697199935298773,0.09965348911951888,-0.00010321083604053686,0,0,0,0,0,0,1500,1500,1500,1500,1500,1500
1747550324.1638904,0.02,0.0,-0.34,0.0,-0.001090830782496456,0.0,-0.00697199935298773,0.09965348911951888,-0.00010321083604053686,0,0,0,0,0,0,1500,1500,1500,1500,1500,1500
1747550324.264762,0.01,0.0,-0.32,0.001090830782496456,0.002181661564992912,0.001090830782496456,-0.00697199935298773,0.09965348911951888,-0.00010321083604053686,0,0,0,0,0,0,1500,1500,1500,1500,1500,1500
1747550324.364686,0.0,0.01,-0.39,0.0,0.0,0.001090830782496456,-0.00697199935298773,0.09965348911951888,-0.00010321083604053686,0,0,0,0,0,0,1500,1500,1500,1500,1500,1500
1747550324.4496489,0.0,0.01,-0.39,0.0,0.0,0.001090830782496456,-0.00697199935298773,0.09965348911951888,-0.00010321083604053686,0,0,0,0,0,0,1500,1500,1500,1500,1500,1500
1747550324.5512822,0.0,-0.01,-0.31,0.004363323129985824,0.007635815477475192,-0.001090830782496456,-0.00697199935298773,0.09965348911951888,-0.00010321083604053686,0,0,0,0,0,0,1500,1500,1500,1500,1500,1500
1747550324.646408,0.0,-0.01,-0.31,0.004363323129985824,0.007635815477475192,-0.001090830782496456,-0.00697199935298773,0.09965348911951888,-0.00010321083604053686,0,0,0,0,0,0,1500,1500,1500,1500,1500,1500
1747550324.7315032,0.01,0.0,-0.35000000000000003,0.002181661564992912,-0.001090830782496456,0.0,-0.00697199935298773,0.09965348911951888,-0.00010321083604053686,0,0,0,0,0,0,1500,1500,1500,1500,1500,1500
1747550324.8317606,0.01,0.0,-0.35000000000000003,0.002181661564992912,-0.001090830782496456,0.0,-0.00697199935298773,0.09965348911951888,-0.00010321083604053686,0,0,0,0,0,0,1500,1500,1500,1500,1500,1500
1747550324.9290798,0.02,-0.01,-0.34,0.0,0.0,0.0,-0.00697199935298773,0.09965348911951888,-0.00010321083604053686,0,0,0,0,0,0,1500,1500,1500,1500,1500,1500
1747550325.033652,0.0,-0.01,-0.33,0.0,0.001090830782496456,-0.001090830782496456,-0.00697199935298773,0.09965348911951888,-0.00010321083604053686,0,0,0,0,0,0,1500,1500,1500,1500,1500,1500
1747550325.1430726,0.0,-0.01,-0.33,0.0,0.001090830782496456,-0.001090830782496456,-0.00697199935298773,0.09965348911951888,-0.00010321083604053686,0,0,0,0,0,0,1500,1500,1500,1500,1500,1500
1747550325.2329588,0.01,0.0,-0.34,0.003272492347489368,0.004363323129985824,0.001090830782496456,-0.00697199935298773,0.09965348911951888,-0.00010321083604053686,0,0,0,0,0,0,1500,1500,1500,1500,1500,1500
1747550325.3316212,0.0,0.0,-0.31,0.0,0.00545415391248228,0.001090830782496456,-0.00697199935298773,0.09965348911951888,-0.00010321083604053686,0,0,0,0,0,0,1500,1500,1500,1500,1500,1500
1747550325.4347532,0.0,0.0,-0.31,0.0,0.00545415391248228,0.001090830782496456,-0.00697199935298773,0.09965348911951888,-0.00010321083604053686,0,0,0,0,0,0,1500,1500,1500,1500,1500,1500
1747550325.5326688,0.0,0.01,-0.35000000000000003,-0.002181661564992912,-0.002181661564992912,0.0,-0.00697199935298773,0.09965348911951888,-0.00010321083604053686,0,0,0,0,0,0,1500,1500,1500,1500,1500,1500
1747550325.6318388,0.01,-0.02,-0.29,-0.004363323129985824,-0.001090830782496456,0.001090830782496456,-0.00697199935298773,0.09965348911951888,-0.00010321083604053686,0,0,0,0,0,0,1500,1500,1500,1500,1500,1500
1747550325.7305303,0.01,-0.02,-0.29,-0.004363323129985824,-0.001090830782496456,0.001090830782496456,-0.00697199935298773,0.09965348911951888,-0.00010321083604053686,0,0,0,0,0,0,1500,1500,1500,1500,1500,1500
1747550325.8340232,0.0,-0.01,-0.37,0.0,0.001090830782496456,0.0,-0.00697199935298773,0.09965348911951888,-0.00010321083604053686,0,0,0,0,0,0,1500,1500,1500,1500,1500,1500
1747550325.9319017,0.0,-0.01,-0.37,0.0,0.001090830782496456,0.0,-0.00697199935298773,0.09965348911951888,-0.00010321083604053686,0,0,0,0,0,0,1500,1500,1500,1500,1500,1500
1747550326.0365045,-0.01,0.0,-0.01,-0.003272492347489368,0.002181661564992912,0.001090830782496456,-0.00697199935298773,0.09965348911951888,-0.00010321083604053686,0,0,0,0,0,0,1500,1500,1500,1500,1500,1500
1747550326.1359348,0.01,-0.01,-0.37,-0.001090830782496456,0.0,0.0,-0.00697199935298773,0.09965348911951888,-0.00010321083604053686,0,0,0,0,0,0,1500,1500,1500,1500,1500,1500
1747550326.2330868,0.01,-0.01,-0.37,-0.001090830782496456,0.0,0.0,-0.00697199935298773,0.09965348911951888,-0.00010321083604053686,0,0,0,0,0,0,1500,1500,1500,1500,1500,1500
1747550326.3316555,0.01,0.0,-0.3,-0.00545415391248228,0.0,0.001090830782496456,-0.00697199935298773,0.09965348911951888,-0.00010321083604053686,0,0,0,0,0,0,1500,1500,1500,1500,1500,1500
1747550326.4330623,0.01,0.0,-0.3,-0.00545415391248228,0.0,0.001090830782496456,-0.00697199935298773,0.09965348911951888,-0.00010321083604053686,0,0,0,0,0,0,1500,1500,1500,1500,1500,1500
1747550326.5318797,0.02,-0.02,-0.37,-0.002181661564992912,-0.003272492347489368,-0.002181661564992912,-0.00697199935298773,0.09965348911951888,-0.00010321083604053686,0,0,0,0,0,0,1500,1500,1500,1500,1500,1500
1747550326.6327734,0.01,-0.01,-0.31,-0.002181661564992912,0.001090830782496456,-0.003272492347489368,-0.00697199935298773,0.09965348911951888,-0.00010321083604053686,0,0,0,0,0,0,1500,1500,1500,1500,1500,1500
1747550326.7406874,0.01,-0.01,-0.31,-0.002181661564992912,0.001090830782496456,-0.003272492347489368,-0.00697199935298773,0.09965348911951888,-0.00010321083604053686,0,0,0,0,0,0,1500,1500,1500,1500,1500,1500
1747550326.8311372,0.04,0.01,-0.35000000000000003,0.001090830782496456,0.001090830782496456,-0.001090830782496456,-0.00697199935298773,0.09965348911951888,-0.00010321083604053686,0,0,0,0,0,0,1500,1500,1500,1500,1500,1500
1747550326.918015,0.0,-0.02,-0.31,-0.001090830782496456,0.002181661564992912,0.002181661564992912,-0.00697199935298773,0.09965348911951888,-0.00010321083604053686,0,0,0,0,0,0,1500,1500,1500,1500,1500,1500
1747550327.013286,0.0,-0.02,-0.31,-0.001090830782496456,0.002181661564992912,0.002181661564992912,-0.00697199935298773,0.09965348911951888,-0.00010321083604053686,0,0,0,0,0,0,1500,1500,1500,1500,1500,1500
1747550327.1110604,0.02,0.0,-0.34,-0.004363323129985824,-0.003272492347489368,0.001090830782496456,-0.00697199935298773,0.09965348911951888,-0.00010321083604053686,0,0,0,0,0,0,1500,1500,1500,1500,1500,1500
1747550327.212745,0.02,0.0,-0.34,-0.004363323129985824,-0.003272492347489368,0.001090830782496456,-0.00697199935298773,0.09965348911951888,-0.00010321083604053686,0,0,0,0,0,0,1500,1500,1500,1500,1500,1500
1747550327.318131,0.0,0.01,-0.29,0.001090830782496456,-0.001090830782496456,0.001090830782496456,-0.00697199935298773,0.09965348911951888,-0.00010321083604053686,0,0,0,0,0,0,1500,1500,1500,1500,1500,1500
1747550327.4115818,0.03,0.0,-0.37,0.002181661564992912,-0.001090830782496456,-0.001090830782496456,-0.00697199935298773,0.09965348911951888,-0.00010321083604053686,0,0,0,0,0,0,1500,1500,1500,1500,1500,1500
1747550327.5008996,0.03,0.0,-0.37,0.002181661564992912,-0.001090830782496456,-0.001090830782496456,-0.00697199935298773,0.09965348911951888,-0.00010321083604053686,0,0,0,0,0,0,1500,1500,1500,1500,1500,1500
1747550327.60762,0.01,0.01,-0.3,-0.002181661564992912,0.001090830782496456,0.0,-0.00697199935298773,0.09965348911951888,-0.00010321083604053686,0,0,0,0,0,0,1500,1500,1500,1500,1500,1500
1747550327.6970532,0.01,0.01,-0.3,-0.002181661564992912,0.001090830782496456,0.0,-0.00697199935298773,0.09965348911951888,-0.00010321083604053686,0,0,0,0,0,0,1500,1500,1500,1500,1500,1500
1747550327.8040378,0.02,-0.01,-0.36,-0.001090830782496456,0.0,0.001090830782496456,-0.00697199935298773,0.09965348911951888,-0.00010321083604053686,0,0,0,0,0,0,1500,1500,1500,1500,1500,1500
