time,ay,ax,az,gy,gx,gz,roll,pitch,yaw,cmd_fx,cmd_fy,cmd_fz,cmd_tx,cmd_ty,cmd_tz,pwm_1,pwm_2,pwm_3,pwm_4,pwm_5,pwm_6
1747551619.0239627,0.0,0.0,0.0,0.0,0.0,0.0,0.0,0.0,0.0,0,0,0,0,0,0,1500,1500,1500,1500,1500,1500
1747551619.1327395,0.02,0.01,-0.38,0.0,0.002181661564992912,0.002181661564992912,-0.016280127083434924,0.08510781894510251,-0.0006931851860453237,0,0,0,0,0,0,1500,1500,1500,1500,1500,1500
1747551619.2330775,0.02,0.01,-0.38,0.0,0.002181661564992912,0.002181661564992912,-0.016280127083434924,0.08510781894510251,-0.0006931851860453237,0,0,0,0,0,0,1500,1500,1500,1500,1500,1500
1747551619.332997,-0.01,0.02,-0.3,0.0,-0.002181661564992912,0.0,-0.016402544928609163,0.08510781894510251,-0.0006983971030489459,0,0,0,0,0,0,1500,1500,1500,1500,1500,1500
1747551619.416473,0.02,0.0,-0.39,-0.004363323129985824,-0.004363323129985824,0.001090830782496456,-0.016402544928609163,0.08510781894510251,-0.0006983971030489459,0,0,0,0,0,0,1500,1500,1500,1500,1500,1500
1747551619.5160027,0.02,0.0,-0.39,-0.004363323129985824,-0.004363323129985824,0.001090830782496456,-0.016402544928609163,0.08510781894510251,-0.0006983971030489459,0,0,0,0,0,0,1500,1500,1500,1500,1500,1500
1747551619.6160471,0.02,0.0,-0.29,-0.001090830782496456,-0.002181661564992912,0.0,-0.016402544928609163,0.08510781894510251,-0.0006983971030489459,0,0,0,0,0,0,1500,1500,1500,1500,1500,1500
1747551619.6996932,0.02,0.0,-0.29,-0.001090830782496456,-0.002181661564992912,0.0,-0.016402544928609163,0.08510781894510251,-0.0006983971030489459,0,0,0,0,0,0,1500,1500,1500,1500,1500,1500
1747551619.7997732,0.0,0.01,-0.37,0.002181661564992912,0.0,-0.001090830782496456,-0.016402544928609163,0.08510781894510251,-0.0006983971030489459,0,0,0,0,0,0,1500,1500,1500,1500,1500,1500
1747551619.8877382,0.0,0.01,-0.29,0.001090830782496456,-0.001090830782496456,-0.001090830782496456,-0.016402544928609163,0.08510781894510251,-0.0006983971030489459,0,0,0,0,0,0,1500,1500,1500,1500,1500,1500
1747551619.9825926,0.0,0.01,-0.29,0.001090830782496456,-0.001090830782496456,-0.001090830782496456,-0.016402544928609163,0.08510781894510251,-0.0006983971030489459,0,0,0,0,0,0,1500,1500,1500,1500,1500,1500
1747551620.08286,0.01,0.0,-0.35000000000000003,0.0,-0.001090830782496456,0.001090830782496456,-0.016402544928609163,0.08510781894510251,-0.0006983971030489459,0,0,0,0,0,0,1500,1500,1500,1500,1500,1500
1747551620.1658635,0.01,0.0,-0.35000000000000003,0.0,-0.001090830782496456,0.001090830782496456,-0.016402544928609163,0.08510781894510251,-0.0006983971030489459,0,0,0,0,0,0,1500,1500,1500,1500,1500,1500
1747551620.266747,0.02,-0.01,-0.35000000000000003,0.002181661564992912,0.0,-0.002181661564992912,-0.016402544928609163,0.08510781894510251,-0.0006983971030489459,0,0,0,0,0,0,1500,1500,1500,1500,1500,1500
1747551620.3622975,0.01,0.0,-0.32,0.002181661564992912,0.00545415391248228,0.0,-0.016402544928609163,0.08510781894510251,-0.0006983971030489459,0,0,0,0,0,0,1500,1500,1500,1500,1500,1500
1747551620.4498153,0.01,0.0,-0.32,0.002181661564992912,0.00545415391248228,0.0,-0.016402544928609163,0.08510781894510251,-0.0006983971030489459,0,0,0,0,0,0,1500,1500,1500,1500,1500,1500
1747551620.549966,0.02,-0.01,-0.32,0.0,-0.002181661564992912,0.0,-0.016402544928609163,0.08510781894510251,-0.0006983971030489459,0,0,0,0,0,0,1500,1500,1500,1500,1500,1500
1747551620.6492574,0.02,-0.01,-0.32,0.0,-0.002181661564992912,0.0,-0.016402544928609163,0.08510781894510251,-0.0006983971030489459,0,0,0,0,0,0,1500,1500,1500,1500,1500,1500
1747551620.7497554,0.02,0.01,-0.34,-0.003272492347489368,-0.002181661564992912,-0.003272492347489368,-0.016402544928609163,0.08510781894510251,-0.0006983971030489459,0,0,0,0,0,0,1500,1500,1500,1500,1500,1500
1747551620.84993,0.01,0.02,-0.37,-0.002181661564992912,-0.002181661564992912,-0.002181661564992912,-0.016402544928609163,0.08510781894510251,-0.0006983971030489459,0,0,0,0,0,0,1500,1500,1500,1500,1500,1500
1747551620.9330847,0.01,0.02,-0.37,-0.002181661564992912,-0.002181661564992912,-0.002181661564992912,-0.016402544928609163,0.08510781894510251,-0.0006983971030489459,0,0,0,0,0,0,1500,1500,1500,1500,1500,1500
1747551621.0326838,0.01,0.0,-0.3,-0.001090830782496456,0.003272492347489368,-0.001090830782496456,-0.016402544928609163,0.08510781894510251,-0.0006983971030489459,0,0,0,0,0,0,1500,1500,1500,1500,1500,1500
1747551621.1327205,0.01,0.0,-0.3,-0.001090830782496456,0.003272492347489368,-0.001090830782496456,-0.016402544928609163,0.08510781894510251,-0.0006983971030489459,0,0,0,0,0,0,1500,1500,1500,1500,1500,1500
1747551621.233355,0.03,0.0,-0.37,-0.002181661564992912,0.0,0.0,-0.016402544928609163,0.08510781894510251,-0.0006983971030489459,0,0,0,0,0,0,1500,1500,1500,1500,1500,1500
1747551621.3332257,0.01,0.0,-0.3,-0.002181661564992912,-0.002181661564992912,0.003272492347489368,-0.016402544928609163,0.08510781894510251,-0.0006983971030489459,0,0,0,0,0,0,1500,1500,1500,1500,1500,1500
1747551621.4167452,0.01,0.0,-0.3,-0.002181661564992912,-0.002181661564992912,0.003272492347489368,-0.016402544928609163,0.08510781894510251,-0.0006983971030489459,0,0,0,0,0,0,1500,1500,1500,1500,1500,1500
1747551621.5163512,0.01,0.0,-0.35000000000000003,-0.001090830782496456,0.00545415391248228,0.0,-0.016402544928609163,0.08510781894510251,-0.0006983971030489459,0,0,0,0,0,0,1500,1500,1500,1500,1500,1500
1747551621.6166856,0.01,0.0,-0.35000000000000003,-0.001090830782496456,0.00545415391248228,0.0,-0.016402544928609163,0.08510781894510251,-0.0006983971030489459,0,0,0,0,0,0,1500,1500,1500,1500,1500,1500
1747551621.7163045,0.02,0.0,-0.35000000000000003,0.0,-0.003272492347489368,0.0,-0.016402544928609163,0.08510781894510251,-0.0006983971030489459,0,0,0,0,0,0,1500,1500,1500,1500,1500,1500
1747551621.8165154,0.01,0.02,-0.34,-0.002181661564992912,0.001090830782496456,0.001090830782496456,-0.016402544928609163,0.08510781894510251,-0.0006983971030489459,0,0,0,0,0,0,1500,1500,1500,1500,1500,1500
1747551621.8991208,0.01,0.02,-0.34,-0.002181661564992912,0.001090830782496456,0.001090830782496456,-0.016402544928609163,0.08510781894510251,-0.0006983971030489459,0,0,0,0,0,0,1500,1500,1500,1500,1500,1500
1747551621.999381,0.0,0.0,-0.32,0.002181661564992912,0.002181661564992912,-0.002181661564992912,-0.016402544928609163,0.08510781894510251,-0.0006983971030489459,0,0,0,0,0,0,1500,1500,1500,1500,1500,1500
1747551622.0907633,0.04,0.0,-0.36,-0.001090830782496456,-0.00545415391248228,-0.001090830782496456,-0.016402544928609163,0.08510781894510251,-0.0006983971030489459,0,0,0,0,0,0,1500,1500,1500,1500,1500,1500
1747551622.1826336,0.04,0.0,-0.36,-0.001090830782496456,-0.00545415391248228,-0.001090830782496456,-0.016402544928609163,0.08510781894510251,-0.0006983971030489459,0,0,0,0,0,0,1500,1500,1500,1500,1500,1500
1747551622.2820892,0.0,0.0,-0.38,-0.001090830782496456,-0.006544984694978736,-0.001090830782496456,-0.016402544928609163,0.08510781894510251,-0.0006983971030489459,0,0,0,0,0,0,1500,1500,1500,1500,1500,1500
1747551622.3832016,0.0,0.0,-0.38,-0.001090830782496456,-0.006544984694978736,-0.001090830782496456,-0.016402544928609163,0.08510781894510251,-0.0006983971030489459,0,0,0,0,0,0,1500,1500,1500,1500,1500,1500
1747551622.4833434,0.01,0.01,-0.33,0.001090830782496456,0.001090830782496456,0.0,-0.016402544928609163,0.08510781894510251,-0.0006983971030489459,0,-0.455564,0,0,0,0,1500,1500,1500,1500,1500,1500
1747551622.583477,0.02,0.0,-0.35000000000000003,0.0,0.004363323129985824,0.0,-0.016402544928609163,0.08510781894510251,-0.0006983971030489459,0,-11.688026,0,0,0,-0.005903,1460,1460,1460,1500,1500,1500
1747551622.6670525,0.02,0.0,-0.35000000000000003,0.0,0.004363323129985824,0.0,-0.016402544928609163,0.08510781894510251,-0.0006983971030489459,0,-12.5,0,0,0,-0.007013,1420,1420,1425,1500,1500,1500
1747551622.7660193,0.0,0.03,-0.3,-0.003272492347489368,0.0,-0.002181661564992912,-0.016402544928609163,0.08510781894510251,-0.0006983971030489459,0,-12.5,0,0,0,-0.007013,1413,1415,1425,1500,1500,1500
1747551622.8666644,0.0,0.03,-0.3,-0.003272492347489368,0.0,-0.002181661564992912,-0.016402544928609163,0.08510781894510251,-0.0006983971030489459,0,-12.5,0,0,0,-0.007013,1413,1415,1425,1500,1500,1500
1747551622.9661674,-0.03,-0.06,-0.39,0.002181661564992912,-0.002181661564992912,-0.002181661564992912,-0.016402544928609163,0.08510781894510251,-0.0006983971030489459,0,-12.5,0,0,0,-0.007013,1413,1415,1425,1500,1500,1500
1747551623.06678,-0.04,0.04,-0.3,0.004363323129985824,0.008726646259971648,0.0,-0.016402544928609163,0.08510781894510251,-0.0006983971030489459,0,-12.5,0,0,0,-0.007013,1413,1415,1425,1500,1500,1500
1747551623.1497953,-0.04,0.04,-0.3,0.004363323129985824,0.008726646259971648,0.0,-0.016402544928609163,0.08510781894510251,-0.0006983971030489459,0,-12.5,0,0,0,-0.007013,1413,1415,1425,1500,1500,1500
1747551623.24965,0.06,-0.02,-0.35000000000000003,-0.00545415391248228,0.004363323129985824,0.002181661564992912,-0.016402544928609163,0.08510781894510251,-0.0006983971030489459,0,-0.043231,0,0,0,0,1453,1455,1465,1500,1500,1500
1747551623.3493726,0.06,-0.02,-0.35000000000000003,-0.00545415391248228,0.004363323129985824,0.002181661564992912,-0.016402544928609163,0.08510781894510251,-0.0006983971030489459,0,0,0,0,0,0,1493,1495,1500,1500,1500,1500
1747551623.4328952,-0.03,-0.08,-0.3,0.008726646259971648,-0.002181661564992912,-0.002181661564992912,-0.016402544928609163,0.08510781894510251,-0.0006983971030489459,0,0,0,0,0,0,1500,1500,1500,1500,1500,1500
1747551623.533137,0.0,-0.19,-0.35000000000000003,-0.007635815477475192,0.002181661564992912,0.001090830782496456,-0.016524963018130185,0.08510781894510251,-0.0007036090200146255,0,0,0,0,0,0,1500,1500,1500,1500,1500,1500
1747551623.6328783,0.0,-0.19,-0.35000000000000003,-0.007635815477475192,0.002181661564992912,0.001090830782496456,-0.016524963018130185,0.08510781894510251,-0.0007036090200146255,0,0,0,0,0,0,1500,1500,1500,1500,1500,1500
1747551623.7325406,0.07,0.07,-0.33,0.004363323129985824,0.0,-0.003272492347489368,-0.016524963018130185,0.08510781894510251,-0.0007036090200146255,0,0,0,0,0,0,1500,1500,1500,1500,1500,1500
1747551623.8325336,0.0,-0.02,-0.31,0.001090830782496456,-0.002181661564992912,0.0,-0.016524963018130185,0.08510781894510251,-0.0007036090200146255,0,0,0,0,0,0,1500,1500,1500,1500,1500,1500
1747551623.9161437,0.0,-0.02,-0.31,0.001090830782496456,-0.002181661564992912,0.0,-0.016524963018130185,0.08510781894510251,-0.0007036090200146255,0,0,0,0,0,0,1500,1500,1500,1500,1500,1500
1747551624.016778,0.02,0.01,-0.38,0.001090830782496456,0.004363323129985824,0.0,-0.016524963018130185,0.08510781894510251,-0.0007036090200146255,0,0,0,0,0,0,1500,1500,1500,1500,1500,1500
1747551624.1157374,0.02,0.01,-0.38,0.001090830782496456,0.004363323129985824,0.0,-0.016524963018130185,0.08510781894510251,-0.0007036090200146255,0,0,0,0,0,0,1500,1500,1500,1500,1500,1500
1747551624.201255,0.0,-0.01,-0.29,0.001090830782496456,0.004363323129985824,0.0,-0.016524963018130185,0.08510781894510251,-0.0007036090200146255,0,0,0,0,0,0,1500,1500,1500,1500,1500,1500
1747551624.2993677,0.0,-0.01,-0.29,0.001090830782496456,0.004363323129985824,0.0,-0.016524963018130185,0.08510781894510251,-0.0007036090200146255,0,0,0,0,0,0,1500,1500,1500,1500,1500,1500
1747551624.3989313,0.0,-0.01,-0.33,-0.001090830782496456,-0.003272492347489368,0.0,-0.016524963018130185,0.08510781894510251,-0.0007036090200146255,0,0,0,0,0,0,1500,1500,1500,1500,1500,1500
1747551624.4998875,0.01,0.0,-0.29,0.0,0.0,0.002181661564992912,-0.016524963018130185,0.08510781894510251,-0.0007036090200146255,0,0,0,0,0,0,1500,1500,1500,1500,1500,1500
1747551624.599068,0.01,0.0,-0.29,0.0,0.0,0.002181661564992912,-0.016524963018130185,0.08510781894510251,-0.0007036090200146255,0,0,0,0,0,0,1500,1500,1500,1500,1500,1500
1747551624.683001,0.0,0.0,-0.34,-0.002181661564992912,0.003272492347489368,0.002181661564992912,-0.016524963018130185,0.08510781894510251,-0.0007036090200146255,0,-8.20349,0,0,0,-0.027766,1460,1460,1460,1500,1500,1500
1747551624.7796621,0.03,-0.01,-0.34,-0.001090830782496456,0.002181661564992912,-0.001090830782496456,-0.016524963018130185,0.08510781894510251,-0.0007036090200146255,0,-12.5,0,0,0,-0.037737,1439,1440,1446,1500,1500,1500
1747551624.8830726,0.03,-0.01,-0.34,-0.001090830782496456,0.002181661564992912,-0.001090830782496456,-0.016524963018130185,0.08510781894510251,-0.0007036090200146255,0,-12.5,0,0,0,-0.037737,1439,1440,1446,1500,1500,1500
1747551624.9828472,-0.15,0.33,-0.55,-0.001090830782496456,0.008726646259971648,-0.003272492347489368,-0.016524963018130185,0.08510781894510251,-0.0007036090200146255,0,-12.5,0,0,0,-0.037737,1439,1440,1446,1500,1500,1500
1747551625.083164,-0.15,0.33,-0.55,-0.001090830782496456,0.008726646259971648,-0.003272492347489368,-0.016524963018130185,0.08510781894510251,-0.0007036090200146255,0,-12.5,0,0,0,-0.037737,1439,1440,1446,1500,1500,1500
1747551625.187183,-0.01,0.01,-0.24,0.003272492347489368,-0.003272492347489368,0.0,-0.016647381353820472,0.08510781894510251,-0.0007088209369420793,0,-12.5,0,0,0,-0.037737,1439,1440,1446,1500,1500,1500
1747551625.2829738,0.04,-0.05,-0.31,0.002181661564992912,-0.002181661564992912,0.0,-0.016647381353820472,0.08510781894510251,-0.0007088209369420793,0,-12.5,0,0,0,-0.037737,1439,1440,1446,1500,1500,1500
1747551625.3824797,0.04,-0.05,-0.31,0.002181661564992912,-0.002181661564992912,0.0,-0.016647381353820472,0.08510781894510251,-0.0007088209369420793,0,-12.5,0,0,0,-0.037737,1439,1440,1446,1500,1500,1500
1747551625.4825487,0.0,0.0,-0.34,0.002181661564992912,-0.001090830782496456,0.0,-0.016647381353820472,0.08510781894510251,-0.0007088209369420793,0,-12.5,0,0,0,-0.037737,1439,1440,1446,1500,1500,1500
1747551625.5827851,0.0,-0.01,-0.35000000000000003,-0.001090830782496456,0.001090830782496456,0.0,-0.016647381353820472,0.08510781894510251,-0.0007088209369420793,0,-12.5,0,0,0,-0.037737,1439,1440,1446,1500,1500,1500
1747551625.666513,0.0,-0.01,-0.35000000000000003,-0.001090830782496456,0.001090830782496456,0.0,-0.016647381353820472,0.08510781894510251,-0.0007088209369420793,0,-12.5,0,0,0,-0.037737,1439,1440,1446,1500,1500,1500
1747551625.7657974,0.01,0.0,-0.37,0.004363323129985824,-0.003272492347489368,-0.002181661564992912,-0.016647381353820472,0.08510781894510251,-0.0007088209369420793,0,-12.5,0,0,0,-0.037737,1439,1440,1446,1500,1500,1500
1747551625.8662267,0.01,0.0,-0.37,0.004363323129985824,-0.003272492347489368,-0.002181661564992912,-0.016647381353820472,0.08510781894510251,-0.0007088209369420793,0,-12.5,0,0,0,-0.037737,1439,1440,1446,1500,1500,1500
1747551625.9503307,-0.02,0.0,-0.25,0.002181661564992912,-0.001090830782496456,0.0,-0.016647381353820472,0.08510781894510251,-0.0007088209369420793,0,-12.5,0,0,0,-0.037737,1439,1440,1446,1500,1500,1500
1747551626.0399513,0.02,0.0,-0.36,0.001090830782496456,0.006544984694978736,0.0,-0.016647381353820472,0.08510781894510251,-0.0007088209369420793,0,-12.5,0,0,0,-0.037737,1439,1440,1446,1500,1500,1500
1747551626.1491845,0.02,0.0,-0.36,0.001090830782496456,0.006544984694978736,0.0,-0.016647381353820472,0.08510781894510251,-0.0007088209369420793,0,-12.5,0,0,0,-0.003971,1439,1440,1446,1500,1500,1500
1747551626.2499876,0.0,0.01,-0.31,-0.003272492347489368,-0.001090830782496456,0.002181661564992912,-0.016647381353820472,0.08510781894510251,-0.0007088209369420793,0,-12.5,0,0,0,-0.003971,1439,1440,1446,1500,1500,1500
1747551626.3492734,0.0,0.01,-0.31,-0.003272492347489368,-0.001090830782496456,0.002181661564992912,-0.016647381353820472,0.08510781894510251,-0.0007088209369420793,0,-12.5,0,0,0,-0.003971,1439,1440,1446,1500,1500,1500
1747551626.4329545,0.0,-0.02,-0.37,-0.001090830782496456,-0.001090830782496456,-0.001090830782496456,-0.016647381353820472,0.08510781894510251,-0.0007088209369420793,0,-12.5,0,0,0,-0.003971,1439,1440,1446,1500,1500,1500
1747551626.524191,0.0,-0.02,-0.39,0.0,0.0,0.0,-0.016647381353820472,0.08510781894510251,-0.0007088209369420793,0,-12.5,0,0,0,-0.002421,1439,1440,1446,1500,1500,1500
1747551626.6325622,0.0,-0.02,-0.39,0.0,0.0,0.0,-0.016647381353820472,0.08510781894510251,-0.0007088209369420793,0,0,0,0,0,0,1479,1480,1486,1500,1500,1500
1747551626.732765,0.02,-0.02,-0.37,-0.002181661564992912,0.0,0.001090830782496456,-0.016647381353820472,0.08510781894510251,-0.0007088209369420793,0,0,0,0,0,0,1500,1500,1500,1500,1500,1500
1747551626.8326502,0.02,-0.02,-0.37,-0.002181661564992912,0.0,0.001090830782496456,-0.016647381353820472,0.08510781894510251,-0.0007088209369420793,0,0,0,0,0,0,1500,1500,1500,1500,1500,1500
1747551626.9158075,0.0,-0.26,-0.3,-0.001090830782496456,0.0,0.003272492347489368,-0.016769799937502494,0.08510781894510251,-0.0007140328538310242,0,0,0,0,0,0,1500,1500,1500,1500,1500,1500
1747551627.0159018,0.0,-0.01,-0.29,-0.001090830782496456,-0.001090830782496456,-0.002181661564992912,-0.016769799937502494,0.08510781894510251,-0.0007140328538310242,0,0,0,0,0,0,1500,1500,1500,1500,1500,1500
1747551627.1162078,0.0,-0.01,-0.29,-0.001090830782496456,-0.001090830782496456,-0.002181661564992912,-0.016769799937502494,0.08510781894510251,-0.0007140328538310242,0,0,0,0,0,0,1500,1500,1500,1500,1500,1500
1747551627.1990285,0.02,0.01,-0.33,0.0,-0.001090830782496456,0.0,-0.016769799937502494,0.08510781894510251,-0.0007140328538310242,0,0,0,0,0,0,1500,1500,1500,1500,1500,1500
1747551627.2999465,0.02,0.01,-0.33,0.0,-0.001090830782496456,0.0,-0.016769799937502494,0.08510781894510251,-0.0007140328538310242,0,-8.37155,0,0,0,0,1460,1460,1460,1500,1500,1500
1747551627.3997571,0.01,0.0,-0.35000000000000003,-0.002181661564992912,-0.002181661564992912,0.001090830782496456,-0.016769799937502494,0.08510781894510251,-0.0007140328538310242,0,-12.5,0,0,0,0,1439,1440,1446,1500,1500,1500
1747551627.4990394,0.01,0.01,-0.3,0.002181661564992912,0.0,0.001090830782496456,-0.016769799937502494,0.08510781894510251,-0.0007140328538310242,0,-12.5,0,0,0,0,1439,1440,1446,1500,1500,1500
1747551627.5993633,0.01,0.01,-0.3,0.002181661564992912,0.0,0.001090830782496456,-0.016769799937502494,0.08510781894510251,-0.0007140328538310242,0,-12.5,0,0,0,0,1439,1440,1446,1500,1500,1500
1747551627.6827474,-0.11,0.15,-0.36,0.0,0.0,0.00545415391248228,-0.016770150041294733,0.08535262467291989,-0.0007160966782583403,0,-12.5,0,0,0,0,1439,1440,1446,1500,1500,1500
1747551627.7830954,-0.11,0.15,-0.36,0.0,0.0,0.00545415391248228,-0.016770150041294733,0.08535262467291989,-0.0007160966782583403,0,-12.5,0,0,0,0,1439,1440,1446,1500,1500,1500
1747551627.8833663,-0.01,0.1,-0.34,-0.003272492347489368,-0.001090830782496456,0.002181661564992912,-0.016769301149528945,0.08546979494354916,-0.0007171286388742833,0,-12.5,0,0,0,0,1439,1440,1446,1500,1500,1500
1747551627.9822886,0.09,0.0,-0.29,0.004363323129985824,-0.002181661564992912,-0.001090830782496456,-0.016769301149528945,0.08546979494354916,-0.0007171286388742833,0,-12.5,0,0,0,0,1439,1440,1446,1500,1500,1500
1747551628.0827284,0.09,0.0,-0.29,0.004363323129985824,-0.002181661564992912,-0.001090830782496456,-0.016769301149528945,0.08546979494354916,-0.0007171286388742833,0,-12.5,0,0,0,0,1439,1440,1446,1500,1500,1500
1747551628.1668332,0.0,0.04,-0.35000000000000003,0.004363323129985824,-0.001090830782496456,-0.001090830782496456,-0.016769301149528945,0.08546979494354916,-0.0007171286388742833,0,-12.5,0,0,0,0,1439,1440,1446,1500,1500,1500
1747551628.266065,0.06,0.01,-0.36,0.003272492347489368,0.0,0.002181661564992912,-0.016769301149528945,0.08546979494354916,-0.0007171286388742833,0,-12.5,0,0,0,0,1439,1440,1446,1500,1500,1500
1747551628.3666532,0.06,0.01,-0.36,0.003272492347489368,0.0,0.002181661564992912,-0.016769301149528945,0.08546979494354916,-0.0007171286388742833,0,-1.174209,0,0,0,0,1479,1480,1486,1500,1500,1500
1747551628.4659107,0.02,0.03,-0.32,0.001090830782496456,0.001090830782496456,-0.001090830782496456,-0.016769301149528945,0.08546979494354916,-0.0007171286388742833,0,0,0,0,0,0,1500,1500,1500,1500,1500,1500
1747551628.5666513,0.02,0.03,-0.32,0.001090830782496456,0.001090830782496456,-0.001090830782496456,-0.016769301149528945,0.08546979494354916,-0.0007171286388742833,0,0,0,0,0,0,1500,1500,1500,1500,1500,1500
1747551628.6488445,0.01,-0.18,-0.27,0.0,-0.004363323129985824,-0.004363323129985824,-0.01664688620455515,0.08546979494354916,-0.0007118941250371088,0,0,0,0,0,0,1500,1500,1500,1500,1500,1500
1747551628.7496243,0.0,0.02,-0.3,0.001090830782496456,0.0,-0.001090830782496456,-0.01664688620455515,0.08546979494354916,-0.0007118941250371088,0,0,0,0,0,0,1500,1500,1500,1500,1500,1500
1747551628.848873,0.0,0.02,-0.3,0.001090830782496456,0.0,-0.001090830782496456,-0.01664688620455515,0.08546979494354916,-0.0007118941250371088,0,0,0,0,0,0,1500,1500,1500,1500,1500,1500
1747551628.932715,0.04,-0.05,-0.32,0.002181661564992912,0.0,0.0,-0.01664688620455515,0.08546979494354916,-0.0007118941250371088,0,0,0,0,0,0,1500,1500,1500,1500,1500,1500
1747551629.031958,0.04,-0.05,-0.32,0.002181661564992912,0.0,0.0,-0.01664688620455515,0.08546979494354916,-0.0007118941250371088,0,0,0,0,0,0,1500,1500,1500,1500,1500,1500
1747551629.1324382,0.01,0.0,-0.3,0.001090830782496456,0.001090830782496456,-0.002181661564992912,-0.01664688620455515,0.08546979494354916,-0.0007118941250371088,0,0,0,0,0,0,1500,1500,1500,1500,1500,1500
1747551629.2330885,0.01,0.0,-0.36,0.004363323129985824,0.004363323129985824,0.001090830782496456,-0.01664688620455515,0.08546979494354916,-0.0007118941250371088,0,0,0,0,0,0,1500,1500,1500,1500,1500,1500
1747551629.3323252,0.01,0.0,-0.36,0.004363323129985824,0.004363323129985824,0.001090830782496456,-0.01664688620455515,0.08546979494354916,-0.0007118941250371088,0,-12.5,0,0,0,0,1460,1460,1460,1500,1500,1500
1747551629.4157882,0.02,0.0,-0.3,-0.001090830782496456,0.0,-0.001090830782496456,-0.01664688620455515,0.08546979494354916,-0.0007118941250371088,0,-12.5,0,0,0,0,1447,1447,1453,1500,1500,1500
1747551629.515579,0.01,0.02,-0.33,0.002181661564992912,-0.004363323129985824,0.001090830782496456,-0.01664688620455515,0.08546979494354916,-0.0007118941250371088,0,-12.5,0,0,0,0,1447,1447,1453,1500,1500,1500
1747551629.6161947,0.01,0.02,-0.33,0.002181661564992912,-0.004363323129985824,0.001090830782496456,-0.01664688620455515,0.08546979494354916,-0.0007118941250371088,0,-12.5,0,0,0,0,1447,1447,1453,1500,1500,1500
1747551629.6991532,-0.02,-0.45,-0.47000000000000003,-0.00545415391248228,-0.001090830782496456,-0.00545415391248228,-0.0165244715076188,0.08546979494354916,-0.0007066596111609223,0,-12.5,0,0,0,0,1447,1447,1453,1500,1500,1500
1747551629.7991638,-0.02,-0.45,-0.47000000000000003,-0.00545415391248228,-0.001090830782496456,-0.00545415391248228,-0.0165244715076188,0.08546979494354916,-0.0007066596111609223,0,-12.5,0,0,0,0,1447,1447,1453,1500,1500,1500
1747551629.898988,0.0,0.05,-0.35000000000000003,0.009817477042468103,-0.004363323129985824,-0.002181661564992912,-0.0165244715076188,0.08546979494354916,-0.0007066596111609223,0,-12.5,0,0,0,0,1447,1447,1453,1500,1500,1500
1747551629.995437,0.05,-0.04,-0.34,-0.003272492347489368,-0.002181661564992912,0.002181661564992912,-0.0165244715076188,0.08546979494354916,-0.0007066596111609223,0,-12.5,0,0,0,0,1447,1447,1453,1500,1500,1500
1747551630.099071,0.05,-0.04,-0.34,-0.003272492347489368,-0.002181661564992912,0.002181661564992912,-0.0165244715076188,0.08546979494354916,-0.0007066596111609223,0,-12.5,0,0,0,0,1447,1447,1453,1500,1500,1500
1747551630.1825595,0.0,0.03,-0.34,0.002181661564992912,0.003272492347489368,0.003272492347489368,-0.0165244715076188,0.08546979494354916,-0.0007066596111609223,0,-12.5,0,0,0,0,1447,1447,1453,1500,1500,1500
1747551630.2824128,0.0,0.03,-0.34,0.002181661564992912,0.003272492347489368,0.003272492347489368,-0.0165244715076188,0.08546979494354916,-0.0007066596111609223,0,-12.5,0,0,0,0,1447,1447,1453,1500,1500,1500
1747551630.3829389,0.03,-0.02,-0.32,-0.002181661564992912,-0.002181661564992912,0.002181661564992912,-0.0165244715076188,0.08546979494354916,-0.0007066596111609223,0,-12.5,0,0,0,0,1447,1447,1453,1500,1500,1500
1747551630.4830787,0.04,0.02,-0.39,0.0,-0.002181661564992912,-0.003272492347489368,-0.0165244715076188,0.08546979494354916,-0.0007066596111609223,0,-12.5,0,0,0,0,1447,1447,1453,1500,1500,1500
1747551630.5832264,0.04,0.02,-0.39,0.0,-0.002181661564992912,-0.003272492347489368,-0.0165244715076188,0.08546979494354916,-0.0007066596111609223,0,-12.5,0,0,0,0,1447,1447,1453,1500,1500,1500
1747551630.6656635,-0.01,0.0,-0.36,0.002181661564992912,0.001090830782496456,-0.001090830782496456,-0.0165244715076188,0.08546979494354916,-0.0007066596111609223,0,-12.5,0,0,0,0,1447,1447,1453,1500,1500,1500
1747551630.7656066,-0.01,0.0,-0.36,0.002181661564992912,0.001090830782496456,-0.001090830782496456,-0.0165244715076188,0.08546979494354916,-0.0007066596111609223,0,-12.5,0,0,0,0,1447,1447,1453,1500,1500,1500
1747551630.8662703,0.02,0.0,-0.31,-0.002181661564992912,-0.004363323129985824,-0.002181661564992912,-0.0165244715076188,0.08546979494354916,-0.0007066596111609223,0,-12.5,0,0,0,0,1447,1447,1453,1500,1500,1500
1747551630.9498403,0.0,0.01,-0.36,-0.004363323129985824,-0.006544984694978736,0.0,-0.0165244715076188,0.08546979494354916,-0.0007066596111609223,0,-12.5,0,0,0,0,1447,1447,1453,1500,1500,1500
1747551631.048851,0.0,0.01,-0.36,-0.004363323129985824,-0.006544984694978736,0.0,-0.0165244715076188,0.08546979494354916,-0.0007066596111609223,0,-12.5,0,0,0,0,1447,1447,1453,1500,1500,1500
1747551631.1489177,0.02,0.0,-0.25,0.00545415391248228,-0.001090830782496456,0.002181661564992912,-0.0165244715076188,0.08546979494354916,-0.0007066596111609223,0,-12.5,0,0,0,0,1447,1447,1453,1500,1500,1500
1747551631.2495236,0.05,0.02,-0.44,-0.003272492347489368,0.001090830782496456,0.0,-0.0165244715076188,0.08546979494354916,-0.0007066596111609223,0,-12.5,0,0,0,0,1447,1447,1453,1500,1500,1500
1747551631.3495805,0.05,0.02,-0.44,-0.003272492347489368,0.001090830782496456,0.0,-0.0165244715076188,0.08546979494354916,-0.0007066596111609223,0,-12.5,0,0,0,0,1449,1449,1454,1500,1500,1500
1747551631.4327986,-0.01,0.05,-0.41000000000000003,-0.002181661564992912,-0.003272492347489368,0.0,-0.0165244715076188,0.08546979494354916,-0.0007066596111609223,0,-12.5,0,0,0,0,1449,1449,1454,1500,1500,1500
1747551631.5321858,-0.01,0.05,-0.41000000000000003,-0.002181661564992912,-0.003272492347489368,0.0,-0.0165244715076188,0.08546979494354916,-0.0007066596111609223,0,-12.5,0,0,0,0,1449,1449,1454,1500,1500,1500
1747551631.632426,0.0,0.01,-0.31,-0.002181661564992912,-0.00545415391248228,0.0,-0.0165244715076188,0.08546979494354916,-0.0007066596111609223,0,-12.5,0,0,0,0,1450,1451,1456,1500,1500,1500
1747551631.7321982,0.05,0.0,-0.37,0.002181661564992912,0.0,-0.001090830782496456,-0.0165244715076188,0.08546979494354916,-0.0007066596111609223,0,-12.5,0,0,0,0,1452,1453,1457,1500,1500,1500
1747551631.8320296,0.05,0.0,-0.37,0.002181661564992912,0.0,-0.001090830782496456,-0.0165244715076188,0.08546979494354916,-0.0007066596111609223,0,-12.5,0,0,0,0,1454,1454,1459,1500,1500,1500
1747551631.9155934,0.02,0.03,-0.28,-0.002181661564992912,0.001090830782496456,0.001090830782496456,-0.0165244715076188,0.08546979494354916,-0.0007066596111609223,0,-12.5,0,0,0,0,1455,1456,1460,1500,1500,1500
1747551632.0169675,0.02,0.03,-0.28,-0.002181661564992912,0.001090830782496456,0.001090830782496456,-0.0165244715076188,0.08546979494354916,-0.0007066596111609223,0,-12.5,0,0,0,0,1457,1457,1460,1500,1500,1500
1747551632.116014,0.02,0.07,-0.33,0.002181661564992912,-0.003272492347489368,-0.002181661564992912,-0.0165244715076188,0.08546979494354916,-0.0007066596111609223,0,-12.5,0,0,0,0,1457,1457,1460,1500,1500,1500
1747551632.1997926,0.02,0.07,-0.33,0.002181661564992912,-0.003272492347489368,-0.002181661564992912,-0.0165244715076188,0.08546979494354916,-0.0007066596111609223,0,-12.5,0,0,0,0,1457,1457,1460,1500,1500,1500
1747551632.3004887,-0.01,-0.02,-0.31,0.002181661564992912,-0.004363323129985824,-0.001090830782496456,-0.0165244715076188,0.08546979494354916,-0.0007066596111609223,0,-12.5,0,0,0,0,1457,1457,1460,1500,1500,1500
1747551632.394944,0.07,0.38,-0.47000000000000003,0.008726646259971648,-0.002181661564992912,-0.008726646259971648,-0.0165244715076188,0.08546979494354916,-0.0007066596111609223,0,-12.5,0,0,0,0,1457,1457,1460,1500,1500,1500
1747551632.4848654,0.07,0.38,-0.47000000000000003,0.008726646259971648,-0.002181661564992912,-0.008726646259971648,-0.0165244715076188,0.08546979494354916,-0.0007066596111609223,0,-12.5,0,0,0,0,1457,1457,1460,1500,1500,1500
1747551632.5829706,0.0,0.08,-0.3,-0.001090830782496456,-0.001090830782496456,-0.002181661564992912,-0.016279642850567225,0.08546979494354916,-0.0006961905832926609,0,-12.5,0,0,0,0,1457,1457,1460,1500,1500,1500
1747551632.6658292,0.0,0.08,-0.3,-0.001090830782496456,-0.001090830782496456,-0.002181661564992912,-0.016279642850567225,0.08546979494354916,-0.0006961905832926609,0,-12.5,0,0,0,0,1457,1457,1460,1500,1500,1500
1747551632.765316,0.05,0.05,-0.34,0.002181661564992912,-0.001090830782496456,-0.003272492347489368,-0.0164020570568971,0.08546979494354916,-0.0007014250972460107,0,-12.5,0,0,0,0,1457,1457,1460,1500,1500,1500
1747551632.8655357,0.02,0.02,-0.31,-0.001090830782496456,0.002181661564992912,0.0,-0.0164020570568971,0.08546979494354916,-0.0007014250972460107,0,-12.5,0,0,0,0,1457,1457,1460,1500,1500,1500
1747551632.9488232,0.02,0.02,-0.31,-0.001090830782496456,0.002181661564992912,0.0,-0.0164020570568971,0.08546979494354916,-0.0007014250972460107,0,-12.5,0,0,0,0,1457,1457,1460,1500,1500,1500
1747551633.0489767,0.03,-0.01,-0.3,-0.002181661564992912,-0.003272492347489368,0.0,-0.0164020570568971,0.08546979494354916,-0.0007014250972460107,0,-12.5,0,0,0,0,1457,1457,1460,1500,1500,1500
1747551633.148917,0.03,-0.01,-0.3,-0.002181661564992912,-0.003272492347489368,0.0,-0.0164020570568971,0.08546979494354916,-0.0007014250972460107,0,-12.5,0,0,0,0,1457,1457,1460,1500,1500,1500
1747551633.2495787,0.0,-0.01,-0.29,0.001090830782496456,-0.001090830782496456,0.002181661564992912,-0.0164020570568971,0.08546979494354916,-0.0007014250972460107,0,-12.5,0,0,0,0,1457,1457,1460,1500,1500,1500
1747551633.3490205,-0.01,-0.02,-0.32,0.002181661564992912,-0.002181661564992912,0.001090830782496456,-0.0164020570568971,0.08546979494354916,-0.0007014250972460107,0,-12.5,0,0,0,0,1457,1457,1460,1500,1500,1500
1747551633.4331484,-0.01,-0.02,-0.32,0.002181661564992912,-0.002181661564992912,0.001090830782496456,-0.0164020570568971,0.08546979494354916,-0.0007014250972460107,0,-12.5,0,0,0,0,1457,1457,1460,1500,1500,1500
1747551633.5328937,0.06,0.14,-0.47000000000000003,-0.002181661564992912,0.0,0.002181661564992912,-0.016402228887281014,0.08559219348033469,-0.0007024344918300382,0,-12.5,0,0,0,0,1457,1457,1460,1500,1500,1500
1747551633.623942,0.0,0.11,-0.3,-0.003272492347489368,0.003272492347489368,0.002181661564992912,-0.016402228887281014,0.08559219348033469,-0.0007024344918300382,0,-12.5,0,0,0,0,1457,1457,1460,1500,1500,1500
1747551633.7161698,0.0,0.11,-0.3,-0.003272492347489368,0.003272492347489368,0.002181661564992912,-0.016402228887281014,0.08559219348033469,-0.0007024344918300382,0,-12.5,0,0,0,0,1457,1457,1460,1500,1500,1500
1747551633.815687,0.0,0.0,-0.36,0.001090830782496456,0.004363323129985824,0.002181661564992912,-0.016402228887281014,0.08559219348033469,-0.0007024344918300382,0,-12.5,0,0,0,0,1457,1457,1460,1500,1500,1500
1747551633.9154298,0.0,0.0,-0.36,0.001090830782496456,0.004363323129985824,0.002181661564992912,-0.016402228887281014,0.08559219348033469,-0.0007024344918300382,0,-12.5,0,0,0,0,1457,1457,1460,1500,1500,1500
1747551634.0163531,0.0,-0.02,-0.32,-0.001090830782496456,-0.001090830782496456,-0.001090830782496456,-0.016402228887281014,0.08559219348033469,-0.0007024344918300382,0,-12.5,0,0,0,0,1458,1459,1460,1500,1500,1500
1747551634.115976,0.0,-0.05,-0.4,-0.002181661564992912,0.002181661564992912,0.003272492347489368,-0.016402228887281014,0.08559219348033469,-0.0007024344918300382,0,-12.5,0,0,0,0,1458,1459,1460,1500,1500,1500
1747551634.1989622,0.0,-0.05,-0.4,-0.002181661564992912,0.002181661564992912,0.003272492347489368,-0.016402228887281014,0.08559219348033469,-0.0007024344918300382,0,-12.5,0,0,0,0,1458,1459,1460,1500,1500,1500
1747551634.306103,0.03,-0.01,-0.33,0.0,0.002181661564992912,0.001090830782496456,-0.016402228887281014,0.08559219348033469,-0.0007024344918300382,0,-12.5,0,0,0,0,1458,1459,1460,1500,1500,1500
1747551634.4001122,0.03,-0.01,-0.33,0.0,0.002181661564992912,0.001090830782496456,-0.016402228887281014,0.08559219348033469,-0.0007024344918300382,0,-12.5,0,0,0,0,1458,1459,1460,1500,1500,1500
1747551634.500015,-0.01,0.1,-0.35000000000000003,-0.003272492347489368,-0.002181661564992912,0.003272492347489368,-0.016402228887281014,0.08559219348033469,-0.0007024344918300382,0,-12.5,0,0,0,0,1458,1459,1460,1500,1500,1500
1747551634.5987678,0.01,0.03,-0.32,-0.001090830782496456,-0.001090830782496456,0.0,-0.016402228887281014,0.08559219348033469,-0.0007024344918300382,0,-12.5,0,0,0,0,1458,1459,1460,1500,1500,1500
1747551634.6828537,0.01,0.03,-0.32,-0.001090830782496456,-0.001090830782496456,0.0,-0.016402228887281014,0.08559219348033469,-0.0007024344918300382,0,-12.5,0,0,0,0,1458,1459,1460,1500,1500,1500
1747551634.782806,0.02,-0.04,-0.36,0.003272492347489368,-0.00545415391248228,0.002181661564992912,-0.016402228887281014,0.08559219348033469,-0.0007024344918300382,0,-12.5,0,0,0,0,1458,1459,1460,1500,1500,1500
1747551634.8821824,0.02,-0.04,-0.36,0.003272492347489368,-0.00545415391248228,0.002181661564992912,-0.016402228887281014,0.08559219348033469,-0.0007024344918300382,0,-12.5,0,0,0,0,1458,1459,1460,1500,1500,1500
1747551634.9821036,0.06,0.05,-0.36,0.003272492347489368,-0.001090830782496456,-0.001090830782496456,-0.016402228887281014,0.08559219348033469,-0.0007024344918300382,0,-12.5,0,0,0,0,1458,1459,1460,1500,1500,1500
1747551635.0829852,0.03,0.04,-0.36,-0.001090830782496456,-0.001090830782496456,0.002181661564992912,-0.016402228887281014,0.08559219348033469,-0.0007024344918300382,0,-12.5,0,0,0,0,1458,1459,1460,1500,1500,1500
1747551635.1656804,0.03,0.04,-0.36,-0.001090830782496456,-0.001090830782496456,0.002181661564992912,-0.016402228887281014,0.08559219348033469,-0.0007024344918300382,0,-12.5,0,0,0,0,1458,1459,1460,1500,1500,1500
1747551635.2657573,0.05,0.06,-0.35000000000000003,-0.003272492347489368,-0.00545415391248228,0.001090830782496456,-0.016402228887281014,0.08559219348033469,-0.0007024344918300382,0,-12.5,0,0,0,0,1458,1459,1460,1500,1500,1500
1747551635.355211,0.03,-0.01,-0.31,-0.002181661564992912,-0.001090830782496456,0.001090830782496456,-0.016402228887281014,0.08559219348033469,-0.0007024344918300382,0,-12.5,0,0,0,0,1458,1459,1460,1500,1500,1500
1747551635.449015,0.03,-0.01,-0.31,-0.002181661564992912,-0.001090830782496456,0.001090830782496456,-0.016402228887281014,0.08559219348033469,-0.0007024344918300382,0,-12.5,0,0,0,0,1458,1459,1460,1500,1500,1500
1747551635.5497298,-0.01,0.03,-0.36,0.002181661564992912,0.003272492347489368,0.004363323129985824,-0.016402228887281014,0.08559219348033469,-0.0007024344918300382,0,-12.5,0,0,0,0,1458,1459,1460,1500,1500,1500
1747551635.6487615,-0.01,0.03,-0.36,0.002181661564992912,0.003272492347489368,0.004363323129985824,-0.016402228887281014,0.08559219348033469,-0.0007024344918300382,0,-12.5,0,0,0,0,1458,1459,1460,1500,1500,1500
1747551635.7486417,0.06,0.06,-0.32,-0.002181661564992912,0.001090830782496456,0.001090830782496456,-0.016402228887281014,0.08559219348033469,-0.0007024344918300382,0,-12.5,0,0,0,0,1458,1459,1460,1500,1500,1500
1747551635.8487284,0.06,0.0,-0.43,-0.001090830782496456,0.002181661564992912,0.001090830782496456,-0.016402228887281014,0.08559219348033469,-0.0007024344918300382,0,-12.5,0,0,0,0,1458,1459,1460,1500,1500,1500
1747551635.9321628,0.06,0.0,-0.43,-0.001090830782496456,0.002181661564992912,0.001090830782496456,-0.016402228887281014,0.08559219348033469,-0.0007024344918300382,0,-12.5,0,0,0,0,1458,1459,1460,1500,1500,1500
1747551636.0332417,0.0,0.0,-0.35000000000000003,-0.001090830782496456,0.001090830782496456,0.0,-0.016402228887281014,0.08559219348033469,-0.0007024344918300382,0,-12.5,0,0,0,0,1458,1459,1460,1500,1500,1500
1747551636.1326413,0.0,0.0,-0.35000000000000003,-0.001090830782496456,0.001090830782496456,0.0,-0.016402228887281014,0.08559219348033469,-0.0007024344918300382,0,-12.5,0,0,0,0,1458,1459,1460,1500,1500,1500
1747551636.232794,0.02,-0.01,-0.39,-0.003272492347489368,0.00545415391248228,0.001090830782496456,-0.016402228887281014,0.08559219348033469,-0.0007024344918300382,0,-12.5,0,0,0,0,1458,1459,1460,1500,1500,1500
1747551636.3324704,0.04,0.01,-0.33,-0.002181661564992912,0.001090830782496456,-0.001090830782496456,-0.016402228887281014,0.08559219348033469,-0.0007024344918300382,0,-12.5,0,0,0,0,1458,1459,1460,1500,1500,1500
1747551636.4164371,0.04,0.01,-0.33,-0.002181661564992912,0.001090830782496456,-0.001090830782496456,-0.016402228887281014,0.08559219348033469,-0.0007024344918300382,0,-12.5,0,0,0,0,1458,1459,1460,1500,1500,1500
1747551636.515599,0.06,0.04,-0.35000000000000003,-0.002181661564992912,0.0,-0.002181661564992912,-0.016402228887281014,0.08559219348033469,-0.0007024344918300382,0,-12.5,0,0,0,0,1458,1459,1460,1500,1500,1500
1747551636.6158311,0.06,0.04,-0.35000000000000003,-0.002181661564992912,0.0,-0.002181661564992912,-0.016402228887281014,0.08559219348033469,-0.0007024344918300382,0,-12.5,0,0,0,0,1458,1459,1460,1500,1500,1500
1747551636.699093,0.06,0.0,-0.33,0.0,-0.001090830782496456,0.001090830782496456,-0.016402228887281014,0.08559219348033469,-0.0007024344918300382,0,-12.5,0,0,0,0,1458,1459,1460,1500,1500,1500
1747551636.7987978,0.01,-0.03,-0.33,-0.001090830782496456,0.001090830782496456,0.001090830782496456,-0.016402228887281014,0.08559219348033469,-0.0007024344918300382,0,-12.5,0,0,0,0,1458,1459,1460,1500,1500,1500
1747551636.898692,0.01,-0.03,-0.33,-0.001090830782496456,0.001090830782496456,0.001090830782496456,-0.016402228887281014,0.08559219348033469,-0.0007024344918300382,0,-12.5,0,0,0,0,1458,1459,1460,1500,1500,1500
1747551636.9990673,0.06,0.04,-0.34,-0.001090830782496456,-0.002181661564992912,0.0,-0.016402228887281014,0.08559219348033469,-0.0007024344918300382,0,-12.5,0,0,0,0,1458,1459,1460,1500,1500,1500
1747551637.0972342,0.01,0.0,-0.31,0.002181661564992912,-0.002181661564992912,0.001090830782496456,-0.016402228887281014,0.08559219348033469,-0.0007024344918300382,0,-12.5,0,0,0,0,1458,1459,1460,1500,1500,1500
1747551637.182816,0.01,0.0,-0.31,0.002181661564992912,-0.002181661564992912,0.001090830782496456,-0.016402228887281014,0.08559219348033469,-0.0007024344918300382,0,-12.5,0,0,0,0,1458,1459,1460,1500,1500,1500
1747551637.283208,0.03,0.0,-0.35000000000000003,0.0,-0.002181661564992912,-0.002181661564992912,-0.016402228887281014,0.08559219348033469,-0.0007024344918300382,0,-12.5,0,0,0,0,1458,1459,1460,1500,1500,1500
1747551637.3820987,0.03,0.0,-0.35000000000000003,0.0,-0.002181661564992912,-0.002181661564992912,-0.016402228887281014,0.08559219348033469,-0.0007024344918300382,0,-12.5,0,0,0,0,1458,1459,1460,1500,1500,1500
1747551637.482789,0.0,-0.02,-0.31,0.001090830782496456,0.0,-0.001090830782496456,-0.016402228887281014,0.08559219348033469,-0.0007024344918300382,0,-12.5,0,0,0,0,1458,1459,1460,1500,1500,1500
1747551637.5820065,0.01,-0.04,-0.3,-0.002181661564992912,0.0,0.0,-0.016402228887281014,0.08559219348033469,-0.0007024344918300382,0,-12.5,0,0,0,0,1458,1459,1460,1500,1500,1500
1747551637.66642,0.01,-0.04,-0.3,-0.002181661564992912,0.0,0.0,-0.016402228887281014,0.08559219348033469,-0.0007024344918300382,0,-12.5,0,0,0,0,1458,1459,1460,1500,1500,1500
1747551637.7660003,0.06,0.02,-0.36,-0.002181661564992912,-0.002181661564992912,0.001090830782496456,-0.016402228887281014,0.08559219348033469,-0.0007024344918300382,0,-12.5,0,0,0,0,1458,1459,1460,1500,1500,1500
1747551637.8657632,0.06,0.02,-0.36,-0.002181661564992912,-0.002181661564992912,0.001090830782496456,-0.016402228887281014,0.08559219348033469,-0.0007024344918300382,0,-12.5,0,0,0,0,1458,1459,1460,1500,1500,1500
1747551637.948908,0.02,-0.03,-0.42,-0.001090830782496456,-0.002181661564992912,-0.002181661564992912,0.01643429003798825,-0.08575994019097936,-0.0007024344918300382,0,-12.5,0,0,0,0,1458,1459,1460,1500,1500,1500
1747551638.0490549,0.07,0.05,-0.36,0.001090830782496456,-0.004363323129985824,0.0,-0.016402228887281014,0.08559219348033469,-0.0007024344918300382,0,-12.5,0,0,0,0,1458,1459,1460,1500,1500,1500
1747551638.1488068,0.07,0.05,-0.36,0.001090830782496456,-0.004363323129985824,0.0,-0.016402228887281014,0.08559219348033469,-0.0007024344918300382,0,-12.5,0,0,0,0,1458,1459,1460,1500,1500,1500
1747551638.2501564,0.02,0.02,-0.3,-0.001090830782496456,-0.002181661564992912,-0.001090830782496456,-0.016402228887281014,0.08559219348033469,-0.0007024344918300382,0,-12.5,0,0,0,0,1458,1459,1460,1500,1500,1500
1747551638.348776,0.02,0.02,-0.3,-0.001090830782496456,-0.002181661564992912,-0.001090830782496456,-0.016402228887281014,0.08559219348033469,-0.0007024344918300382,0,-12.5,0,0,0,0,1458,1459,1460,1500,1500,1500
1747551638.4323611,0.03,0.07,-0.42,0.0,0.002181661564992912,-0.002181661564992912,-0.016402228887281014,0.08559219348033469,-0.0007024344918300382,0,-12.5,0,0,0,0,1458,1459,1460,1500,1500,1500
1747551638.5320134,0.02,0.04,-0.36,0.0,-0.003272492347489368,-0.001090830782496456,-0.016402228887281014,0.08559219348033469,-0.0007024344918300382,0,-12.5,0,0,0,0,1458,1459,1460,1500,1500,1500
1747551638.6321967,0.02,0.04,-0.36,0.0,-0.003272492347489368,-0.001090830782496456,-0.016402228887281014,0.08559219348033469,-0.0007024344918300382,0,-12.5,0,0,0,0,1458,1459,1460,1500,1500,1500
1747551638.7326157,0.0,0.05,-0.34,0.001090830782496456,0.001090830782496456,-0.002181661564992912,-0.016402228887281014,0.08559219348033469,-0.0007024344918300382,0,-12.5,0,0,0,0,1458,1459,1460,1500,1500,1500
1747551638.832346,0.0,0.05,-0.34,0.001090830782496456,0.001090830782496456,-0.002181661564992912,-0.016402228887281014,0.08559219348033469,-0.0007024344918300382,0,-12.5,0,0,0,0,1458,1459,1460,1500,1500,1500
1747551638.9162152,0.01,-0.02,-0.35000000000000003,0.002181661564992912,-0.002181661564992912,-0.001090830782496456,-0.016402228887281014,0.08559219348033469,-0.0007024344918300382,0,-12.5,0,0,0,0,1458,1459,1460,1500,1500,1500
1747551639.0161786,0.05,0.02,-0.35000000000000003,0.001090830782496456,0.0,0.001090830782496456,-0.016402228887281014,0.08559219348033469,-0.0007024344918300382,0,-12.5,0,0,0,0,1458,1459,1460,1500,1500,1500
1747551639.1160145,0.05,0.02,-0.35000000000000003,0.001090830782496456,0.0,0.001090830782496456,-0.016402228887281014,0.08559219348033469,-0.0007024344918300382,0,-12.5,0,0,0,0,1458,1459,1460,1500,1500,1500
1747551639.199871,0.0,-0.06,-0.32,-0.002181661564992912,0.002181661564992912,0.001090830782496456,-0.016402228887281014,0.08559219348033469,-0.0007024344918300382,0,-12.5,0,0,0,0,1458,1459,1460,1500,1500,1500
1747551639.2986238,0.0,-0.06,-0.32,-0.002181661564992912,0.002181661564992912,0.001090830782496456,-0.016402228887281014,0.08559219348033469,-0.0007024344918300382,0,-12.5,0,0,0,0,1458,1459,1460,1500,1500,1500
1747551639.3986828,0.02,-0.01,-0.32,0.002181661564992912,-0.00545415391248228,0.0,-0.016402228887281014,0.08559219348033469,-0.0007024344918300382,0,-12.5,0,0,0,0,1458,1459,1460,1500,1500,1500
1747551639.4988499,-0.04,-0.29,-0.28,-0.007635815477475192,-0.002181661564992912,0.007635815477475192,-0.016402228887281014,0.08559219348033469,-0.0007024344918300382,0,-12.5,0,0,0,0,1458,1459,1460,1500,1500,1500
1747551639.5989494,-0.04,-0.29,-0.28,-0.007635815477475192,-0.002181661564992912,0.007635815477475192,-0.016402228887281014,0.08559219348033469,-0.0007024344918300382,0,-12.5,0,0,0,0,1458,1459,1460,1500,1500,1500
1747551639.6821973,0.05,-0.05,-0.35000000000000003,-0.003272492347489368,-0.002181661564992912,-0.003272492347489368,-0.016402228887281014,0.08559219348033469,-0.0007024344918300382,0,-12.5,0,0,0,0,1458,1459,1460,1500,1500,1500
1747551639.7812264,0.01,-0.03,-0.36,-0.001090830782496456,-0.004363323129985824,-0.001090830782496456,-0.016402228887281014,0.08559219348033469,-0.0007024344918300382,0,-12.5,0,0,0,0,1458,1459,1460,1500,1500,1500
1747551639.8829594,0.01,-0.03,-0.36,-0.001090830782496456,-0.004363323129985824,-0.001090830782496456,-0.016402228887281014,0.08559219348033469,-0.0007024344918300382,0,-12.5,0,0,0,0,1458,1459,1460,1500,1500,1500
1747551639.9820201,0.01,0.0,-0.32,0.0,-0.001090830782496456,-0.004363323129985824,-0.016402228887281014,0.08559219348033469,-0.0007024344918300382,0,-12.5,0,0,0,0,1458,1459,1460,1500,1500,1500
1747551640.083062,0.01,0.0,-0.32,0.0,-0.001090830782496456,-0.004363323129985824,-0.016402228887281014,0.08559219348033469,-0.0007024344918300382,0,-12.5,0,0,0,0,1458,1459,1460,1500,1500,1500
1747551640.166484,0.03,0.0,-0.38,-0.002181661564992912,0.002181661564992912,0.002181661564992912,-0.016402228887281014,0.08559219348033469,-0.0007024344918300382,0,-12.5,0,0,0,0,1458,1459,1460,1500,1500,1500
1747551640.2646616,0.04,0.06,-0.33,-0.001090830782496456,-0.001090830782496456,-0.001090830782496456,-0.016402228887281014,0.08559219348033469,-0.0007024344918300382,0,-12.5,0,0,0,0,1458,1459,1460,1500,1500,1500
1747551640.3662581,0.04,0.06,-0.33,-0.001090830782496456,-0.001090830782496456,-0.001090830782496456,-0.016402228887281014,0.08559219348033469,-0.0007024344918300382,0,-12.5,0,0,0,0,1458,1459,1460,1500,1500,1500
1747551640.4508796,0.02,0.09,-0.36,-0.004363323129985824,0.0,0.003272492347489368,-0.016402228887281014,0.08559219348033469,-0.0007024344918300382,0,-9.415697,0,0,0,0,1460,1460,1461,1500,1500,1500
1747551640.5510056,0.02,0.09,-0.36,-0.004363323129985824,0.0,0.003272492347489368,-0.016402228887281014,0.08559219348033469,-0.0007024344918300382,0,0,0,0,0,0,1500,1500,1500,1500,1500,1500
1747551640.648842,0.01,-0.01,-0.27,0.0,-0.004363323129985824,0.002181661564992912,-0.016402228887281014,0.08559219348033469,-0.0007024344918300382,0,0,0,0,0,0,1500,1500,1500,1500,1500,1500
1747551640.7499795,0.07,0.08,-0.36,0.001090830782496456,-0.001090830782496456,0.001090830782496456,-0.016402228887281014,0.08559219348033469,-0.0007024344918300382,0,0,0,0,0,0,1500,1500,1500,1500,1500,1500
1747551640.8494108,0.07,0.08,-0.36,0.001090830782496456,-0.001090830782496456,0.001090830782496456,-0.016402228887281014,0.08559219348033469,-0.0007024344918300382,1,0,0,0,0,0,1500,1500,1500,1500,1500,1500
1747551640.9323225,0.01,0.05,-0.33,0.002181661564992912,0.002181661564992912,0.0,-0.016402228887281014,0.08559219348033469,-0.0007024344918300382,1,0,0,0,0,0,1500,1500,1500,1500,1500,1500
1747551641.031762,0.01,0.05,-0.33,0.002181661564992912,0.002181661564992912,0.0,-0.016402228887281014,0.08559219348033469,-0.0007024344918300382,1,0,0,0,0,0,1500,1500,1500,1500,1500,1500
1747551641.1321943,0.01,0.04,-0.32,-0.002181661564992912,0.001090830782496456,0.0,-0.016402228887281014,0.08559219348033469,-0.0007024344918300382,1,0,0,0,0,0,1500,1500,1500,1500,1500,1500
1747551641.2320447,0.0,0.0,-0.32,-0.001090830782496456,-0.003272492347489368,0.001090830782496456,-0.016402228887281014,0.08559219348033469,-0.0007024344918300382,1,0,0,0,0,0,1500,1500,1500,1500,1500,1500
1747551641.332095,0.0,0.0,-0.32,-0.001090830782496456,-0.003272492347489368,0.001090830782496456,-0.016402228887281014,0.08559219348033469,-0.0007024344918300382,1,0,0,0,0,0,1500,1500,1500,1500,1500,1500
1747551641.4161232,0.01,0.01,-0.35000000000000003,0.001090830782496456,0.002181661564992912,-0.001090830782496456,-0.016402228887281014,0.08559219348033469,-0.0007024344918300382,1,0,0,0,0,0,1500,1500,1500,1500,1500,1500
1747551641.515748,0.01,0.01,-0.35000000000000003,0.001090830782496456,0.002181661564992912,-0.001090830782496456,-0.016402228887281014,0.08559219348033469,-0.0007024344918300382,1,0,0,0,0,0,1500,1500,1500,1500,1500,1500
1747551641.6158195,0.03,0.0,-0.33,0.001090830782496456,0.0,0.0,-0.016402228887281014,0.08559219348033469,-0.0007024344918300382,1,0,0,0,0,0,1500,1500,1500,1500,1500,1500
1747551641.698943,0.01,0.02,-1.58,0.002181661564992912,0.001090830782496456,0.001090830782496456,-0.016402228887281014,0.08559219348033469,-0.0007024344918300382,1,0,0,0,0,0,1500,1500,1500,1500,1500,1500
1747551641.7990446,0.01,0.02,-1.58,0.002181661564992912,0.001090830782496456,0.001090830782496456,-0.016402228887281014,0.08559219348033469,-0.0007024344918300382,1,0,0,0,0,0,1500,1500,1500,1500,1500,1500
1747551641.8988225,0.04,0.0,-0.36,0.0,-0.001090830782496456,0.0,-0.016402228887281014,0.08559219348033469,-0.0007024344918300382,1,0,0,0,0,0,1500,1500,1500,1500,1500,1500
1747551641.9970963,0.01,0.0,-0.29,0.002181661564992912,-0.002181661564992912,0.0,-0.016402228887281014,0.08559219348033469,-0.0007024344918300382,1,0,0,0,0,0,1500,1500,1500,1500,1500,1500
1747551642.0986006,0.01,0.0,-0.29,0.002181661564992912,-0.002181661564992912,0.0,-0.016402228887281014,0.08559219348033469,-0.0007024344918300382,1,0,0,0,0,0,1500,1500,1500,1500,1500,1500
1747551642.1823313,0.04,-0.03,-0.35000000000000003,-0.003272492347489368,-0.003272492347489368,0.003272492347489368,-0.016402228887281014,0.08559219348033469,-0.0007024344918300382,1,0,0,0,0,0,1500,1500,1500,1500,1500,1500
1747551642.2822518,0.04,-0.03,-0.35000000000000003,-0.003272492347489368,-0.003272492347489368,0.003272492347489368,-0.016402228887281014,0.08559219348033469,-0.0007024344918300382,1,0,0,0,0,0,1500,1500,1500,1500,1500,1500
1747551642.3822474,0.01,-0.02,-0.29,-0.001090830782496456,0.0,0.002181661564992912,-0.016402228887281014,0.08559219348033469,-0.0007024344918300382,1,0,0,0,0,0,1500,1500,1500,1500,1500,1500
1747551642.4818482,0.0,0.0,-0.33,0.002181661564992912,0.002181661564992912,-0.002181661564992912,-0.016402228887281014,0.08559219348033469,-0.0007024344918300382,0,0,0,0,0,0,1500,1500,1500,1500,1500,1500
1747551642.5822778,0.0,0.0,-0.33,0.002181661564992912,0.002181661564992912,-0.002181661564992912,-0.016402228887281014,0.08559219348033469,-0.0007024344918300382,0,0,0,0,0,0,1500,1500,1500,1500,1500,1500
1747551642.665917,0.04,-0.03,-0.31,0.001090830782496456,-0.008726646259971648,-0.001090830782496456,-0.016402228887281014,0.08559219348033469,-0.0007024344918300382,0,0,0,0,0,0,1500,1500,1500,1500,1500,1500
1747551642.7662091,0.04,-0.03,-0.31,0.001090830782496456,-0.008726646259971648,-0.001090830782496456,-0.016402228887281014,0.08559219348033469,-0.0007024344918300382,0,0,0,0,0,0,1500,1500,1500,1500,1500,1500
1747551642.8665097,0.0,0.0,-0.29,0.0,0.00545415391248228,0.002181661564992912,-0.016402228887281014,0.08559219348033469,-0.0007024344918300382,0,0,0,0,0,0,1500,1500,1500,1500,1500,1500
1747551642.9662502,0.0,0.02,-0.35000000000000003,0.0,0.0,0.001090830782496456,-0.016402228887281014,0.08559219348033469,-0.0007024344918300382,0,0,0,0,0,0,1500,1500,1500,1500,1500,1500
1747551643.0654378,0.0,0.02,-0.35000000000000003,0.0,0.0,0.001090830782496456,-0.016402228887281014,0.08559219348033469,-0.0007024344918300382,0,0,0,0,0,0,1500,1500,1500,1500,1500,1500
1747551643.1487808,0.0,0.0,-0.31,0.001090830782496456,-0.004363323129985824,0.002181661564992912,-0.016402228887281014,0.08559219348033469,-0.0007024344918300382,0,0,0,0,0,0,1500,1500,1500,1500,1500,1500
1747551643.2488565,0.0,0.0,-0.31,0.001090830782496456,-0.004363323129985824,0.002181661564992912,-0.016402228887281014,0.08559219348033469,-0.0007024344918300382,1,0,0,0,0,0,1500,1500,1500,1500,1500,1500
1747551643.3488228,0.02,0.0,-0.35000000000000003,-0.004363323129985824,0.002181661564992912,0.0,-0.016402228887281014,0.08559219348033469,-0.0007024344918300382,1,0,0,0,0,0,1500,1500,1500,1500,1500,1500
1747551643.4389372,0.02,0.02,-0.32,-0.001090830782496456,0.0,0.0,-0.016402228887281014,0.08559219348033469,-0.0007024344918300382,1,0,0,0,0,0,1500,1500,1500,1500,1500,1500
1747551643.5320897,0.02,0.02,-0.32,-0.001090830782496456,0.0,0.0,-0.016402228887281014,0.08559219348033469,-0.0007024344918300382,1,0,0,0,0,0,1500,1500,1500,1500,1500,1500
1747551643.633363,0.01,0.0,-0.34,0.001090830782496456,0.004363323129985824,-0.001090830782496456,-0.016402228887281014,0.08559219348033469,-0.0007024344918300382,1,0,0,0,0,0,1500,1500,1500,1500,1500,1500
1747551643.729974,0.02,0.01,-0.29,-0.001090830782496456,0.001090830782496456,0.001090830782496456,-0.016402228887281014,0.08559219348033469,-0.0007024344918300382,1,0,0,0,0,0,1500,1500,1500,1500,1500,1500
1747551643.8323462,0.02,0.01,-0.29,-0.001090830782496456,0.001090830782496456,0.001090830782496456,-0.016402228887281014,0.08559219348033469,-0.0007024344918300382,1,0,0,0,0,0,1500,1500,1500,1500,1500,1500
1747551643.9157426,0.04,0.0,-0.36,0.002181661564992912,-0.001090830782496456,-0.001090830782496456,-0.016402228887281014,0.08559219348033469,-0.0007024344918300382,1,0,0,0,0,0,1500,1500,1500,1500,1500,1500
1747551644.0152972,0.04,0.0,-0.36,0.002181661564992912,-0.001090830782496456,-0.001090830782496456,-0.016402228887281014,0.08559219348033469,-0.0007024344918300382,1,0,0,0,0,0,1500,1500,1500,1500,1500,1500
1747551644.1153338,0.02,0.0,-0.33,-0.001090830782496456,0.001090830782496456,0.002181661564992912,-0.016402228887281014,0.08559219348033469,-0.0007024344918300382,1,0,0,0,0,0,1500,1500,1500,1500,1500,1500
1747551644.1988783,0.02,0.0,-0.33,-0.001090830782496456,0.001090830782496456,0.002181661564992912,-0.016402228887281014,0.08559219348033469,-0.0007024344918300382,1,0,0,0,0,0,1500,1500,1500,1500,1500,1500
1747551644.2988956,0.02,0.0,-0.31,-0.002181661564992912,0.002181661564992912,0.002181661564992912,-0.016402228887281014,0.08559219348033469,-0.0007024344918300382,1,0,0,0,0,0,1500,1500,1500,1500,1500,1500
1747551644.3989925,0.03,0.0,-0.34,0.0,-0.001090830782496456,0.0,-0.016402228887281014,0.08559219348033469,-0.0007024344918300382,1,0,0,0,0,0,1500,1500,1500,1500,1500,1500
1747551644.4989223,0.03,0.0,-0.34,0.0,-0.001090830782496456,0.0,-0.016402228887281014,0.08559219348033469,-0.0007024344918300382,1,0,0,0,0,0,1500,1500,1500,1500,1500,1500
1747551644.5991745,0.01,0.0,-0.33,0.0,0.0,0.0,-0.016402228887281014,0.08559219348033469,-0.0007024344918300382,1,0,0,0,0,0,1500,1500,1500,1500,1500,1500
1747551644.6813846,0.01,0.0,-0.33,0.0,0.0,0.0,-0.016402228887281014,0.08559219348033469,-0.0007024344918300382,1,0,0,0,0,0,1500,1500,1500,1500,1500,1500
1747551644.782004,0.01,0.03,-0.35000000000000003,-0.002181661564992912,0.001090830782496456,0.0,-0.016402228887281014,0.08559219348033469,-0.0007024344918300382,1,0,0,0,0,0,1500,1500,1500,1500,1500,1500
1747551644.8822072,0.01,-0.02,-0.3,0.004363323129985824,-0.002181661564992912,0.0,-0.016402228887281014,0.08559219348033469,-0.0007024344918300382,1,0,0,0,0,0,1500,1500,1500,1500,1500,1500
1747551644.9826558,0.01,-0.02,-0.3,0.004363323129985824,-0.002181661564992912,0.0,-0.016402228887281014,0.08559219348033469,-0.0007024344918300382,1,0,0,0,0,0,1500,1500,1500,1500,1500,1500
1747551645.0819464,0.01,0.0,-0.35000000000000003,0.003272492347489368,0.001090830782496456,0.0,-0.016402228887281014,0.08559219348033469,-0.0007024344918300382,1,0,0,0,0,0,1500,1500,1500,1500,1500,1500
1747551645.1651013,0.01,0.02,-0.32,-0.003272492347489368,0.002181661564992912,0.002181661564992912,-0.016402228887281014,0.08559219348033469,-0.0007024344918300382,1,0,0,0,0,0,1500,1500,1500,1500,1500,1500
1747551645.2656174,0.01,0.02,-0.32,-0.003272492347489368,0.002181661564992912,0.002181661564992912,-0.016402228887281014,0.08559219348033469,-0.0007024344918300382,1,0,0,0,0,0,1500,1500,1500,1500,1500,1500
1747551645.3658156,0.02,0.02,-0.35000000000000003,0.001090830782496456,-0.004363323129985824,0.0,-0.016402228887281014,0.08559219348033469,-0.0007024344918300382,1,0,0,0,0,0,1500,1500,1500,1500,1500,1500
1747551645.44901,0.02,0.02,-0.35000000000000003,0.001090830782496456,-0.004363323129985824,0.0,-0.016402228887281014,0.08559219348033469,-0.0007024344918300382,1,0,0,0,0,0,1500,1500,1500,1500,1500,1500
1747551645.549043,0.01,0.0,-0.3,0.002181661564992912,-0.004363323129985824,0.0,-0.016402228887281014,0.08559219348033469,-0.0007024344918300382,1,0,0,0,0,0,1500,1500,1500,1500,1500,1500
1747551645.6487422,0.01,0.0,-0.31,-0.003272492347489368,-0.001090830782496456,0.001090830782496456,-0.016402228887281014,0.08559219348033469,-0.0007024344918300382,1,0,0,0,0,0,1500,1500,1500,1500,1500,1500
1747551645.7489464,0.01,0.0,-0.31,-0.003272492347489368,-0.001090830782496456,0.001090830782496456,-0.016402228887281014,0.08559219348033469,-0.0007024344918300382,1,0,0,0,0,0,1500,1500,1500,1500,1500,1500
1747551645.8488731,0.0,0.02,-0.37,0.0,-0.001090830782496456,0.0,-0.016402228887281014,0.08559219348033469,-0.0007024344918300382,1,0,0,0,0,0,1500,1500,1500,1500,1500,1500
1747551645.93206,0.0,0.02,-0.37,0.0,-0.001090830782496456,0.0,-0.016402228887281014,0.08559219348033469,-0.0007024344918300382,1,0,0,0,0,0,1500,1500,1500,1500,1500,1500
1747551646.0326505,0.04,0.0,-0.35000000000000003,0.0,-0.002181661564992912,0.003272492347489368,-0.016402228887281014,0.08559219348033469,-0.0007024344918300382,0,0,0,0,0,0,1500,1500,1500,1500,1500,1500
1747551646.132203,0.0,0.0,-0.33,0.0,0.0,0.0,-0.016402228887281014,0.08559219348033469,-0.0007024344918300382,0,0,0,0,0,0,1500,1500,1500,1500,1500,1500
1747551646.2330399,0.0,0.0,-0.33,0.0,0.0,0.0,-0.016402228887281014,0.08559219348033469,-0.0007024344918300382,0,0,0,0,0,0,1500,1500,1500,1500,1500,1500
1747551646.3327713,-0.01,0.0,-0.31,-0.002181661564992912,0.004363323129985824,0.003272492347489368,-0.016402228887281014,0.08559219348033469,-0.0007024344918300382,0,0,0,0,0,0,1500,1500,1500,1500,1500,1500
1747551646.4150229,-0.01,0.0,-0.31,-0.002181661564992912,0.004363323129985824,0.003272492347489368,-0.016402228887281014,0.08559219348033469,-0.0007024344918300382,0,0,0,0,0,0,1500,1500,1500,1500,1500,1500
1747551646.515143,0.04,-0.01,-0.36,0.0,0.0,0.001090830782496456,-0.016402228887281014,0.08559219348033469,-0.0007024344918300382,0,0,0,0,0,0,1500,1500,1500,1500,1500,1500
1747551646.6159554,0.02,0.03,-0.3,0.001090830782496456,0.001090830782496456,0.001090830782496456,-0.016402228887281014,0.08559219348033469,-0.0007024344918300382,1,0,0,0,0,0,1500,1500,1500,1500,1500,1500
1747551646.699244,0.02,0.03,-0.3,0.001090830782496456,0.001090830782496456,0.001090830782496456,-0.016402228887281014,0.08559219348033469,-0.0007024344918300382,1,0,0,0,0,0,1500,1500,1500,1500,1500,1500
1747551646.7989063,0.0,0.01,-0.37,0.0,-0.004363323129985824,0.001090830782496456,-0.016402228887281014,0.08559219348033469,-0.0007024344918300382,1,0,0,0,0,0,1500,1500,1500,1500,1500,1500
1747551646.8942156,0.01,0.0,-0.31,0.003272492347489368,-0.003272492347489368,-0.001090830782496456,-0.016402228887281014,0.08559219348033469,-0.0007024344918300382,1,0,0,0,0,0,1500,1500,1500,1500,1500,1500
1747551646.981929,0.01,0.0,-0.31,0.003272492347489368,-0.003272492347489368,-0.001090830782496456,-0.016402228887281014,0.08559219348033469,-0.0007024344918300382,1,0,0,0,0,0,1500,1500,1500,1500,1500,1500
1747551647.0821793,0.01,0.02,-0.36,0.001090830782496456,0.002181661564992912,0.0,-0.016402228887281014,0.08559219348033469,-0.0007024344918300382,1,0,0,0,0,0,1500,1500,1500,1500,1500,1500
1747551647.1653094,0.01,0.02,-0.36,0.001090830782496456,0.002181661564992912,0.0,-0.016402228887281014,0.08559219348033469,-0.0007024344918300382,1,0,0,0,0,0,1500,1500,1500,1500,1500,1500
1747551647.2650921,0.04,0.02,-0.33,0.0,0.001090830782496456,0.002181661564992912,-0.016402228887281014,0.08559219348033469,-0.0007024344918300382,1,0,0,0,0,0,1500,1500,1500,1500,1500,1500
1747551647.3657568,0.04,0.02,-0.33,0.0,0.001090830782496456,0.002181661564992912,-0.016402228887281014,0.08559219348033469,-0.0007024344918300382,1,0,0,0,0,0,1500,1500,1500,1500,1500,1500
1747551647.448988,0.03,0.0,-0.32,0.0,0.0,0.002181661564992912,-0.016402228887281014,0.08559219348033469,-0.0007024344918300382,1,0,0,0,0,0,1500,1500,1500,1500,1500,1500
1747551647.5490222,0.02,-0.01,-0.33,0.004363323129985824,0.001090830782496456,-0.001090830782496456,-0.016402228887281014,0.08559219348033469,-0.0007024344918300382,1,0,0,0,0,0,1500,1500,1500,1500,1500,1500
1747551647.6472738,0.02,-0.01,-0.33,0.004363323129985824,0.001090830782496456,-0.001090830782496456,-0.016402228887281014,0.08559219348033469,-0.0007024344918300382,1,0,0,0,0,0,1500,1500,1500,1500,1500,1500
