time,ay,ax,az,gy,gx,gz,roll,pitch,yaw,cmd_fx,cmd_fy,cmd_fz,cmd_tx,cmd_ty,cmd_tz,pwm_1,pwm_2,pwm_3,pwm_4,pwm_5,pwm_6
1747554557.648915,0.0,0.0,0.0,0.0,0.0,0.0,0.0,0.0,0.0,0,0,0,0,0,0,1500,1500,1500,1500,1500,1500
1747554557.7482512,-0.03,-0.3,0.14,0.001090830782496456,0.002181661564992912,0.00545415391248228,2.0407663026475618,-0.1620783365081396,-0.26246120886079327,0,0,0,0,0,0,1500,1500,1500,1500,1500,1500
1747554557.848832,-0.03,-0.3,0.14,0.001090830782496456,0.002181661564992912,0.00545415391248228,2.0407663026475618,-0.1620783365081396,-0.26246120886079327,0,0,0,0,0,0,1500,1500,1500,1500,1500,1500
1747554557.9324114,-0.07,-0.29,0.06,-0.001090830782496456,-0.001090830782496456,0.002181661564992912,2.0407748805405244,-0.16218182626445357,-0.26239840242436735,0,0,0,0,0,0,1500,1500,1500,1500,1500,1500
1747554558.0317283,-0.07,-0.29,0.06,-0.001090830782496456,-0.001090830782496456,0.002181661564992912,2.0407748805405244,-0.16218182626445357,-0.26239840242436735,0,0,0,0,0,0,1500,1500,1500,1500,1500,1500
1747554558.132249,-0.02,-0.29,0.14,-0.003272492347489368,-0.006544984694978736,0.001090830782496456,2.0409768232439767,-0.16216291441495828,-0.26241672518652065,0,0,0,0,0,0,1500,1500,1500,1500,1500,1500
1747554558.231556,-0.01,-0.04,0.0,0.0,-0.00545415391248228,-0.002181661564992912,2.0409768232439767,-0.16216291441495828,-0.26241672518652065,0,0,0,0,0,0,1500,1500,1500,1500,1500,1500
1747554558.3322048,-0.01,-0.04,0.0,0.0,-0.00545415391248228,-0.002181661564992912,2.0409768232439767,-0.16216291441495828,-0.26241672518652065,0,0,0,0,0,0,1500,1500,1500,1500,1500,1500
1747554558.4150987,-0.02,-0.05,-0.03,-0.001090830782496456,0.002181661564992912,0.00545415391248228,2.0409768232439767,-0.16216291441495828,-0.26241672518652065,0,0,0,0,0,0,1500,1500,1500,1500,1500,1500
1747554558.516323,0.0,-0.02,0.01,0.001090830782496456,0.0,0.00545415391248228,2.040855549249739,-0.16222792461463573,-0.2625082098017007,0,0,0,0,0,0,1500,1500,1500,1500,1500,1500
1747554558.6162074,0.0,-0.02,0.01,0.001090830782496456,0.0,0.00545415391248228,2.040855549249739,-0.16222792461463573,-0.2625082098017007,0,0,0,0,0,0,1500,1500,1500,1500,1500,1500
1747554558.699571,-0.02,-0.02,-0.03,-0.002181661564992912,-0.007635815477475192,-0.001090830782496456,2.040855549249739,-0.16222792461463573,-0.2625082098017007,0,0,0,0,0,0,1500,1500,1500,1500,1500,1500
1747554558.798872,-0.02,-0.02,-0.03,-0.002181661564992912,-0.007635815477475192,-0.001090830782496456,2.040855549249739,-0.16222792461463573,-0.2625082098017007,0,0,0,0,0,0,1500,1500,1500,1500,1500,1500
1747554558.8991446,0.01,-0.02,0.01,-0.00545415391248228,-0.004363323129985824,-0.001090830782496456,2.040855549249739,-0.16222792461463573,-0.2625082098017007,0,0,0,0,0,0,1500,1500,1500,1500,1500,1500
1747554558.9992568,-0.02,-0.02,0.0,-0.003272492347489368,0.0,0.0,2.040846965930289,-0.16212443407788818,-0.2625710076995367,0,0,0,0,0,0,1500,1500,1500,1500,1500,1500
1747554559.0994465,-0.02,-0.02,0.0,-0.003272492347489368,0.0,0.0,2.040846965930289,-0.16212443407788818,-0.2625710076995367,0,0,0,0,0,0,1500,1500,1500,1500,1500,1500
1747554559.181883,-0.02,-0.03,-0.01,-0.001090830782496456,-0.001090830782496456,0.004363323129985824,2.040846965930289,-0.16212443407788818,-0.2625710076995367,0,0,0,0,0,0,1500,1500,1500,1500,1500,1500
1747554559.2826943,-0.02,-0.03,-0.01,-0.001090830782496456,-0.001090830782496456,0.004363323129985824,2.040846965930289,-0.16212443407788818,-0.2625710076995367,0,0,0,0,0,0,1500,1500,1500,1500,1500,1500
1747554559.3829532,0.0,-0.03,0.03,-0.001090830782496456,0.001090830782496456,0.002181661564992912,2.040846965930289,-0.16212443407788818,-0.2625710076995367,-3,0,0,0,0,0,1460,1539,1500,1460,1460,1460
1747554559.4829395,-0.03,-0.04,-0.07,0.0,0.001090830782496456,0.001090830782496456,2.040846965930289,-0.16212443407788818,-0.2625710076995367,-3,0,0,0,0,0,1460,1539,1500,1420,1426,1426
1747554559.5822551,-0.03,-0.04,-0.07,0.0,0.001090830782496456,0.001090830782496456,2.040846965930289,-0.16212443407788818,-0.2625710076995367,-3,0,0,0,0,0,1460,1539,1500,1402,1426,1426
1747554559.6655893,-0.05,-0.1,0.15,-0.003272492347489368,0.002181661564992912,0.003272492347489368,2.0406319660706296,-0.16222736593618423,-0.2626624399607874,-3,0,0,0,0,0,1460,1539,1500,1402,1426,1426
1747554559.7670586,-0.05,-0.1,0.15,-0.003272492347489368,0.002181661564992912,0.003272492347489368,2.0406319660706296,-0.16222736593618423,-0.2626624399607874,-3,0,0,0,0,0,1460,1539,1500,1402,1426,1426
1747554559.8687844,-0.17,-0.38,0.18,-0.09708393964218458,-0.013089969389957472,0.038179077387375956,2.0303438944413768,-0.16516625740186802,-0.2643734204791721,-3,0,0,0,0,0,1460,1539,1500,1402,1426,1426
1747554559.9666343,0.05,-0.15,-0.08,-0.02399827721492203,-0.02181661564992912,0.09708393964218458,2.0239987373860253,-0.17464244561753522,-0.27247346448839366,-3,0,0,0,0,0,1460,1539,1500,1402,1426,1426
1747554560.0681095,0.05,-0.15,-0.08,-0.02399827721492203,-0.02181661564992912,0.09708393964218458,2.0239987373860253,-0.17464244561753522,-0.27247346448839366,-3,0,0,0,0,0,1460,1539,1500,1402,1426,1426
1747554560.1483097,0.0,-0.11,0.12,-0.02181661564992912,-0.04036073895236887,0.136353847812057,2.0230323862081656,-0.1895060126567747,-0.28536022131989963,-3,0,0,0,0,0,1460,1539,1500,1402,1426,1426
1747554560.2501009,0.0,-0.11,0.12,-0.02181661564992912,-0.04036073895236887,0.136353847812057,2.0230323862081656,-0.1895060126567747,-0.28536022131989963,0,0,0,0,0,0,1500,1500,1500,1442,1466,1466
1747554560.3500183,-0.12,-0.14,-0.05,-0.026179938779914945,-0.05235987755982989,0.1636246173744684,2.0226666486922973,-0.20749919044610757,-0.3026126805333976,0,0,0,0,0,0,1500,1500,1500,1482,1500,1500
1747554560.4317598,0.05,0.11,-0.06,-0.02181661564992912,-0.06872233929727672,0.1407171709420428,2.0220073165008667,-0.22473267817006898,-0.32193494106262793,0,0,0,0,0,0,1500,1500,1500,1500,1500,1500
1747554560.5326524,0.05,0.11,-0.06,-0.02181661564992912,-0.06872233929727672,0.1407171709420428,2.0220073165008667,-0.22473267817006898,-0.32193494106262793,0,0,0,0,0,0,1500,1500,1500,1500,1500,1500
1747554560.61809,-0.12,-0.01,-0.06,0.013089969389957472,-0.07963064712224129,0.10471975511965978,2.0282538169448885,-0.23670962664357095,-0.3417282287327862,0,0,0,0,0,0,1500,1500,1500,1500,1500,1500
1747554560.7155485,0.0,0.04,0.0,0.009817477042468103,-0.08290313946973066,0.06435901616729091,2.0334889732905737,-0.2418963072843517,-0.3585955875340642,0,-0.056222,0,0,0,0,1500,1500,1500,1500,1500,1500
1747554560.8150866,0.0,0.04,0.0,0.009817477042468103,-0.08290313946973066,0.06435901616729091,2.0334889732905737,-0.2418963072843517,-0.3585955875340642,0,-5.200141,0,0,0,0,1460,1460,1460,1500,1500,1500
1747554560.8993752,-0.01,0.02,-0.07,0.002181661564992912,-0.08726646259971647,0.02945243112740431,2.0371455599103476,-0.24240969242938704,-0.3739731267926581,0,-5.746281,0,0,0,-0.001252,1420,1420,1429,1500,1500,1500
1747554560.9994032,-0.01,0.02,-0.07,0.002181661564992912,-0.08726646259971647,0.02945243112740431,2.0371455599103476,-0.24240969242938704,-0.3739731267926581,0,-5.887076,0,0,0,-0.001789,1416,1418,1428,1500,1500,1500
1747554561.0983472,0.0,0.02,-0.05,-0.006544984694978736,-0.09490227807719166,-0.004363323129985824,2.040421755670862,-0.23749536100163363,-0.38781132350105074,0,-5.887076,0,0,0,-0.001789,1416,1418,1428,1500,1500,1500
1747554561.1826136,0.0,0.02,-0.05,-0.006544984694978736,-0.09490227807719166,-0.004363323129985824,2.040421755670862,-0.23749536100163363,-0.38781132350105074,0,-5.887076,0,0,0,-0.003148,1416,1418,1428,1500,1500,1500
1747554561.2824066,-0.37,-0.12,0.07,-0.030543261909900768,-0.10253809355466686,-0.02399827721492203,2.0409346204938776,-0.22782654544321868,-0.40032199022353576,0,-6.029575,0,0,0,-0.023353,1415,1417,1427,1500,1500,1500
1747554561.3821564,-0.26,-0.04,0.03,-0.06544984694978735,-0.06544984694978735,-0.02945243112740431,2.034895189720833,-0.2137536494016203,-0.4102166933795829,0,-6.319686,0,0,0,-0.035101,1413,1415,1424,1500,1500,1500
1747554561.4822383,-0.26,-0.04,0.03,-0.06544984694978735,-0.06544984694978735,-0.02945243112740431,2.034895189720833,-0.2137536494016203,-0.4102166933795829,0,-6.319686,0,0,0,-0.040469,1413,1415,1424,1500,1500,1500
1747554561.5833585,-0.13,-0.06,0.05,-0.07744898555724837,-0.04581489286485115,-0.02181661564992912,2.0251262974833004,-0.20570391104591954,-0.4156376036122705,0,-3.503365,0,0,0,-0.527279,1398,1455,1442,1500,1500,1500
1747554561.6670222,-0.11,-0.03,-0.03,-0.09381144729469522,-0.044724062082354694,-0.037088246604879506,2.012778591854761,-0.19706527936442944,-0.4197163918627192,0,-3.183224,0,0,0,-0.599838,1395,1495,1444,1500,1500,1500
1747554561.7649307,-0.11,-0.03,-0.03,-0.09381144729469522,-0.044724062082354694,-0.037088246604879506,2.012778591854761,-0.19706527936442944,-0.4197163918627192,0,-2.58895,0,0,0,-0.665754,1395,1535,1448,1500,1500,1500
1747554561.8655536,0.02,0.02,0.0,-0.13526301702956053,0.00545415391248228,-0.19962203319685143,1.995192433882283,-0.180475543193967,-0.41517424813217596,0,-1.65878,0,0,0,-0.7,1399,1571,1455,1500,1500,1500
1747554561.9489267,0.02,0.02,0.0,-0.13526301702956053,0.00545415391248228,-0.19962203319685143,1.995192433882283,-0.180475543193967,-0.41517424813217596,0,-1.584443,0,0,0,-0.7,1399,1572,1456,1500,1500,1500
1747554562.0493479,0.12,0.02,0.0,-0.1559888018969932,0.05126904677733343,-0.3076142806640006,1.9692562757297647,-0.14529899455900905,-0.39451443801863656,0,-1.584443,0,0,0,-0.7,1399,1572,1456,1500,1500,1500
1747554562.1486146,0.06,-0.05,0.17,-0.14944381720201447,0.10253809355466686,-0.40578905108868163,1.9426356578273762,-0.10524415417757507,-0.3633464944439914,0,-1.584443,0,0,0,-0.7,1399,1572,1456,1500,1500,1500
1747554562.248444,0.06,-0.05,0.17,-0.14944381720201447,0.10253809355466686,-0.40578905108868163,1.9426356578273762,-0.10524415417757507,-0.3633464944439914,0,-1.584443,0,0,0,-0.7,1399,1572,1456,1500,1500,1500
1747554562.3486505,0.05,-0.05,0.17,-0.13853550937704992,0.11453723216212788,-0.5094179754258449,1.9170545328516504,-0.046639757148898495,-0.3225378341529154,0,-11.292264,0,0,0,0.023359,1382,1532,1416,1500,1500,1500
1747554562.4336655,0.05,-0.05,0.17,-0.13853550937704992,0.11453723216212788,-0.5094179754258449,1.9170545328516504,-0.046639757148898495,-0.3225378341529154,0,-0.417013,0,0,0,0.7,1422,1492,1456,1500,1500,1500
1747554562.5323339,-0.33,-0.07,0.19,-0.12544553998709243,0.1505346479845109,-0.5388704065532492,1.8959989639093155,0.02417876713121551,-0.2774977025534809,0,0,0,0,0,0.7,1462,1452,1496,1500,1500,1500
1747554562.6312754,0.12,-0.26,0.03,-0.08617563181722002,0.1341721862470641,-0.3948807432637171,1.8805965679450907,0.0911347947125018,-0.2360865367672386,0,0,0,0,0,0.7,1502,1412,1500,1500,1500,1500
1747554562.7315285,0.12,-0.26,0.03,-0.08617563181722002,0.1341721862470641,-0.3948807432637171,1.8805965679450907,0.0911347947125018,-0.2360865367672386,0,0,0,0,0,0.7,1542,1409,1500,1500,1500,1500
1747554562.8319435,-0.04,-0.2,-0.19,0.008726646259971648,0.1734420944169365,-0.12326387842209953,1.878758981873563,0.11816383563391868,-0.20276473737161657,0,0,0,0,0,0.7,1580,1409,1500,1500,1500,1500
1747554562.9162369,0.25,-0.07,0.13,0.08290313946973066,0.16798794050445423,0.05672320068981571,1.8892406848796235,0.11335340079825042,-0.17523815903061768,0,0,0,0,0,0.7,1580,1409,1500,1500,1500,1500
1747554563.0151458,0.25,-0.07,0.13,0.08290313946973066,0.16798794050445423,0.05672320068981571,1.8892406848796235,0.11335340079825042,-0.17523815903061768,0,0,0,0,0,0.7,1580,1409,1500,1500,1500,1500
1747554563.115773,-0.03,-0.36,-0.02,0.17016960206944712,0.11671889372712078,0.2923426497090502,1.9095497322341386,0.08129054719154719,-0.16415426438501726,0,0,0,0,0,0.7,1580,1409,1500,1500,1500,1500
1747554563.1984196,-0.03,-0.36,-0.02,0.17016960206944712,0.11671889372712078,0.2923426497090502,1.9095497322341386,0.08129054719154719,-0.16415426438501726,0,0,0,0,0,0.7,1580,1409,1500,1500,1500,1500
1747554563.2984626,-0.02,-0.32,0.27,0.22471114119426994,0.06763150851478027,0.47778388273344774,1.9406253757391558,0.0182601078977978,-0.17306298157540628,0,0,0,0,0,0.7,1580,1409,1500,1500,1500,1500
1747554563.3992736,0.31,0.11,-0.1,0.23889194136672387,0.026179938779914945,0.5759586531581288,1.9754120968044135,-0.05585824025330987,-0.19639259751721114,0,0,0,0,0,0.7,1580,1409,1500,1500,1500,1500
1747554563.4982715,0.31,0.11,-0.1,0.23889194136672387,0.026179938779914945,0.5759586531581288,1.9754120968044135,-0.05585824025330987,-0.19639259751721114,0,0,0,0,0,0.7,1580,1409,1500,1500,1500,1500
1747554563.5985901,0.33,0.08,-0.28,0.23452861823673804,-0.007635815477475192,0.6108652381980153,2.016292536126306,-0.1407456284714789,-0.23400448971187765,0,0,0,0,0,0.7,1580,1409,1500,1500,1500,1500
1747554563.6814928,0.33,0.08,-0.28,0.23452861823673804,-0.007635815477475192,0.6108652381980153,2.016292536126306,-0.1407456284714789,-0.23400448971187765,0,0,0,0,0,0.7,1580,1409,1500,1500,1500,1500
1747554563.7819397,0.04,0.08,-0.18,0.18980455615438332,-0.05126904677733343,0.6228643768054763,2.0589274768246795,-0.22379588964295435,-0.2825453281682535,0,0,0,0,0,0.7,1580,1409,1500,1500,1500,1500
1747554563.8815126,0.08,0.01,-0.26,0.1265363707695889,-0.09381144729469522,0.6228643768054763,2.099069189008139,-0.3021564424572976,-0.34167084235088274,0,0,0,0,0,0.7,1580,1409,1500,1500,1500,1500
1747554563.9662955,0.08,0.01,-0.26,0.1265363707695889,-0.09381144729469522,0.6228643768054763,2.099069189008139,-0.3021564424572976,-0.34167084235088274,0,0,0,0,0,0.7,1580,1409,1500,1500,1500,1500
1747554564.0657961,-0.04,0.1,-0.06,0.06872233929727672,-0.1407171709420428,0.6108652381980153,2.1369072565507388,-0.3737670862756741,-0.4108335877421592,0,0,0,0,0,0.7,1580,1409,1500,1500,1500,1500
1747554564.14931,-0.04,0.1,-0.06,0.06872233929727672,-0.1407171709420428,0.6108652381980153,2.1369072565507388,-0.3737670862756741,-0.4108335877421592,0,-0.673882,0,0,0,0.7,1577,1405,1500,1500,1500,1500
1747554564.2492356,-0.1,0.04,0.02,0.019634954084936207,-0.16798794050445423,0.595593607243065,2.1720286165613127,-0.4345887228697767,-0.4833521515547025,0,-12.5,0,0,0,-0.012403,1537,1377,1460,1500,1500,1500
1747554564.3505223,-0.09,0.09,0.02,-0.04363323129985824,-0.1930770485018727,0.5705044992456465,2.2056439077354226,-0.4887999970572524,-0.5624947297028704,0,-12.5,0,0,0,-0.058861,1497,1377,1420,1500,1500,1500
1747554564.431792,-0.09,0.09,0.02,-0.04363323129985824,-0.1930770485018727,0.5705044992456465,2.2056439077354226,-0.4887999970572524,-0.5624947297028704,0,-12.5,0,0,0,-0.062261,1457,1377,1395,1500,1500,1500
1747554564.5325754,-0.4,-0.08,0.03,-0.16471544815696484,-0.11999138607461016,0.5421428989007386,2.22865974257033,-0.5382613621536717,-0.6441214388710568,0,-12.5,0,0,0,-0.062261,1417,1377,1395,1500,1500,1500
1747554564.6317918,-0.4,-0.08,0.03,-0.16471544815696484,-0.11999138607461016,0.5421428989007386,2.22865974257033,-0.5382613621536717,-0.6441214388710568,0,-12.5,0,0,0,-0.062261,1377,1377,1395,1500,1500,1500
1747554564.715456,-0.33,0.16,-0.02,-0.24870941840919197,-0.12762720155208535,0.5301437602932776,2.2390234706266607,-0.5897295029930034,-0.7226959277024338,0,-12.5,0,0,0,-0.065756,1375,1377,1395,1500,1500,1500
1747554564.8161151,-0.21,0.04,-0.02,-0.3719732968312915,-0.15926129424448257,0.26398104936414235,2.231718006591704,-0.617486151931314,-0.7955160667785044,0,-12.5,0,0,0,-0.065756,1375,1377,1395,1500,1500,1500
1747554564.9157221,-0.21,0.04,-0.02,-0.3719732968312915,-0.15926129424448257,0.26398104936414235,2.231718006591704,-0.617486151931314,-0.7955160667785044,0,-12.5,0,0,0,-0.065756,1375,1377,1395,1500,1500,1500
1747554565.0217142,-0.17,0.11,0.01,-0.43960480534607177,-0.09817477042468103,0.039269908169872414,2.1856495287659183,-0.6199994037233925,-0.8284840902971042,0,-12.5,0,0,0,-0.065756,1375,1377,1395,1500,1500,1500
1747554565.112928,0.06,-0.36,0.03,-0.40578905108868163,-0.055632369907319255,-0.0272707695624114,2.1327206640485894,-0.6119087153633844,-0.8410836693659567,0,-12.5,0,0,0,-0.065756,1375,1377,1395,1500,1500,1500
1747554565.1989625,0.06,-0.36,0.03,-0.40578905108868163,-0.055632369907319255,-0.0272707695624114,2.1327206640485894,-0.6119087153633844,-0.8410836693659567,0,-12.5,0,0,0,-0.065756,1375,1377,1395,1500,1500,1500
1747554565.2986097,0.07,-0.24,0.0,-0.385063266221249,-0.00545415391248228,-0.04799655442984406,2.0729726743365227,-0.6045178216115276,-0.8421644135998582,0,-12.5,0,0,0,-0.065756,1375,1377,1395,1500,1500,1500
1747554565.3987298,0.07,-0.24,0.0,-0.385063266221249,-0.00545415391248228,-0.04799655442984406,2.0729726743365227,-0.6045178216115276,-0.8421644135998582,0,-12.5,0,0,0,-0.065756,1375,1377,1395,1500,1500,1500
1747554565.498635,0.05,-0.18,0.0,-0.36106498900632694,0.04036073895236887,-0.037088246604879506,2.0167358343686708,-0.6015260474028286,-0.8366982657323973,0,-0.087315,0,0,0,0,1415,1417,1435,1500,1500,1500
1747554565.5978467,-0.04,-0.17,-0.02,-0.31634092692397225,0.07635815477475191,-0.025089107997418487,1.957944345128147,-0.6027126353161893,-0.8244375572049226,0,0,0,0,0,0,1455,1457,1475,1500,1500,1500
1747554565.6821086,-0.04,-0.17,-0.02,-0.31634092692397225,0.07635815477475191,-0.025089107997418487,1.957944345128147,-0.6027126353161893,-0.8244375572049226,0,0,0,0,0,0,1495,1497,1500,1500,1500,1500
1747554565.781913,0.49,-0.11,-0.04,-0.23889194136672387,0.10035643198967395,-0.026179938779914945,1.9098934373244882,-0.6097656256267794,-0.808341887741721,0,0,0,0,0,0,1500,1500,1500,1500,1500,1500
1747554565.8819482,0.49,-0.11,-0.04,-0.23889194136672387,0.10035643198967395,-0.026179938779914945,1.9098934373244882,-0.6097656256267794,-0.808341887741721,0,0,0,0,0,0,1500,1500,1500,1500,1500,1500
1747554565.9655886,0.21,-0.25,-0.01,-0.17016960206944712,0.0818123086872342,-0.04145156973486533,1.8685775532025104,-0.6155709130236456,-0.7905781273481889,0,0,0,0,0,0,1500,1500,1500,1500,1500,1500
1747554566.0654595,0.21,-0.14,0.0,-0.1308996938995747,0.06654067773228381,-0.0545415391248228,1.8372839632829934,-0.6158151729923411,-0.7751802853224307,-3,0,0,0,0,0,1460,1539,1500,1460,1460,1460
1747554566.1650324,0.21,-0.14,0.0,-0.1308996938995747,0.06654067773228381,-0.0545415391248228,1.8372839632829934,-0.6158151729923411,-0.7751802853224307,-3,0,0,0,0,0,1460,1539,1500,1420,1426,1426
1747554566.266239,0.11,-0.1,0.02,-0.08726646259971647,0.050178215994836975,-0.06217735460229799,1.8134519058599108,-0.6110890489052759,-0.7619632505974606,-3,0,0,0,0,0,1460,1539,1500,1402,1426,1426
1747554566.36474,0.35000000000000003,-0.17,-0.03,-0.15926129424448257,0.017453292519943295,-0.06763150851478027,1.7930071361843853,-0.6037435370460755,-0.7533565218469996,-3,0,0,0,0,0,1460,1539,1500,1402,1426,1426
1747554566.4486089,0.35000000000000003,-0.17,-0.03,-0.15926129424448257,0.017453292519943295,-0.06763150851478027,1.7930071361843853,-0.6037435370460755,-0.7533565218469996,-3,0,0,0,0,0,1460,1539,1500,1402,1426,1426
1747554566.5479803,0.28,-0.21,0.0,-0.21489366415180183,-0.004363323129985824,-0.0272707695624114,1.7584987600716806,-0.5966936454397878,-0.7505642390725288,-3,0,0,0,0,0,1460,1539,1500,1402,1426,1426
1747554566.6490939,0.28,-0.21,0.0,-0.21489366415180183,-0.004363323129985824,-0.0272707695624114,1.7584987600716806,-0.5966936454397878,-0.7505642390725288,-3,0,0,0,0,0,1460,1539,1500,1402,1426,1426
1747554566.7484527,0.1,-0.21,0.0,-0.17889624832941878,-0.009817477042468103,0.055632369907319255,1.7321285308781114,-0.6017147023915271,-0.7522793571942765,-3,0,0,0,0,0,1460,1539,1500,1402,1426,1426
1747554566.8492117,-0.02,-0.16,0.12,-0.17889624832941878,-0.020725784867432664,0.10581058590215622,1.7068698797716335,-0.6150976630460054,-0.7561885415500181,-3,0,0,0,0,0,1460,1539,1500,1402,1426,1426
1747554566.932151,-0.02,-0.16,0.12,-0.17889624832941878,-0.020725784867432664,0.10581058590215622,1.7068698797716335,-0.6150976630460054,-0.7561885415500181,-3,0,0,0,0,0,1460,1539,1500,1402,1426,1426
1747554567.0320978,-0.02,-0.16,0.01,-0.16471544815696484,-0.018544123302439753,0.1559888018969932,1.6844963171460312,-0.636078137344481,-0.7630237048483823,-3,0,0,0,0,0,1460,1539,1500,1402,1426,1426
1747554567.1320693,-0.02,-0.16,0.01,-0.16471544815696484,-0.018544123302439753,0.1559888018969932,1.6844963171460312,-0.636078137344481,-0.7630237048483823,-3,0,0,0,0,0,1460,1539,1500,1402,1426,1426
1747554567.214936,0.04,-0.15,-0.07,-0.1505346479845109,-0.02181661564992912,0.19525871006686563,1.666153118314587,-0.6612737970506877,-0.7701069259587638,-3,0,0,0,0,0,1460,1539,1500,1402,1426,1426
1747554567.3149953,-0.03,-0.2,-0.04,-0.1265363707695889,-0.02399827721492203,0.22471114119426994,1.650354196848129,-0.6939053140229863,-0.7784241886092974,-3,0,0,0,0,0,1460,1539,1500,1402,1426,1426
1747554567.3990796,-0.03,-0.2,-0.04,-0.1265363707695889,-0.02399827721492203,0.22471114119426994,1.650354196848129,-0.6939053140229863,-0.7784241886092974,-3,0,0,0,0,0,1460,1539,1500,1402,1426,1426
1747554567.4991088,0.08,-0.11,0.05,-0.10581058590215622,-0.04363323129985824,0.23889194136672387,1.6401384668717722,-0.7300044064967485,-0.7891842254112174,-3,0,0,0,0,0,1460,1539,1500,1402,1426,1426
1747554567.5991173,0.08,-0.11,0.05,-0.10581058590215622,-0.04363323129985824,0.23889194136672387,1.6401384668717722,-0.7300044064967485,-0.7891842254112174,-3,0,0,0,0,0,1460,1539,1500,1402,1426,1426
1747554567.6819131,-0.15,-0.2,0.11,-0.09708393964218458,-0.050178215994836975,0.2476185876266955,1.6337595955049307,-0.7652546263628874,-0.8012527090278269,-3,0,0,0,0,0,1460,1539,1500,1402,1426,1426
1747554567.7824097,-0.05,-0.19,-0.05,-0.09926560120717749,-0.05999569303730508,0.2552544031041707,1.6289392054829928,-0.8036684043045492,-0.8164276789043939,-3,0,0,0,0,0,1460,1539,1500,1402,1426,1426
1747554567.8828769,-0.05,-0.19,-0.05,-0.09926560120717749,-0.05999569303730508,0.2552544031041707,1.6289392054829928,-0.8036684043045492,-0.8164276789043939,-3,0,0,0,0,0,1460,1539,1500,1402,1426,1426
1747554567.982606,-0.1,-0.15,0.0,-0.11017390903214205,-0.06654067773228381,0.2519819107566813,1.6258362308444203,-0.8398983068419315,-0.8334748750315096,-3,0,0,0,0,0,1460,1539,1500,1402,1426,1426
1747554568.082697,-0.1,-0.15,0.0,-0.11017390903214205,-0.06654067773228381,0.2519819107566813,1.6258362308444203,-0.8398983068419315,-0.8334748750315096,-3,0,0,0,0,0,1460,1539,1500,1402,1426,1426
1747554568.1650088,-0.12,-0.17,0.03,-0.12762720155208535,-0.07090400086226964,0.2530727415391778,1.6228651473804736,-0.8783713051322861,-0.8538120185617973,-3,0,0,0,0,0,1460,1539,1500,1402,1426,1426
1747554568.2658308,0.08,-0.05,0.17,-0.15162547876700738,-0.07417649320975901,0.2617993877991494,1.6175304462809232,-0.9174945594405195,-0.8747731596805215,-3,0,0,0,0,0,1460,1539,1500,1402,1426,1426
1747554568.364911,0.08,-0.05,0.17,-0.15162547876700738,-0.07417649320975901,0.2617993877991494,1.6175304462809232,-0.9174945594405195,-0.8747731596805215,-3,0,0,0,0,0,1460,1539,1500,1402,1426,1426
1747554568.4488256,0.03,-0.05,0.11,-0.16580627893946132,-0.0818123086872342,0.24980024919168842,1.6120311572048165,-0.954666876653701,-0.8961058530794996,-3,0,0,0,0,0,1460,1539,1500,1402,1426,1426
1747554568.5480006,0.03,-0.05,0.11,-0.16580627893946132,-0.0818123086872342,0.24980024919168842,1.6120311572048165,-0.954666876653701,-0.8961058530794996,-3,0,0,0,0,0,1460,1539,1500,1402,1426,1426
1747554568.6488526,0.02,-0.06,0.13,-0.17562375598192942,-0.08508480103472356,0.20943951023931956,1.6071102075434542,-0.9899238759607771,-0.9217060399811802,-3,0,0,0,0,0,1460,1539,1500,1402,1426,1426
1747554568.7499795,0.03,-0.1,0.11,-0.17235126363444003,-0.08944812416470939,0.1712604328519436,1.6031771155772907,-1.0187309323374958,-0.9491462233315975,-3,0,0,0,0,0,1460,1539,1500,1402,1426,1426
1747554568.848963,0.03,-0.1,0.11,-0.17235126363444003,-0.08944812416470939,0.1712604328519436,1.6031771155772907,-1.0187309323374958,-0.9491462233315975,-3,0,0,0,0,0,1460,1539,1500,1402,1426,1426
1747554568.932481,-0.08,-0.15,0.11,-0.15926129424448257,-0.08835729338221293,0.1341721862470641,1.6011881926805964,-1.040436066826134,-0.9751034441761253,-3,0,0,0,0,0,1460,1539,1500,1402,1426,1426
1747554569.0323129,0.04,-0.06,0.13,-0.1559888018969932,-0.08399397025222712,0.09599310885968812,1.600888407089826,-1.0580984277391228,-1.002902505776037,-3,0,0,0,0,0,1460,1539,1500,1402,1426,1426
1747554569.1318736,0.04,-0.06,0.13,-0.1559888018969932,-0.08399397025222712,0.09599310885968812,1.600888407089826,-1.0580984277391228,-1.002902505776037,-3,0,0,0,0,0,1460,1539,1500,1402,1426,1426
1747554569.2153723,-0.13,-0.17,0.14,-0.14508049407202864,-0.0719948316447661,0.07853981633974483,1.6014529153759018,-1.0702423570285649,-1.0282552261853262,-3,0,0,0,0,0,1460,1539,1500,1402,1426,1426
1747554569.3158514,-0.13,-0.17,0.14,-0.14508049407202864,-0.0719948316447661,0.07853981633974483,1.6014529153759018,-1.0702423570285649,-1.0282552261853262,-3,0,0,0,0,0,1460,1539,1500,1402,1426,1426
1747554569.3996396,0.04,-0.05,0.14,-0.11235557059713497,-0.07526732399225546,0.044724062082354694,1.6033430090788807,-1.079661981354224,-1.0531748902297609,-3,0,0,0,0,0,1460,1539,1500,1402,1426,1426
1747554569.498365,0.04,-0.05,0.14,-0.11235557059713497,-0.07526732399225546,0.044724062082354694,1.6033430090788807,-1.079661981354224,-1.0531748902297609,-3,0,0,0,0,0,1460,1539,1500,1402,1426,1426
1747554569.5993767,0.05,-0.12,0.06,-0.08726646259971647,-0.07635815477475191,0.006544984694978736,1.6114244625563896,-1.0826174998072735,-1.0798291787151013,-3,0,0,0,0,0,1460,1539,1500,1402,1426,1426
1747554569.682193,-0.06,-0.15,0.14,-0.0719948316447661,-0.07853981633974483,-0.011999138607461015,1.6224832530151128,-1.0819245822959118,-1.1059456074082952,-3,0,0,0,0,0,1460,1539,1500,1402,1426,1426
1747554569.781533,-0.06,-0.15,0.14,-0.0719948316447661,-0.07853981633974483,-0.011999138607461015,1.6224832530151128,-1.0819245822959118,-1.1059456074082952,-3,0,0,0,0,0,1460,1539,1500,1402,1426,1426
1747554569.8816838,-0.06,-0.15,0.16,-0.044724062082354694,-0.08726646259971647,-0.03381575425739013,1.63659717302063,-1.0777068055266754,-1.1322925774539563,-3,0,0,0,0,0,1460,1539,1500,1402,1426,1426
1747554569.9828084,-0.07,-0.18,0.15,-0.015271630954950384,-0.09053895494720585,-0.04581489286485115,1.6552948287381557,-1.0711220689067837,-1.1580038251705531,-3,0,0,0,0,0,1460,1539,1500,1402,1426,1426
1747554570.0824864,-0.07,-0.18,0.15,-0.015271630954950384,-0.09053895494720585,-0.04581489286485115,1.6552948287381557,-1.0711220689067837,-1.1580038251705531,-3,0,0,0,0,0,1460,1539,1500,1402,1426,1426
1747554570.1649468,-0.07,-0.14,0.12,-0.020725784867432664,-0.07853981633974483,-0.04908738521234052,1.6739131561989171,-1.063227897983536,-1.1825457683711134,-3,0,0,0,0,0,1460,1539,1500,1402,1426,1426
1747554570.2656815,-0.07,-0.14,0.12,-0.020725784867432664,-0.07853981633974483,-0.04908738521234052,1.6739131561989171,-1.063227897983536,-1.1825457683711134,-3,0,0,0,0,0,1460,1539,1500,1402,1426,1426
1747554570.3658426,0.05,-0.07,0.2,-0.018544123302439753,-0.07744898555724837,-0.05235987755982989,1.6876639779914824,-1.055619521429207,-1.202513263593182,-3,0,0,0,0,0,1460,1539,1500,1402,1426,1426
1747554570.4482796,-0.03,-0.11,0.16,-0.031634092692397225,-0.0719948316447661,-0.07308566242726255,1.6996103384209489,-1.045286820271285,-1.2217876736748094,-3,0,0,0,0,0,1460,1539,1500,1402,1426,1426
1747554570.5489812,-0.03,-0.11,0.16,-0.031634092692397225,-0.0719948316447661,-0.07308566242726255,1.6996103384209489,-1.045286820271285,-1.2217876736748094,-3,0,0,0,0,0,1460,1539,1500,1402,1426,1426
1747554570.6500127,0.05,-0.08,0.07,-0.031634092692397225,-0.07308566242726255,-0.08617563181722002,1.7098095112979874,-1.0321892198471334,-1.2396822026792682,-3,0,0,0,0,0,1460,1539,1500,1402,1426,1426
1747554570.7491276,0.05,-0.08,0.07,-0.031634092692397225,-0.07308566242726255,-0.08617563181722002,1.7098095112979874,-1.0321892198471334,-1.2396822026792682,-3,0,0,0,0,0,1460,1539,1500,1402,1426,1426
1747554570.848875,0.02,-0.06,0.15,-0.02945243112740431,-0.06872233929727672,-0.09381144729469522,1.7177060747500028,-1.0185149880296436,-1.2546863361324538,-3,0,0,0,0,0,1460,1539,1500,1402,1426,1426
1747554570.9332814,-0.07,-0.13,0.04,-0.039269908169872414,-0.07853981633974483,-0.09490227807719166,1.7254188147776792,-1.0031290305579224,-1.2707712254367396,-3,0,0,0,0,0,1460,1539,1500,1402,1426,1426
1747554571.033151,-0.07,-0.13,0.04,-0.039269908169872414,-0.07853981633974483,-0.09490227807719166,1.7254188147776792,-1.0031290305579224,-1.2707712254367396,-3,0,0,0,0,0,1460,1539,1500,1402,1426,1426
1747554571.131869,-0.05,-0.14,0.13,-0.03599741582238305,-0.07635815477475191,-0.08617563181722002,1.7341175460414635,-0.987683359650345,-1.2881198804235563,-3,0,0,0,0,0,1460,1539,1500,1402,1426,1426
1747554571.2324452,0.02,-0.06,0.17,-0.038179077387375956,-0.07635815477475191,-0.06981317007977318,1.7424209522700944,-0.9747570110560966,-1.3047890852437123,0,0,0,0,0,0,1500,1500,1500,1442,1466,1466
1747554571.332353,0.02,-0.06,0.17,-0.038179077387375956,-0.07635815477475191,-0.06981317007977318,1.7424209522700944,-0.9747570110560966,-1.3047890852437123,3,0,0,0,0,0,1539,1460,1500,1482,1506,1506
1747554571.4155786,0.4,0.03,0.09,-0.020725784867432664,-0.06872233929727672,-0.09817477042468103,1.7484384838463893,-0.9619663855384014,-1.3203931502310855,3,0,0,0,0,0,1539,1460,1500,1522,1546,1546
1747554571.5155897,0.4,0.03,0.09,-0.020725784867432664,-0.06872233929727672,-0.09817477042468103,1.7484384838463893,-0.9619663855384014,-1.3203931502310855,3,0,0,0,0,0,1539,1460,1500,1562,1566,1566
1747554571.6156416,0.08,0.22,-0.04,0.08072147790473774,-0.06981317007977318,-0.1734420944169365,1.760894748226303,-0.9416524198813033,-1.3299464354680333,3,0,0,0,0,0,1539,1460,1500,1587,1566,1566
1747554571.6997874,0.02,-0.1,0.09,0.3883357585687383,-0.08835729338221293,-0.21925698728178766,1.798997708570921,-0.9092548181373151,-1.3364662592134324,3,0,0,0,0,0,1539,1460,1500,1587,1566,1566
1747554571.7993977,0.02,-0.1,0.09,0.3883357585687383,-0.08835729338221293,-0.21925698728178766,1.798997708570921,-0.9092548181373151,-1.3364662592134324,3,0,0,0,0,0,1539,1460,1500,1587,1566,1566
1747554571.8991437,0.21,0.16,0.06,0.557414529855689,-0.11453723216212788,-0.24216443371421323,1.8837620355818536,-0.8712500909406496,-1.344906503182316,3,0,0,0,0,0,1539,1460,1500,1587,1566,1566
1747554572.0018015,0.21,0.16,0.06,0.557414529855689,-0.11453723216212788,-0.24216443371421323,1.8837620355818536,-0.8712500909406496,-1.344906503182316,3,0,0,0,0,0,1539,1460,1500,1587,1566,1566
1747554572.0981398,0.01,0.31,0.1,0.4723297288209654,-0.09817477042468103,-0.30325095753401476,1.9684773025886,-0.8252769312488858,-1.3461380496934359,3,0,0,0,0,0,1539,1460,1500,1587,1566,1566
1747554572.182535,0.11,0.2,0.12,0.39706240482870997,-0.07308566242726255,-0.3392483733563978,2.02012152765514,-0.7740357472959467,-1.3301833934218716,3,0,0,0,0,0,1539,1460,1500,1587,1566,1566
1747554572.2820215,0.11,0.2,0.12,0.39706240482870997,-0.07308566242726255,-0.3392483733563978,2.02012152765514,-0.7740357472959467,-1.3301833934218716,3,0,0,0,0,0,1539,1460,1500,1587,1566,1566
1747554572.3825002,0.11,0.24,0.09,0.31852258848896514,-0.061086523819801536,-0.37742745074377376,2.055302176712437,-0.7227991148604002,-1.3079466595695808,3,0,0,0,0,0,1539,1460,1500,1587,1566,1566
1747554572.4790678,0.06,0.18,0.17,0.24434609527920614,-0.06763150851478027,-0.421060682043632,2.0786038569343663,-0.6635953821512881,-1.2792851628090902,3,0,0,0,0,0,1539,1460,1500,1587,1566,1566
1747554572.5827827,0.06,0.18,0.17,0.24434609527920614,-0.06763150851478027,-0.421060682043632,2.0786038569343663,-0.6635953821512881,-1.2792851628090902,3,0,0,0,0,0,1539,1460,1500,1587,1566,1566
1747554572.6658998,0.14,0.2,0.01,0.19634954084936207,-0.07417649320975901,-0.4505131131710363,2.092286069947048,-0.6038515416055403,-1.2506872028814637,3,0,0,0,0,0,1539,1460,1500,1587,1566,1566
1747554572.7652893,0.14,0.2,0.01,0.19634954084936207,-0.07417649320975901,-0.4505131131710363,2.092286069947048,-0.6038515416055403,-1.2506872028814637,3,0,0,0,0,0,1539,1460,1500,1587,1566,1566
1747554572.8649547,0.02,0.22,0.11,0.17453292519943295,-0.0818123086872342,-0.46796640569097964,2.1029144026366917,-0.536503876059407,-1.2198957250000415,3,0,0,0,0,0,1539,1460,1500,1587,1566,1566
1747554572.9480698,0.06,0.15,0.04,0.17016960206944712,-0.07853981633974483,-0.48105637508093707,2.1129106340688013,-0.4674865298057146,-1.188108174306971,3,0,0,0,0,0,1539,1460,1500,1587,1566,1566
1747554573.0490785,0.06,0.15,0.04,0.17016960206944712,-0.07853981633974483,-0.48105637508093707,2.1129106340688013,-0.4674865298057146,-1.188108174306971,3,0,0,0,0,0,1539,1460,1500,1587,1566,1566
1747554573.1490278,0.03,0.14,0.13,0.16580627893946132,-0.06981317007977318,-0.4919646829059016,2.1225732671068034,-0.40216778829722577,-1.1571406756810017,3,0,0,0,0,0,1539,1460,1500,1587,1566,1566
1747554573.2482085,0.03,0.14,0.13,0.16580627893946132,-0.06981317007977318,-0.4919646829059016,2.1225732671068034,-0.40216778829722577,-1.1571406756810017,3,0,0,0,0,0,1539,1460,1500,1587,1566,1566
1747554573.3483129,0.04,0.17,0.15,0.17671458676442586,-0.06217735460229799,-0.5039638215133626,2.1352166762601446,-0.3322233134645284,-1.1224727664271374,3,0,0,0,0,0,1539,1460,1500,1587,1566,1566
1747554573.4324095,0.08,0.1,0.0,0.17889624832941878,-0.05235987755982989,-0.507236313860852,2.1500854947498333,-0.2624655911874757,-1.0852160082460267,3,0,0,0,0,0,1539,1460,1500,1587,1566,1566
1747554573.5313988,0.08,0.1,0.0,0.17889624832941878,-0.05235987755982989,-0.507236313860852,2.1500854947498333,-0.2624655911874757,-1.0852160082460267,3,0,0,0,0,0,1539,1460,1500,1587,1566,1566
1747554573.6312742,-0.07,0.12,0.15,0.18544123302439752,-0.039269908169872414,-0.495237175253391,2.166688415888044,-0.1989323508717168,-1.0493483801232484,3,0,0,0,0,0,1539,1460,1500,1587,1566,1566
1747554573.7289915,0.16,0.13,0.1,0.1908953869368798,-0.019634954084936207,-0.47669305195095124,2.187534902479529,-0.13490380447439598,-1.0097830950046114,3,0,0,0,0,0,1539,1460,1500,1587,1566,1566
1747554573.8314002,0.16,0.13,0.1,0.1908953869368798,-0.019634954084936207,-0.47669305195095124,2.187534902479529,-0.13490380447439598,-1.0097830950046114,3,0,0,0,0,0,1539,1460,1500,1587,1566,1566
1747554573.9157274,0.08,0.05,0.06,0.20616701789183017,-0.011999138607461015,-0.45814892864851153,2.2110491296719488,-0.07970220015054864,-0.9713969918866097,3,0,0,0,0,0,1539,1460,1500,1587,1566,1566
1747554574.0266538,0.08,0.05,0.06,0.20616701789183017,-0.011999138607461015,-0.45814892864851153,2.2110491296719488,-0.07970220015054864,-0.9713969918866097,3,0,0,0,0,0,1539,1460,1500,1587,1566,1566
1747554574.1327922,0.13,0.09,0.08,0.22907446432425577,0.015271630954950384,-0.4363323129985824,2.241197128804441,-0.025809180456341438,-0.9291748732409054,3,0,0,0,0,0,1539,1460,1500,1587,1566,1566
1747554574.2325246,-0.02,0.12,0.1,0.2399827721492203,0.02945243112740431,-0.4079707126536745,2.2765640728226466,0.021593855594571745,-0.8848119568593225,3,0,0,0,0,0,1539,1460,1500,1587,1566,1566
1747554574.3335853,-0.02,0.12,0.1,0.2399827721492203,0.02945243112740431,-0.4079707126536745,2.2765640728226466,0.021593855594571745,-0.8848119568593225,3,0,0,0,0,0,1539,1460,1500,1587,1566,1566
1747554574.4157822,0.04,0.09,0.09,0.24652775684419906,0.04799655442984406,-0.39051742013373125,2.3128279791452173,0.06077674781242617,-0.8418240392457688,0,0,0,0,0,0,1500,1500,1500,1547,1526,1526
1747554574.5158472,0.04,0.09,0.09,0.24652775684419906,0.04799655442984406,-0.39051742013373125,2.3128279791452173,0.06077674781242617,-0.8418240392457688,0,0,0,0,0,0,1500,1500,1500,1507,1500,1500
1747554574.61558,-0.2,-0.12,0.15,0.2476185876266955,0.05999569303730508,-0.3719732968312915,2.3537633919051606,0.09742378514624114,-0.794777442756315,0,12.294457,0,0,0,0,1540,1540,1540,1500,1500,1500
1747554574.699071,-0.15,-0.06,0.09,0.18980455615438332,0.05781403147231216,-0.29561514205653955,2.3969694682593246,0.12132479803116424,-0.7683265084068117,0,12.5,0,0,0,0,1580,1580,1580,1500,1500,1500
1747554574.7989337,-0.15,-0.06,0.09,0.18980455615438332,0.05781403147231216,-0.29561514205653955,2.3969694682593246,0.12132479803116424,-0.7683265084068117,0,12.5,0,0,0,0,1610,1607,1593,1500,1500,1500
1747554574.8987558,0.01,0.02,0.04,0.13853550937704992,0.050178215994836975,-0.2399827721492203,2.4209634864864675,0.14654805267700405,-0.7172422444971791,0,12.5,0,0,0,0,1610,1607,1593,1500,1500,1500
1747554574.999829,0.08,0.23,-0.05,0.09926560120717749,0.0818123086872342,-0.15707963267948966,2.4430112178991337,0.15996342202248903,-0.6863952837740982,0,12.5,0,0,0,0,1610,1607,1593,1500,1500,1500
1747554575.0989118,0.08,0.23,-0.05,0.09926560120717749,0.0818123086872342,-0.15707963267948966,2.4430112178991337,0.15996342202248903,-0.6863952837740982,0,12.5,0,0,0,0,1610,1607,1593,1500,1500,1500
1747554575.1821647,0.43,0.02,-0.07,0.1308996938995747,0.07853981633974483,-0.05781403147231216,2.463517944489277,0.15207151952039422,-0.6654672829108961,0,12.5,0,0,0,0,1610,1607,1593,1500,1500,1500
1747554575.2828214,0.43,0.02,-0.07,0.1308996938995747,0.07853981633974483,-0.05781403147231216,2.463517944489277,0.15207151952039422,-0.6654672829108961,0,12.5,0,0,0,0,1610,1607,1593,1500,1500,1500
1747554575.3816118,0.07,0.03,0.14,0.13962634015954636,-0.04908738521234052,-0.08944812416470939,2.485151742499215,0.1544066109241442,-0.6552173160311998,0,12.5,0,0,0,0,1610,1607,1593,1500,1500,1500
1747554575.4822514,0.05,0.04,-0.02,0.11999138607461016,-0.14944381720201447,-0.08399397025222712,2.505525962077908,0.17529921361239312,-0.6547248569728031,0,12.5,0,0,0,0,1610,1607,1593,1500,1500,1500
1747554575.582279,0.05,0.04,-0.02,0.11999138607461016,-0.14944381720201447,-0.08399397025222712,2.505525962077908,0.17529921361239312,-0.6547248569728031,0,12.5,0,0,0,0,1610,1607,1593,1500,1500,1500
1747554575.6667926,0.0,-0.08,0.18,0.10144726277217041,-0.20180369476184434,-0.07853981633974483,2.51960966007964,0.20361691423232803,-0.6605092670599495,0,12.5,0,0,0,0,1610,1607,1593,1500,1500,1500
1747554575.765264,0.0,-0.08,0.18,0.10144726277217041,-0.20180369476184434,-0.07853981633974483,2.51960966007964,0.20361691423232803,-0.6605092670599495,0,12.5,0,0,0,0,1610,1607,1593,1500,1500,1500
1747554575.8668957,-0.1,0.1,0.23,0.09708393964218458,-0.23889194136672387,-0.06435901616729091,2.5319740059808344,0.23923586284503387,-0.6718198354781557,0,12.5,0,0,0,0,1610,1607,1593,1500,1500,1500
1747554575.9670482,-0.03,-0.03,0.16,0.09381144729469522,-0.25743606466916363,-0.05235987755982989,2.542257390070533,0.2764317102825726,-0.6869479049848538,0,12.5,0,0,0,0,1610,1607,1593,1500,1500,1500
1747554576.0656228,-0.03,-0.03,0.16,0.09381144729469522,-0.25743606466916363,-0.05235987755982989,2.542257390070533,0.2764317102825726,-0.6869479049848538,0,12.5,0,0,0,0,1610,1607,1593,1500,1500,1500
1747554576.1490104,-0.08,-0.06,0.33,0.05890486225480862,-0.2585268954516601,-0.04145156973486533,2.547887297590132,0.3118719738679187,-0.7032711671765424,0,12.5,0,0,0,0,1610,1607,1593,1500,1500,1500
1747554576.2485526,-0.08,-0.02,0.24,0.019634954084936207,-0.2476185876266955,-0.039269908169872414,2.5472812449474755,0.3479919647074873,-0.7213558035856039,0,12.5,0,0,0.43803,0,1610,1607,1593,1500,1540,1540
1747554576.348014,-0.08,-0.02,0.24,0.019634954084936207,-0.2476185876266955,-0.039269908169872414,2.5472812449474755,0.3479919647074873,-0.7213558035856039,0,12.5,0,0,0.56,0,1610,1607,1593,1500,1573,1573
1747554576.4325259,-0.05,0.02,0.33,-0.003272492347489368,-0.2454369260617026,-0.032724923474893676,2.5418661827844793,0.38273522200078774,-0.7394659084533127,0,12.5,0,0,0.56,0,1610,1607,1593,1500,1573,1573
1747554576.5324898,-0.05,0.02,0.33,-0.003272492347489368,-0.2454369260617026,-0.032724923474893676,2.5418661827844793,0.38273522200078774,-0.7394659084533127,0,12.5,0,0,0.56,0,1610,1607,1593,1500,1573,1573
1747554576.631419,-0.12,0.08,0.15,0.10799224746714914,-0.23452861823673804,-0.037088246604879506,2.5382844287935145,0.41483058285731433,-0.7565137534159906,0,12.5,0,0,0.56,0,1610,1607,1593,1500,1573,1573
1747554576.7155616,-0.03,0.06,0.19,0.36324665057131983,-0.2650718801466388,-0.019634954084936207,2.566031448318865,0.45132127743909045,-0.7769660348537009,0,12.5,0,0,0.56,0,1610,1607,1593,1500,1573,1573
1747554576.8152938,-0.03,0.06,0.19,0.36324665057131983,-0.2650718801466388,-0.019634954084936207,2.566031448318865,0.45132127743909045,-0.7769660348537009,0,12.5,0,0,0.56,0,1610,1607,1593,1500,1573,1573
1747554576.8986382,-0.02,0.11,0.27,0.4930555136883981,-0.28579766501407144,0.016362461737446838,2.6217167988800703,0.4892506486138968,-0.8034465699845319,0,12.5,0,0,0.56,0,1610,1607,1593,1500,1573,1573
1747554576.9984436,-0.02,0.11,0.27,0.4930555136883981,-0.28579766501407144,0.016362461737446838,2.6217167988800703,0.4892506486138968,-0.8034465699845319,0,12.5,0,0,0.56,0,1610,1607,1593,1500,1573,1573
1747554577.097974,-0.02,0.09,0.09,0.5170537909033202,-0.32288591161895097,0.032724923474893676,2.68333088449098,0.5296222009453135,-0.835454068789638,0,12.5,0,0,0.56,0,1610,1607,1593,1500,1573,1573
1747554577.1818953,-0.05,0.09,0.17,0.48432886742842646,-0.3621558197888234,0.05235987755982989,2.7374040965310824,0.573465663839588,-0.8680114593508328,0,12.5,0,0,0.56,0,1610,1607,1593,1500,1573,1573
1747554577.282226,-0.05,0.09,0.17,0.48432886742842646,-0.3621558197888234,0.05235987755982989,2.7374040965310824,0.573465663839588,-0.8680114593508328,0,12.5,0,0,0.56,0,1610,1607,1593,1500,1573,1573
1747554577.3815749,-0.06,0.22,0.1,0.4559672670835186,-0.3937899124812206,0.07744898555724837,2.7853660076672333,0.6250781345733616,-0.9074570999847286,0,12.5,0,0,0.56,0,1610,1607,1593,1500,1573,1573
1747554577.4655118,-0.06,0.22,0.1,0.4559672670835186,-0.3937899124812206,0.07744898555724837,2.7853660076672333,0.6250781345733616,-0.9074570999847286,0,12.5,0,0,0.56,0,1610,1607,1593,1500,1573,1573
1747554577.5648866,0.06,0.12,0.17,0.4505131131710363,-0.42215151282612845,0.09599310885968812,2.823191010336638,0.6778034996028711,-0.949084265440159,0,12.5,0,0,0.56,6.1e-05,1610,1607,1593,1500,1573,1573
1747554577.6487303,-0.09,0.15,0.21,0.43524148221608594,-0.4385139745635753,0.11671889372712078,2.8573054384341323,0.7376631963655761,-0.9986357682965,0,2.683926,0,0,0.56,0.47832,1584,1567,1553,1500,1573,1573
1747554577.7485209,-0.09,0.15,0.21,0.43524148221608594,-0.4385139745635753,0.11671889372712078,2.8573054384341323,0.7376631963655761,-0.9986357682965,0,0.146808,0,0,0.56,0.7,1581,1527,1513,1500,1573,1573
1747554577.8485668,-0.55,0.15,0.26,0.4341506514335895,-0.4494222823885399,0.15707963267948966,2.884418988641219,0.7947723105717824,-1.04928230876178,0,0.031982,0,0,0.56,0.7,1580,1487,1500,1500,1573,1573
1747554577.9314308,-0.55,0.15,0.26,0.4341506514335895,-0.4494222823885399,0.15707963267948966,2.884418988641219,0.7947723105717824,-1.04928230876178,0,0.031982,0,0,0.56,0.7,1580,1447,1500,1500,1573,1573
1747554578.0313716,-0.4,0.23,0.08,0.4657847441259867,-0.4559672670835186,0.24325526449670967,2.899435383169545,0.8599773098390988,-1.1206630311923749,0,0.01451,0,0,0.56,0.7,1580,1409,1500,1500,1573,1573
1747554578.119166,-0.18,0.11,0.16,0.5203262832508095,-0.4243331743911214,0.40251655874119224,2.894002602981042,0.9163618715213134,-1.2259678000680845,0,0,0,0,0.56,0.7,1580,1409,1500,1500,1573,1573
1747554578.2153358,-0.18,0.11,0.16,0.5203262832508095,-0.4243331743911214,0.40251655874119224,2.894002602981042,0.9163618715213134,-1.2259678000680845,0,0,0,0,0.56,0.7,1580,1409,1500,1500,1573,1573
1747554578.3136022,-0.05,0.13,0.04,0.5421428989007386,-0.3239767424014474,0.6566801310628665,2.843416362297211,0.9496198379070203,-1.3900769562892499,0,4.681449,0,-0.002423,0.56,0.431741,1592,1449,1540,1500,1573,1573
1747554578.3990738,-0.05,0.13,0.04,0.5421428989007386,-0.3239767424014474,0.6566801310628665,2.843416362297211,0.9496198379070203,-1.3900769562892499,0,12.5,0,0,0.024098,0,1610,1489,1580,1500,1533,1533
1747554578.4987876,0.12,0.15,0.03,0.5803219762881145,-0.2650718801466388,0.8115781021773633,2.760784231840547,0.9540277525904455,-1.5906216036451013,0,12.5,0,0,0,0,1610,1529,1593,1500,1500,1500
1747554578.59942,0.38,0.1,-0.01,0.43196898986859655,-0.27052603405912107,0.8977537339945832,2.6568793278104685,0.9362063893865957,-1.825643423738462,0,12.5,0,0,0,0,1610,1569,1593,1500,1500,1500
1747554578.68246,0.38,0.1,-0.01,0.43196898986859655,-0.27052603405912107,0.8977537339945832,2.6568793278104685,0.9362063893865957,-1.825643423738462,0,12.5,0,0.073032,0.001938,0,1610,1607,1593,1500,1500,1500
1747554578.781612,0.3,0.26,0.01,0.13526301702956053,-0.13308135546456762,0.9926560120717749,2.5205346277647407,0.8900622143057453,-2.0464151867934524,0,12.5,0,0.7,0.07099,0,1633,1630,1553,1500,1538,1538
1747554578.8812246,0.3,0.26,0.01,0.13526301702956053,-0.13308135546456762,0.9926560120717749,2.5205346277647407,0.8900622143057453,-2.0464151867934524,0,12.5,0,0.7,0.07099,0,1633,1630,1513,1500,1538,1538
1747554578.964876,0.8,0.51,-0.25,0.02399827721492203,-0.0916297857297023,1.0079276430267252,2.3853250373913943,0.8014071235567575,-2.240763557531245,0,12.5,0,0.7,0.07099,0,1633,1630,1473,1500,1538,1538
1747554579.0612872,0.76,0.16,-0.11,0.04799655442984406,-0.33161255787892263,0.8443030256522569,2.269084367033905,0.7114655138982502,-2.416539797984944,0,12.5,0,0.7,0.034642,0,1633,1630,1460,1500,1500,1500
1747554579.147743,0.76,0.16,-0.11,0.04799655442984406,-0.33161255787892263,0.8443030256522569,2.269084367033905,0.7114655138982502,-2.416539797984944,0,12.5,0,0.7,0.028088,0,1633,1630,1460,1500,1500,1500
1747554579.247356,0.53,-0.05,-0.04,0.12871803233458182,-0.4854196982109229,0.6610434541928523,2.185159153884085,0.6508051390070375,-2.5735456191994732,0,12.5,0,0.7,0.028088,-0.000215,1633,1630,1460,1500,1500,1500
1747554579.3482442,0.53,-0.05,-0.04,0.12871803233458182,-0.4854196982109229,0.6610434541928523,2.185159153884085,0.6508051390070375,-2.5735456191994732,0,12.5,0,0.7,0.028088,-0.00489,1633,1631,1460,1500,1500,1500
1747554579.4313157,0.21,0.18,-0.05,0.12980886311707826,-0.5748678223756323,0.5781403147231217,2.1153175718457695,0.613203445457335,-2.723455540212186,0,12.5,0,0.7,0.028088,-0.00489,1633,1631,1460,1500,1500,1500
1747554579.530084,0.21,0.34,0.0,0.18980455615438332,-0.6239552075879728,0.4799655442984406,2.058099820485702,0.5860715210463043,-2.863251487266985,0,12.5,0,0.7,0.028088,-0.00489,1633,1631,1460,1500,1500,1500
1747554579.631336,0.21,0.34,0.0,0.18980455615438332,-0.6239552075879728,0.4799655442984406,2.058099820485702,0.5860715210463043,-2.863251487266985,0,12.5,0,0.7,0.028088,-0.00489,1633,1631,1460,1500,1500,1500
1747554579.714969,-0.03,0.33,0.06,0.24870941840919197,-0.6294093615004551,0.41560652813114973,2.01404933759419,0.565836360436659,-3.005451399667209,0,12.5,0,0.7,0.028088,-0.00489,1633,1631,1460,1500,1500,1500
1747554579.8148031,-0.03,0.33,0.06,0.24870941840919197,-0.6294093615004551,0.41560652813114973,2.01404933759419,0.565836360436659,-3.005451399667209,0,12.5,0,0.7,0.028088,-0.00489,1633,1631,1460,1500,1500,1500
1747554579.8984609,0.43,0.05,-0.01,0.30870511144649704,-0.6326818538479445,0.35779249665883756,1.9877749202604194,0.5512820867881727,-3.131781573059291,0,2.496058,0,0.7,0.018688,0,1593,1591,1420,1500,1500,1500
1747554579.9977999,0.43,0.05,-0.01,0.30870511144649704,-0.6326818538479445,0.35779249665883756,1.9877749202604194,0.5512820867881727,-3.131781573059291,0,-0.169949,0,0.283801,0.00318,0,1553,1551,1429,1500,1500,1500
1747554580.0980988,0.41000000000000003,-0.18,0.08,0.33815754257390135,-0.6010477611555473,0.3141592653589793,1.9717768473272748,0.5399525658546713,3.024779885435935,0,-12.5,0,0,0,-0.010913,1513,1511,1395,1500,1500,1500
1747554580.1812954,-0.68,0.32,0.01,0.25743606466916363,-0.4363323129985824,0.2912518189265537,1.9623943658397598,0.5287384501014878,2.9182795012687763,0,-12.5,0,0,0,-0.002421,1473,1471,1395,1500,1500,1500
1747554580.2813964,-0.68,0.32,0.01,0.25743606466916363,-0.4363323129985824,0.2912518189265537,1.9623943658397598,0.5287384501014878,2.9182795012687763,0,-12.5,0,0,0,-0.002421,1433,1431,1395,1500,1500,1500
1747554580.381732,-0.26,0.07,-0.1,0.21162117180431245,-0.40033489717619936,0.27379852640661045,1.9551477359444853,0.514202393562835,2.8326637800611976,0,-12.5,0,0,0,-0.002421,1393,1391,1395,1500,1500,1500
1747554580.4651616,-0.26,0.07,-0.1,0.21162117180431245,-0.40033489717619936,0.27379852640661045,1.9551477359444853,0.514202393562835,2.8326637800611976,0,-12.5,0,0,0,-0.002421,1375,1377,1395,1500,1500,1500
1747554580.5657547,-0.35000000000000003,-0.01,-0.24,0.21925698728178766,-0.495237175253391,0.272707695624114,1.944187420237699,0.5024696583954865,2.740220515006941,0,-12.5,0,0,0,-0.002421,1375,1377,1395,1500,1500,1500
1747554580.6654515,-0.52,-0.21,-0.04,0.1810779098944117,-0.49741883681838395,0.2999784651865254,1.9296692183202848,0.4904666967893303,2.6467359807501123,0,-12.5,0,0,0,-0.002421,1375,1377,1395,1500,1500,1500
1747554580.764573,-0.52,-0.21,-0.04,0.1810779098944117,-0.49741883681838395,0.2999784651865254,1.9296692183202848,0.4904666967893303,2.6467359807501123,0,-12.5,0,0,0,-0.002421,1375,1377,1395,1500,1500,1500
1747554580.8649943,-0.29,0.07,-0.06,0.05999569303730508,-0.28579766501407144,0.33815754257390135,1.9098635742734142,0.4682348892972042,2.5645084957594633,0,-12.5,0,0,0,-0.002421,1375,1377,1395,1500,1500,1500
1747554580.9478734,-0.1,-0.29,-0.28,-0.017453292519943295,-0.17889624832941878,0.32179508083645453,1.8919685546541332,0.43508456902159576,2.5136667542991864,0,-12.5,0,0,0,-0.002421,1375,1377,1395,1500,1500,1500
1747554581.0487761,-0.1,-0.29,-0.28,-0.017453292519943295,-0.17889624832941878,0.32179508083645453,1.8919685546541332,0.43508456902159576,2.5136667542991864,0,-12.5,0,0,0,-0.002421,1375,1377,1395,1500,1500,1500
1747554581.1484172,-0.02,-0.17,-0.06,-0.06544984694978735,-0.09381144729469522,0.2530727415391778,1.8731509778963622,0.39978440910348595,2.4783420040070725,0,-12.5,0,0,0,-0.002421,1375,1377,1395,1500,1500,1500
1747554581.2487483,-0.02,-0.17,-0.06,-0.06544984694978735,-0.09381144729469522,0.2530727415391778,1.8731509778963622,0.39978440910348595,2.4783420040070725,0,-12.5,0,0,0,-0.002421,1375,1377,1395,1500,1500,1500
1747554581.348464,0.07,-0.16,-0.14,-0.13199052468207118,-0.04254240051736178,0.19416787928436915,1.851159149114634,0.3717314853652398,2.4588376090632997,0,-12.5,0,0,0,-0.002421,1375,1377,1395,1500,1500,1500
1747554581.4317973,0.22,-0.23,-0.04,-0.17780541754692233,0.019634954084936207,0.14508049407202864,1.824215353431761,0.3467821021895469,2.449958056914334,0,-12.5,0,0,0,-0.002421,1375,1377,1395,1500,1500,1500
1747554581.5313365,0.22,-0.23,-0.04,-0.17780541754692233,0.019634954084936207,0.14508049407202864,1.824215353431761,0.3467821021895469,2.449958056914334,0,-12.5,0,0,0,-0.002421,1375,1377,1395,1500,1500,1500
1747554581.6314535,0.0,0.01,-0.01,-0.17235126363444003,0.06654067773228381,0.13526301702956053,1.7980162767418901,0.3247899638161469,2.451520541388794,0,-12.5,0,0,0,-0.002421,1375,1377,1395,1500,1500,1500
1747554581.7155364,0.0,0.01,-0.01,-0.17235126363444003,0.06654067773228381,0.13526301702956053,1.7980162767418901,0.3247899638161469,2.451520541388794,0,-12.5,0,0,0,-0.002421,1375,1377,1395,1500,1500,1500
1747554581.8157332,0.11,0.0,0.0,-0.18762289458939044,0.15489797111449674,0.16144295580947549,1.7735534984271528,0.29824863060942447,2.46493497531843,0,-12.5,0,0,0,-0.002421,1375,1377,1395,1500,1500,1500
1747554581.9143324,0.16,-0.19,0.07,-0.1734420944169365,0.23343778745424157,0.1538071403320003,1.755434050314061,0.26928187472568527,2.4895678097207763,0,-12.5,0,0,0,-0.002421,1375,1377,1395,1500,1500,1500
1747554582.0153513,0.16,-0.19,0.07,-0.1734420944169365,0.23343778745424157,0.1538071403320003,1.755434050314061,0.26928187472568527,2.4895678097207763,0,-12.5,0,0,0,-0.002421,1375,1377,1395,1500,1500,1500
1747554582.1141827,0.17,-0.14,0.04,-0.15489797111449674,0.3119776037939864,0.13962634015954636,1.7404031984682935,0.23940447692138078,-0.2697202048738102,0,-12.5,0,0,0,-0.002421,1375,1377,1395,1500,1500,1500
1747554582.1975496,0.08,-0.14,-0.01,-0.13199052468207118,0.3392483733563978,0.12326387842209953,1.7295607499637988,0.2133509700105133,-0.21888394246478016,0,-12.5,0,0,0,-0.001789,1375,1377,1395,1500,1500,1500
1747554582.2986894,0.08,-0.14,-0.01,-0.13199052468207118,0.3392483733563978,0.12326387842209953,1.7295607499637988,0.2133509700105133,-0.21888394246478016,0,-12.5,0,0,0,-0.001789,1375,1377,1395,1500,1500,1500
1747554582.3981295,0.16,-0.15,-0.09,-0.08835729338221293,0.32834006553143325,0.10471975511965978,1.7005279536167386,0.1856442807264358,-0.16966604770823718,0,-12.5,0,0,0,-0.001789,1375,1377,1395,1500,1500,1500
1747554582.4984756,0.16,-0.15,-0.09,-0.08835729338221293,0.32834006553143325,0.10471975511965978,1.7005279536167386,0.1856442807264358,-0.16966604770823718,0,-12.5,0,0,0,-0.001789,1375,1377,1395,1500,1500,1500
1747554582.5980606,0.02,0.05,0.12,-0.11453723216212788,0.3337942194439155,0.08072147790473774,1.7153315708995363,0.16566671955200604,-0.12076164878563214,0,-12.5,0,0,0,-0.001789,1375,1377,1395,1500,1500,1500
1747554582.6822853,0.0,0.12,0.05,-0.13744467859455345,0.3370667117914049,0.07417649320975901,1.7036585316118702,0.14802731849686915,-0.07360338220401443,0,-12.5,0,0,0,-0.001789,1375,1377,1395,1500,1500,1500
1747554582.7812655,0.0,0.12,0.05,-0.13744467859455345,0.3370667117914049,0.07417649320975901,1.7036585316118702,0.14802731849686915,-0.07360338220401443,0,-12.5,0,0,0,-0.001789,1375,1377,1395,1500,1500,1500
1747554582.8822231,0.06,-0.31,0.17,-0.1407171709420428,0.3327033886614191,0.08072147790473774,1.6886439596436864,0.12894815117986355,-0.022277940071042383,0,-12.5,0,0.055557,0.000374,-0.001789,1375,1377,1395,1500,1500,1500
1747554582.9813704,-0.03,-0.28,0.16,-0.12435470920459599,0.3174317577064687,0.08617563181722002,1.673907874527616,0.11042564794040963,0.027086158495819895,0,-12.5,0,0.7,0.026054,-0.001789,1405,1408,1355,1500,1500,1500
1747554583.081292,-0.03,-0.28,0.16,-0.12435470920459599,0.3174317577064687,0.08617563181722002,1.673907874527616,0.11042564794040963,0.027086158495819895,0,-12.5,0,0.7,0.028088,-0.001789,1405,1408,1340,1500,1500,1500
1747554583.1649473,-0.02,0.02,-0.17,-0.032724923474893676,0.16253378659197193,0.0719948316447661,1.6648659030769195,0.09545742474400865,0.06679475625787977,0,-12.5,0,0.7,0.028088,-0.001789,1405,1408,1340,1500,1500,1500
1747554583.2648911,-0.02,0.02,-0.17,-0.032724923474893676,0.16253378659197193,0.0719948316447661,1.6648659030769195,0.09545742474400865,0.06679475625787977,0,-12.5,0,0.7,0.028088,-0.001789,1405,1408,1340,1500,1500,1500
1747554583.3638663,-0.1,-0.08,-0.09,0.05781403147231216,-0.032724923474893676,0.07744898555724837,1.6680703085351098,0.08313567223513202,0.07637330437917489,0,-12.5,0,0.7,0.028088,-0.001789,1405,1408,1340,1500,1500,1500
1747554583.4481728,-0.1,-0.08,-0.09,0.05781403147231216,-0.032724923474893676,0.07744898555724837,1.6680703085351098,0.08313567223513202,0.07637330437917489,0,-12.5,0,0.7,0.028088,-0.001789,1405,1408,1340,1500,1500,1500
1747554583.5474308,-0.03,-0.05,-0.06,0.10690141668465268,-0.18653206380689397,0.09381144729469522,1.678819875857409,0.07271477045773538,0.058174975290980216,0,-12.5,0,0.7,0.028088,-0.001789,1405,1408,1340,1500,1500,1500
1747554583.647524,0.05,0.08,-0.11,0.12435470920459599,-0.284706834231575,0.11999138607461016,1.6945384550134377,0.06055344546415485,0.019499303408586875,0,-12.5,0,0.7,0.028088,-0.001789,1405,1408,1340,1500,1500,1500
1747554583.7313828,0.05,0.08,-0.11,0.12435470920459599,-0.284706834231575,0.11999138607461016,1.6945384550134377,0.06055344546415485,0.019499303408586875,0,-12.5,0,0.7,0.028088,-0.001789,1405,1408,1340,1500,1500,1500
1747554583.8315012,0.01,-0.13,-0.02,0.11344640137963143,-0.34579335805137656,0.16907877128695067,1.709795883183494,0.043810776430627495,-0.032607647811072574,0,-12.5,0,0.7,0.028088,-0.001789,1405,1408,1340,1500,1500,1500
1747554583.9148936,0.01,-0.13,-0.02,0.11344640137963143,-0.34579335805137656,0.16907877128695067,1.709795883183494,0.043810776430627495,-0.032607647811072574,0,-12.5,0,0.7,0.028088,-0.001789,1405,1408,1340,1500,1500,1500
1747554584.0145178,-0.01,0.0,-0.17,0.12326387842209953,-0.39051742013373125,0.17562375598192942,1.7267019110188397,0.025030156826527157,-0.09289088451543566,0,-12.5,0,0.7,0.028088,-0.001789,1405,1408,1340,1500,1500,1500
1747554584.1146894,0.03,-0.03,-0.32,0.1265363707695889,-0.4134248665661568,0.1810779098944117,1.7460950459348787,0.0073462118838119265,-0.1593912320583939,0,-12.5,0,0.7,0.028088,-0.001789,1405,1408,1340,1500,1500,1500
1747554584.1983545,0.03,-0.03,-0.32,0.1265363707695889,-0.4134248665661568,0.1810779098944117,1.7460950459348787,0.0073462118838119265,-0.1593912320583939,0,-12.5,0,0.7,0.028088,-0.001789,1405,1408,1340,1500,1500,1500
1747554584.298244,0.01,-0.02,-0.16,0.1505346479845109,-0.45705809786601503,0.1712604328519436,1.7682492081973151,-0.006112233609554069,-0.22643647068064915,0,-12.5,0,0.7,0.028088,-0.001789,1405,1408,1340,1500,1500,1500
1747554584.3983028,0.01,-0.02,-0.16,0.1505346479845109,-0.45705809786601503,0.1712604328519436,1.7682492081973151,-0.006112233609554069,-0.22643647068064915,0,-12.5,0,0.7,0.028088,-0.001789,1405,1408,1340,1500,1500,1500
1747554584.498027,0.04,0.0,-0.3,0.16907877128695067,-0.4854196982109229,0.15271630954950383,1.7974361672004788,-0.015423000346098297,-0.30384202821791795,0,-12.5,0,0.7,0.028088,-0.001789,1405,1408,1340,1500,1500,1500
1747554584.598617,0.21,-0.06,-0.12,0.1908953869368798,-0.5148721293383273,0.1341721862470641,1.8266851395070762,-0.01884812698202243,-0.3800359591188936,0,-12.5,0,0.7,0.028088,-0.001789,1405,1408,1340,1500,1500,1500
1747554584.6817012,0.21,-0.06,-0.12,0.1908953869368798,-0.5148721293383273,0.1341721862470641,1.8266851395070762,-0.01884812698202243,-0.3800359591188936,0,-12.5,0,0.7,0.028088,-0.001789,1405,1408,1340,1500,1500,1500
1747554584.7814126,0.11,-0.08,-0.13,0.17889624832941878,-0.5388704065532492,0.14289883250703572,1.8583029939276707,-0.019102483440922885,-0.46513517271315913,0,-12.5,0,0.7,0.028088,-0.001789,1405,1408,1340,1500,1500,1500
1747554584.8814652,0.0,0.04,-0.19,0.1636246173744684,-0.5617778529856748,0.1505346479845109,1.8859776512113386,-0.016297912885811512,-0.5478107485369869,0,-12.5,0,0.7,0.028088,-0.001789,1405,1408,1340,1500,1500,1500
1747554584.9815195,0.0,0.04,-0.19,0.1636246173744684,-0.5617778529856748,0.1505346479845109,1.8859776512113386,-0.016297912885811512,-0.5478107485369869,0,-12.5,0,0.7,0.028088,-0.001789,1405,1408,1340,1500,1500,1500
1747554585.0813048,0.3,0.02,-0.12,0.1636246173744684,-0.5825036378531074,0.1505346479845109,1.914047286273343,-0.010121086180040765,-0.6397725074111497,0,-12.5,0,0.7,0.028088,-0.001789,1405,1408,1340,1500,1500,1500
1747554585.1646051,0.3,0.02,-0.12,0.1636246173744684,-0.5825036378531074,0.1505346479845109,1.914047286273343,-0.010121086180040765,-0.6397725074111497,0,-12.5,0,0.7,0.028088,-0.001789,1405,1408,1340,1500,1500,1500
1747554585.2643082,0.0,-0.09,-0.26,0.16689710972195776,-0.5988660995905544,0.14944381720201447,1.9410388342946527,-0.0005712807489237564,-0.7337325127991307,0,-12.5,0,0.7,0.028088,-0.001789,1405,1408,1340,1500,1500,1500
1747554585.364676,0.11,-0.01,-0.12,0.16580627893946132,-0.6043202535030366,0.13526301702956053,1.967454829064263,0.012278939881343843,-0.8286138123071205,0,-12.5,0,0.7,0.028088,-0.001789,1405,1408,1340,1500,1500,1500
1747554585.4481263,0.11,-0.01,-0.12,0.16580627893946132,-0.6043202535030366,0.13526301702956053,1.967454829064263,0.012278939881343843,-0.8286138123071205,0,-12.5,0,0.7,0.028088,-0.001789,1405,1408,1340,1500,1500,1500
1747554585.5476024,-0.08,-0.08,-0.25,0.16253378659197193,-0.607592745850526,0.1265363707695889,1.9903973326839388,0.02706072675146004,-0.917581628318304,0,-12.5,0,0.459395,0.007618,-0.001789,1394,1397,1357,1500,1500,1500
1747554585.648253,0.27,0.0,0.05,0.15707963267948966,-0.6010477611555473,0.11671889372712078,2.0133762158378845,0.047059349957306554,-1.0110715167632804,0,-12.5,0,0,0,-0.001789,1375,1377,1395,1500,1500,1500
1747554585.7493997,0.27,0.0,0.05,0.15707963267948966,-0.6010477611555473,0.11671889372712078,2.0133762158378845,0.047059349957306554,-1.0110715167632804,0,-12.5,0,0,0,-0.001789,1375,1377,1395,1500,1500,1500
