time,ay,ax,az,gy,gx,gz,roll,pitch,yaw,cmd_fx,cmd_fy,cmd_fz,cmd_tx,cmd_ty,cmd_tz,pwm_1,pwm_2,pwm_3,pwm_4,pwm_5,pwm_6
1748138206.3613985,0.0,0.0,0.0,0.0,0.0,0.0,0.0,0.0,0.0,0.0,0.0,0.0,0.0,0.0,0.0,1500,1500,1500,1500,1500,1500
1748138206.4633908,0.02,0.0,-0.06,0.0,-0.001090830782496456,0.001090830782496456,0.0319508488302008,0.5381943986137667,3.0248325947064547,0.0,0.0,0.0,0.0,0.0,0.0,1500,1500,1500,1500,1500,1500
1748138206.5713508,0.02,0.0,-0.06,0.0,-0.001090830782496456,0.001090830782496456,0.0319508488302008,0.5381943986137667,3.0248325947064547,0.0,0.0,0.0,0.0,0.0,0.0,1500,1500,1500,1500,1500,1500
1748138206.681404,0.02,-0.03,0.0,-0.002181661564992912,-0.001090830782496456,0.001090830782496456,0.0319508488302008,0.5381943986137667,3.0248325947064547,0.0,0.0,0.0,0.0,0.0,0.0,1500,1500,1500,1500,1500,1500
1748138206.791144,0.02,-0.04,0.0,0.001090830782496456,-0.001090830782496456,-0.001090830782496456,0.0319508488302008,0.5381943986137667,3.0248325947064547,0.0,0.0,0.0,0.0,0.0,0.0,1500,1500,1500,1500,1500,1500
1748138206.8916652,0.02,-0.04,0.0,0.001090830782496456,-0.001090830782496456,-0.001090830782496456,0.0319508488302008,0.5381943986137667,3.0248325947064547,0.0,0.0,0.0,0.0,0.0,0.0,1500,1500,1500,1500,1500,1500
1748138206.9915411,0.02,0.0,0.0,0.002181661564992912,0.0,0.002181661564992912,0.0319508488302008,0.5381943986137667,3.0248325947064547,0,0,0,0,0,0,1500,1500,1500,1500,1500,1500
1748138207.0927753,0.01,0.03,-0.05,0.003272492347489368,0.001090830782496456,0.001090830782496456,0.0319508488302008,0.5381943986137667,3.0248325947064547,0,0,0,0,0,0,1500,1500,1500,1500,1500,1500
1748138207.1836352,0.01,0.03,-0.05,0.003272492347489368,0.001090830782496456,0.001090830782496456,0.0319508488302008,0.5381943986137667,3.0248325947064547,0,0,0,0,0,0,1500,1500,1500,1500,1500,1500
1748138207.2832365,0.03,-0.02,-0.06,-0.001090830782496456,0.003272492347489368,0.0,0.0319508488302008,0.5381943986137667,3.0248325947064547,0,0,0,0,0,0,1500,1500,1500,1500,1500,1500
1748138207.366137,0.03,-0.02,-0.06,-0.001090830782496456,0.003272492347489368,0.0,0.0319508488302008,0.5381943986137667,3.0248325947064547,0,0,0,0,0,0,1500,1500,1500,1500,1500,1500
1748138207.466215,0.0,-0.02,-0.03,-0.002181661564992912,-0.004363323129985824,0.0,0.0319508488302008,0.5381943986137667,3.0248325947064547,0,0,0,0,0,0,1500,1500,1500,1500,1500,1500
1748138207.5654626,0.0,0.0,0.03,0.0,0.0,0.001090830782496456,0.0319508488302008,0.5381943986137667,3.0248325947064547,0,0,0,0,0,0,1500,1500,1500,1500,1500,1500
1748138207.6486433,0.0,0.0,0.03,0.0,0.0,0.001090830782496456,0.0319508488302008,0.5381943986137667,3.0248325947064547,0,0,0,0,0,0,1500,1500,1500,1500,1500,1500
1748138207.7488766,0.0,0.0,0.0,0.0,-0.003272492347489368,0.002181661564992912,0.0319508488302008,0.5381943986137667,3.0248325947064547,0,0,0,0,0,0,1500,1500,1500,1500,1500,1500
1748138207.8483195,0.0,0.0,0.0,0.0,-0.003272492347489368,0.002181661564992912,0.0319508488302008,0.5381943986137667,3.0248325947064547,0,0,0,0,0,0,1500,1500,1500,1500,1500,1500
1748138207.9482849,0.0,0.0,-0.05,-0.003272492347489368,0.002181661564992912,0.001090830782496456,0.0319508488302008,0.5381943986137667,3.0248325947064547,0,0,0,0,0,0,1500,1500,1500,1500,1500,1500
1748138208.048304,0.03,-0.04,-0.02,0.003272492347489368,0.003272492347489368,0.001090830782496456,0.0319508488302008,0.5381943986137667,3.0248325947064547,0,0,0,0,0,0,1500,1500,1500,1500,1500,1500
1748138208.1315908,0.03,-0.04,-0.02,0.003272492347489368,0.003272492347489368,0.001090830782496456,0.0319508488302008,0.5381943986137667,3.0248325947064547,0,0,0,0,0,0,1500,1500,1500,1500,1500,1500
1748138208.2320619,0.02,-0.04,0.0,0.001090830782496456,0.0,-0.001090830782496456,0.0319508488302008,0.5381943986137667,3.0248325947064547,0,0,0,0,0,0,1500,1500,1500,1500,1500,1500
1748138208.3323293,0.02,-0.04,0.0,0.001090830782496456,0.0,-0.001090830782496456,0.0319508488302008,0.5381943986137667,3.0248325947064547,0,0,0,0,0,0,1500,1500,1500,1500,1500,1500
1748138208.4317117,0.01,0.0,0.0,0.002181661564992912,0.001090830782496456,0.0,0.0319508488302008,0.5381943986137667,3.0248325947064547,0,0,0,0,0,0,1500,1500,1500,1500,1500,1500
1748138208.5326416,0.01,0.01,-0.04,0.0,0.002181661564992912,0.0,0.0319508488302008,0.5381943986137667,3.0248325947064547,0,0,0,0,0,0,1500,1500,1500,1500,1500,1500
1748138208.6163769,0.01,0.01,-0.04,0.0,0.002181661564992912,0.0,0.0319508488302008,0.5381943986137667,3.0248325947064547,0,0,0,0,0,0,1500,1500,1500,1500,1500,1500
1748138208.7149522,0.02,-0.07,-0.02,0.002181661564992912,0.0,-0.004363323129985824,0.0319508488302008,0.5381943986137667,3.0248325947064547,0,0,0,0,0,0,1500,1500,1500,1500,1500,1500
1748138208.816195,0.02,-0.07,-0.02,0.002181661564992912,0.0,-0.004363323129985824,0.0319508488302008,0.5381943986137667,3.0248325947064547,0,0,0,0,0,0,1500,1500,1500,1500,1500,1500
1748138208.8986087,0.12,-0.07,0.04,0.003272492347489368,0.0,0.0,0.0319508488302008,0.5381943986137667,3.0248325947064547,0,0,0,0,0,0,1500,1500,1500,1500,1500,1500
1748138208.9947534,-0.01,0.0,0.0,0.0,-0.001090830782496456,0.004363323129985824,0.0319508488302008,0.5381943986137667,3.0248325947064547,0,0,0,0,0,0,1500,1500,1500,1500,1500,1500
1748138209.1000714,-0.01,0.0,0.0,0.0,-0.001090830782496456,0.004363323129985824,0.0319508488302008,0.5381943986137667,3.0248325947064547,0,0,0,0,0,0,1500,1500,1500,1500,1500,1500
1748138209.1987848,0.02,0.02,0.0,-0.003272492347489368,0.00545415391248228,0.002181661564992912,0.0319508488302008,0.5381943986137667,3.0248325947064547,0,0,0,0,0,0,1500,1500,1500,1500,1500,1500
1748138209.2983582,0.02,0.02,0.0,-0.003272492347489368,0.00545415391248228,0.002181661564992912,0.0319508488302008,0.5381943986137667,3.0248325947064547,0,0,0,0,0,0,1500,1500,1500,1500,1500,1500
1748138209.381211,-0.01,0.08,-0.11,0.0,0.0,0.001090830782496456,0.0319508488302008,0.5381943986137667,3.0248325947064547,0,0,0,0,0,0,1500,1500,1500,1500,1500,1500
1748138209.4823527,-0.01,0.08,-0.11,0.0,0.0,0.001090830782496456,0.0319508488302008,0.5381943986137667,3.0248325947064547,0,0,0,0,0,0,1500,1500,1500,1500,1500,1500
1748138209.5825043,0.06,0.02,-0.07,0.0,-0.001090830782496456,-0.002181661564992912,0.0319508488302008,0.5381943986137667,3.0248325947064547,0,0,0,0,0,0,1500,1500,1500,1500,1500,1500
1748138209.682591,0.03,0.0,-0.03,0.002181661564992912,0.002181661564992912,0.0,0.0319508488302008,0.5381943986137667,3.0248325947064547,0,0,0,0,0,0,1500,1500,1500,1500,1500,1500
1748138209.7822192,0.03,0.0,-0.03,0.002181661564992912,0.002181661564992912,0.0,0.0319508488302008,0.5381943986137667,3.0248325947064547,0,0,0,0,0,0,1500,1500,1500,1500,1500,1500
1748138209.8652995,0.03,0.0,-0.03,-0.001090830782496456,0.002181661564992912,-0.001090830782496456,0.0319508488302008,0.5381943986137667,3.0248325947064547,0,0,0,0,0,0,1500,1500,1500,1500,1500,1500
1748138209.961133,0.04,-0.03,0.02,-0.002181661564992912,0.001090830782496456,0.001090830782496456,0.0319508488302008,0.5381943986137667,3.0248325947064547,0,0,0,0,0,0,1500,1500,1500,1500,1500,1500
1748138210.0658453,0.04,-0.03,0.02,-0.002181661564992912,0.001090830782496456,0.001090830782496456,0.0319508488302008,0.5381943986137667,3.0248325947064547,0,0,0,0,0,0,1500,1500,1500,1500,1500,1500
1748138210.1484063,0.03,0.04,-0.02,0.001090830782496456,-0.002181661564992912,0.003272492347489368,0.0319508488302008,0.5381943986137667,3.0248325947064547,0,0,0,0,0,0,1500,1500,1500,1500,1500,1500
1748138210.2490664,0.03,0.04,-0.02,0.001090830782496456,-0.002181661564992912,0.003272492347489368,0.0319508488302008,0.5381943986137667,3.0248325947064547,0,0,0,0,0,0,1500,1500,1500,1500,1500,1500
1748138210.3486853,0.01,0.0,-0.05,0.001090830782496456,0.00545415391248228,0.0,0.0319508488302008,0.5381943986137667,3.0248325947064547,0,0,0,0,0,0,1500,1500,1500,1500,1500,1500
1748138210.4484487,0.01,0.0,-0.05,0.001090830782496456,0.00545415391248228,0.0,0.0319508488302008,0.5381943986137667,3.0248325947064547,0,0,0,0,0,0,1500,1500,1500,1500,1500,1500
1748138210.5491548,0.04,0.01,-0.05,0.0,-0.002181661564992912,-0.002181661564992912,0.0319508488302008,0.5381943986137667,3.0248325947064547,0,0,0,0,0,0,1500,1500,1500,1500,1500,1500
1748138210.6320496,-0.02,-0.17,0.14,-0.002181661564992912,-0.002181661564992912,0.0,0.0319508488302008,0.5381943986137667,3.0248325947064547,0,0,0,0,0,0,1500,1500,1500,1500,1500,1500
1748138210.7316985,-0.02,-0.17,0.14,-0.002181661564992912,-0.002181661564992912,0.0,0.0319508488302008,0.5381943986137667,3.0248325947064547,0,0,0,0,0,0,1500,1500,1500,1500,1500,1500
1748138210.8323066,0.13,-0.07,0.0,0.004363323129985824,0.002181661564992912,0.002181661564992912,0.0319508488302008,0.5381943986137667,3.0248325947064547,0,0,0,0,0,0,1500,1500,1500,1500,1500,1500
1748138210.9327626,0.05,-0.15,0.09,-0.003272492347489368,0.0,0.004363323129985824,0.0319508488302008,0.5381943986137667,3.0248325947064547,0,0,0,0,0,0,1500,1500,1500,1500,1500,1500
1748138211.0320294,0.05,-0.15,0.09,-0.003272492347489368,0.0,0.004363323129985824,0.0319508488302008,0.5381943986137667,3.0248325947064547,0,0,0,0,0,0,1500,1500,1500,1500,1500,1500
1748138211.1152387,0.07,-0.05,-0.04,0.004363323129985824,0.0,-0.004363323129985824,0.0319508488302008,0.5381943986137667,3.0248325947064547,0,0,0,0,0,0,1500,1500,1500,1500,1500,1500
1748138211.215774,0.07,-0.05,-0.04,0.004363323129985824,0.0,-0.004363323129985824,0.0319508488302008,0.5381943986137667,3.0248325947064547,0,0,0,0,0,0,1500,1500,1500,1500,1500,1500
1748138211.3154066,0.03,-0.03,-0.04,-0.004363323129985824,0.0,0.002181661564992912,0.0319508488302008,0.5381943986137667,3.0248325947064547,0,0,0,0,0,0,1500,1500,1500,1500,1500,1500
1748138211.3986468,0.03,-0.03,-0.04,-0.004363323129985824,0.0,0.002181661564992912,0.0319508488302008,0.5381943986137667,3.0248325947064547,0,0,0,0,0,0,1500,1500,1500,1500,1500,1500
1748138211.4987967,0.04,-0.02,-0.01,-0.001090830782496456,0.002181661564992912,0.001090830782496456,0.0319508488302008,0.5381943986137667,3.0248325947064547,0,0,0,0,0,0,1500,1500,1500,1500,1500,1500
1748138211.5988097,0.03,-0.05,-0.01,0.0,-0.001090830782496456,-0.001090830782496456,0.0319508488302008,0.5381943986137667,3.0248325947064547,0,0,0,0,0,0,1500,1500,1500,1500,1500,1500
1748138211.698646,0.03,-0.05,-0.01,0.0,-0.001090830782496456,-0.001090830782496456,0.0319508488302008,0.5381943986137667,3.0248325947064547,0,0,0,0,0,0,1500,1500,1500,1500,1500,1500
1748138211.7986984,0.01,0.0,-0.02,0.003272492347489368,-0.004363323129985824,0.0,0.0319508488302008,0.5381943986137667,3.0248325947064547,0,0,0,0,0,0,1500,1500,1500,1500,1500,1500
1748138211.881444,0.01,0.0,-0.02,0.003272492347489368,-0.004363323129985824,0.0,0.0319508488302008,0.5381943986137667,3.0248325947064547,0,0,0,0,0,0,1500,1500,1500,1500,1500,1500
1748138211.9814672,0.05,0.02,-0.03,-0.002181661564992912,0.001090830782496456,-0.001090830782496456,0.0319508488302008,0.5381943986137667,3.0248325947064547,0,0,0,0,0,0,1500,1500,1500,1500,1500,1500
1748138212.081589,0.02,0.0,-0.02,-0.002181661564992912,-0.002181661564992912,0.0,0.0319508488302008,0.5381943986137667,3.0248325947064547,0,0,0,0,0,0,1500,1500,1500,1500,1500,1500
1748138212.1650393,0.02,0.0,-0.02,-0.002181661564992912,-0.002181661564992912,0.0,0.0319508488302008,0.5381943986137667,3.0248325947064547,0,0,0,0,0,0,1500,1500,1500,1500,1500,1500
1748138212.2650025,0.02,-0.02,0.0,-0.002181661564992912,-0.001090830782496456,-0.002181661564992912,0.0319508488302008,0.5381943986137667,3.0248325947064547,0,0,0,0,0,0,1500,1500,1500,1500,1500,1500
1748138212.3653307,0.02,-0.02,0.0,-0.002181661564992912,-0.001090830782496456,-0.002181661564992912,0.0319508488302008,0.5381943986137667,3.0248325947064547,0,0,0,0,0,0,1500,1500,1500,1500,1500,1500
1748138212.4653876,0.01,-0.03,0.03,0.0,-0.001090830782496456,0.001090830782496456,0.0319508488302008,0.5381943986137667,3.0248325947064547,0,0,0,0,0,0,1500,1500,1500,1500,1500,1500
1748138212.5655248,0.01,0.01,-0.02,0.003272492347489368,-0.004363323129985824,-0.001090830782496456,0.0319508488302008,0.5381943986137667,3.0248325947064547,0,0,0,0,0,0,1500,1500,1500,1500,1500,1500
1748138212.6488795,0.01,0.01,-0.02,0.003272492347489368,-0.004363323129985824,-0.001090830782496456,0.0319508488302008,0.5381943986137667,3.0248325947064547,0,0,0,0,0,0,1500,1500,1500,1500,1500,1500
1748138212.748253,0.02,0.02,-0.05,-0.002181661564992912,0.0,0.0,0.0319508488302008,0.5381943986137667,3.0248325947064547,0,0,0,0,0,0,1500,1500,1500,1500,1500,1500
1748138212.8485107,0.09,0.11,-0.06,-0.002181661564992912,0.0,-0.002181661564992912,0.0319508488302008,0.5381943986137667,3.0248325947064547,0,0,0,0,0,0,1500,1500,1500,1500,1500,1500
1748138212.9483202,0.09,0.11,-0.06,-0.002181661564992912,0.0,-0.002181661564992912,0.0319508488302008,0.5381943986137667,3.0248325947064547,0,0,0,0,0,0,1500,1500,1500,1500,1500,1500
1748138213.049768,0.13,0.12,-0.06,0.001090830782496456,0.004363323129985824,-0.00545415391248228,0.0319508488302008,0.5381943986137667,3.0248325947064547,0,0,0,0,0,0,1500,1500,1500,1500,1500,1500
1748138213.1323466,0.13,0.12,-0.06,0.001090830782496456,0.004363323129985824,-0.00545415391248228,0.0319508488302008,0.5381943986137667,3.0248325947064547,0,0,0,0,0,0,1500,1500,1500,1500,1500,1500
1748138213.2318015,-0.03,0.02,0.06,0.003272492347489368,-0.004363323129985824,-0.00545415391248228,0.0319508488302008,0.5381943986137667,3.0248325947064547,0,0,0,0,0,0,1500,1500,1500,1500,1500,1500
1748138213.3285391,-0.02,0.19,-0.18,0.003272492347489368,0.0,-0.004363323129985824,0.03195704111208234,0.5380576336614971,3.0248282346666944,0,0,0,0,0,0,1500,1500,1500,1500,1500,1500
1748138213.4153795,-0.02,0.19,-0.18,0.003272492347489368,0.0,-0.004363323129985824,0.03195704111208234,0.5380576336614971,3.0248282346666944,0,0,0,0,0,0,1500,1500,1500,1500,1500,1500
1748138213.5151782,0.11,0.05,-0.04,0.008726646259971648,0.001090830782496456,-0.004363323129985824,0.03195704111208234,0.5380576336614971,3.0248282346666944,0,0,0,0,0,0,1500,1500,1500,1500,1500,1500
1748138213.6149414,0.11,0.05,-0.04,0.008726646259971648,0.001090830782496456,-0.004363323129985824,0.03195704111208234,0.5380576336614971,3.0248282346666944,0,0,0,0,0,0,1500,1500,1500,1500,1500,1500
1748138213.715418,0.03,0.02,0.0,-0.006544984694978736,-0.003272492347489368,0.0,0.03195704111208234,0.5380576336614971,3.0248282346666944,0,0,0,0,0,0,1500,1500,1500,1500,1500,1500
1748138213.8109856,-0.01,-0.06,0.0,-0.003272492347489368,0.0,-0.002181661564992912,0.03195704111208234,0.5380576336614971,3.0248282346666944,0,0,0,0,0,0,1500,1500,1500,1500,1500,1500
1748138213.8988187,-0.01,-0.06,0.0,-0.003272492347489368,0.0,-0.002181661564992912,0.03195704111208234,0.5380576336614971,3.0248282346666944,0,0,0,0,0,0,1500,1500,1500,1500,1500,1500
1748138213.997967,0.01,0.01,0.04,0.004363323129985824,-0.003272492347489368,-0.004363323129985824,0.032056443857462806,0.5380706311447788,3.02473077190678,0,0,0,0,0,0,1500,1500,1500,1500,1500,1500
1748138214.0988085,0.01,0.01,0.04,0.004363323129985824,-0.003272492347489368,-0.004363323129985824,0.032056443857462806,0.5380706311447788,3.02473077190678,0,0,0,0,0,0,1500,1500,1500,1500,1500,1500
1748138214.1986673,-0.02,0.0,-0.11,0.002181661564992912,-0.007635815477475192,-0.002181661564992912,0.032056443857462806,0.5380706311447788,3.02473077190678,0,0,0,0,0,0,1500,1500,1500,1500,1500,1500
1748138214.2913795,0.17,0.09,-0.17,-0.002181661564992912,0.002181661564992912,0.003272492347489368,0.032056443857462806,0.5380706311447788,3.02473077190678,0,0,0,0,0,0,1500,1500,1500,1500,1500,1500
1748138214.3811615,0.17,0.09,-0.17,-0.002181661564992912,0.002181661564992912,0.003272492347489368,0.032056443857462806,0.5380706311447788,3.02473077190678,0,0,0,0,0,0,1500,1500,1500,1500,1500,1500
1748138214.4818017,-0.05,-0.11,0.04,0.007635815477475192,0.00545415391248228,-0.002181661564992912,0.032052047124575454,0.5380330445730472,3.0247074263047695,0,0,0,0,0,0,1500,1500,1500,1500,1500,1500
1748138214.5821967,-0.05,-0.11,0.04,0.007635815477475192,0.00545415391248228,-0.002181661564992912,0.032052047124575454,0.5380330445730472,3.0247074263047695,0,0,0,0,0,0,1500,1500,1500,1500,1500,1500
1748138214.6814294,0.14,-0.04,0.16,-0.007635815477475192,-0.01090830782496456,0.002181661564992912,0.03219959848066152,0.5379424827920742,3.024764747571777,0,0,0,0,0,0,1500,1500,1500,1500,1500,1500
1748138214.781798,0.0,0.0,-0.1,0.002181661564992912,0.002181661564992912,-0.002181661564992912,0.03219959848066152,0.5379424827920742,3.024764747571777,0,0,0,0,0,0,1500,1500,1500,1500,1500,1500
1748138214.865046,0.0,0.0,-0.1,0.002181661564992912,0.002181661564992912,-0.002181661564992912,0.03219959848066152,0.5379424827920742,3.024764747571777,0,0,0,0,0,0,1500,1500,1500,1500,1500,1500
1748138214.9645376,0.0,0.0,-0.13,-0.001090830782496456,0.002181661564992912,0.0,0.03219959848066152,0.5379424827920742,3.024764747571777,0,0,0,0,0,0,1500,1500,1500,1500,1500,1500
1748138215.0657768,0.0,0.0,-0.13,-0.001090830782496456,0.002181661564992912,0.0,0.03219959848066152,0.5379424827920742,3.024764747571777,0,0,0,0,0,0,1500,1500,1500,1500,1500,1500
1748138215.1480534,0.07,-0.04,0.05,-0.001090830782496456,-0.004363323129985824,-0.002181661564992912,0.03219959848066152,0.5379424827920742,3.024764747571777,0,0,0,0,0,0,1500,1500,1500,1500,1500,1500
1748138215.2486744,0.07,-0.04,0.05,-0.001090830782496456,-0.004363323129985824,-0.002181661564992912,0.03219959848066152,0.5379424827920742,3.024764747571777,0,0,0,0,0,0,1500,1500,1500,1500,1500,1500
1748138215.3484378,-0.01,-0.03,-0.07,0.0,0.003272492347489368,-0.001090830782496456,0.03219959848066152,0.5379424827920742,3.024764747571777,0,0,0,0,0,0,1500,1500,1500,1500,1500,1500
1748138215.4486964,-0.01,-0.02,0.0,0.001090830782496456,0.003272492347489368,-0.001090830782496456,0.03219959848066152,0.5379424827920742,3.024764747571777,0,0,0,0,0,0,1500,1500,1500,1500,1500,1500
1748138215.5484343,-0.01,-0.02,0.0,0.001090830782496456,0.003272492347489368,-0.001090830782496456,0.03219959848066152,0.5379424827920742,3.024764747571777,0,0,0,0,0,0,1500,1500,1500,1500,1500,1500
1748138215.6320405,0.0,-0.18,0.01,0.00545415391248228,-0.002181661564992912,0.0,0.03219959848066152,0.5379424827920742,3.024764747571777,0,0,0,0,0,0,1500,1500,1500,1500,1500,1500
1748138215.7315736,0.15,-0.06,-0.27,0.002181661564992912,-0.004363323129985824,-0.001090830782496456,0.03219959848066152,0.5379424827920742,3.024764747571777,0,0,0,0,0,0,1500,1500,1500,1500,1500,1500
1748138215.831395,0.15,-0.06,-0.27,0.002181661564992912,-0.004363323129985824,-0.001090830782496456,0.03219959848066152,0.5379424827920742,3.024764747571777,0,0,0,0,0,0,1500,1500,1500,1500,1500,1500
1748138215.915248,0.09,0.2,0.0,0.003272492347489368,0.004363323129985824,0.00545415391248228,0.03219959848066152,0.5379424827920742,3.024764747571777,0,0,0,0,0,0,1500,1500,1500,1500,1500,1500
1748138216.0152614,0.09,0.2,0.0,0.003272492347489368,0.004363323129985824,0.00545415391248228,0.03219959848066152,0.5379424827920742,3.024764747571777,0,0,0,0,0,0,1500,1500,1500,1500,1500,1500
1748138216.1153657,0.02,0.34,-0.09,0.001090830782496456,0.006544984694978736,0.00545415391248228,0.03219959848066152,0.5379424827920742,3.024764747571777,0,0,0,0,0,0,1500,1500,1500,1500,1500,1500
1748138216.2102787,-0.28,-0.16,0.01,0.002181661564992912,0.002181661564992912,0.0,0.03219959848066152,0.5379424827920742,3.024764747571777,0,0,0,0,0,0,1500,1500,1500,1500,1500,1500
1748138216.3152106,-0.28,-0.16,0.01,0.002181661564992912,0.002181661564992912,0.0,0.03219959848066152,0.5379424827920742,3.024764747571777,0,0,0,0,0,0,1500,1500,1500,1500,1500,1500
1748138216.398541,-0.14,-0.02,0.12,0.007635815477475192,-0.001090830782496456,-0.001090830782496456,0.03219959848066152,0.5379424827920742,3.024764747571777,0,0,0,0,0,0,1500,1500,1500,1500,1500,1500
1748138216.498414,-0.14,-0.02,0.12,0.007635815477475192,-0.001090830782496456,-0.001090830782496456,0.03219959848066152,0.5379424827920742,3.024764747571777,0,0,0,0,0,0,1500,1500,1500,1500,1500,1500
1748138216.5983534,0.06,-0.27,-0.11,0.004363323129985824,-0.002181661564992912,-0.004363323129985824,0.03220578092118856,0.5378057383961721,3.0247603704458985,0,0,0,0,0,0,1500,1500,1500,1500,1500,1500
1748138216.6961162,0.03,-0.13,-0.05,-0.002181661564992912,0.00545415391248228,-0.001090830782496456,0.03220578092118856,0.5378057383961721,3.0247603704458985,0,0,0,0,0,0,1500,1500,1500,1500,1500,1500
1748138216.7999077,0.03,-0.13,-0.05,-0.002181661564992912,0.00545415391248228,-0.001090830782496456,0.03220578092118856,0.5378057383961721,3.0247603704458985,0,0,0,0,0,0,1500,1500,1500,1500,1500,1500
1748138216.882474,-0.05,0.2,-0.05,-0.004363323129985824,0.002181661564992912,-0.001090830782496456,0.03220578092118856,0.5378057383961721,3.0247603704458985,0,0,0,0,0,0,1500,1500,1500,1500,1500,1500
1748138216.9820626,-0.05,0.2,-0.05,-0.004363323129985824,0.002181661564992912,-0.001090830782496456,0.03220578092118856,0.5378057383961721,3.0247603704458985,0,0,0,0,0,0,1500,1500,1500,1500,1500,1500
1748138217.081298,0.12,-0.23,0.24,-0.003272492347489368,-0.011999138607461015,0.002181661564992912,0.03220578092118856,0.5378057383961721,3.0247603704458985,0,0,0,0,0,0,1500,1500,1500,1500,1500,1500
1748138217.1827078,-0.27,0.15,-0.22,0.001090830782496456,0.009817477042468103,0.006544984694978736,0.03221196298854444,0.5376690051524126,3.0247559933245167,0,0,0,0,0,0,1500,1500,1500,1500,1500,1500
1748138217.2813706,-0.27,0.15,-0.22,0.001090830782496456,0.009817477042468103,0.006544984694978736,0.03221196298854444,0.5376690051524126,3.0247559933245167,0,0,0,0,0,0,1500,1500,1500,1500,1500,1500
1748138217.364733,0.08,-0.13,0.05,0.001090830782496456,0.002181661564992912,0.002181661564992912,0.03221196298854444,0.5376690051524126,3.0247559933245167,0,0,0,0,0,0,1500,1500,1500,1500,1500,1500
1748138217.4653704,0.08,-0.13,0.05,0.001090830782496456,0.002181661564992912,0.002181661564992912,0.03221196298854444,0.5376690051524126,3.0247559933245167,0,0,0,0,0,0,1500,1500,1500,1500,1500,1500
1748138217.5655215,0.02,0.02,0.0,0.003272492347489368,0.0,0.002181661564992912,0.03221196298854444,0.5376690051524126,3.0247559933245167,0,0,0,0,0,0,1500,1500,1500,1500,1500,1500
1748138217.6483204,0.02,0.02,0.0,0.003272492347489368,0.0,0.002181661564992912,0.03221196298854444,0.5376690051524126,3.0247559933245167,0,0,0,0,0,0,1500,1500,1500,1500,1500,1500
1748138217.748477,-0.01,-0.01,-0.02,0.002181661564992912,-0.002181661564992912,0.001090830782496456,0.03221196298854444,0.5376690051524126,3.0247559933245167,0,0,0,0,0,0,1500,1500,1500,1500,1500,1500
1748138217.8481436,0.02,0.02,-0.02,-0.001090830782496456,-0.004363323129985824,0.0,0.03221196298854444,0.5376690051524126,3.0247559933245167,0,0,0,0,0,0,1500,1500,1500,1500,1500,1500
1748138217.9484742,0.02,0.02,-0.02,-0.001090830782496456,-0.004363323129985824,0.0,0.03221196298854444,0.5376690051524126,3.0247559933245167,0,0,0,0,0,0,1500,1500,1500,1500,1500,1500
1748138218.0483236,-0.03,0.01,-0.06,0.001090830782496456,0.001090830782496456,-0.002181661564992912,0.03221196298854444,0.5376690051524126,3.0247559933245167,0,0,0,0,0,0,1500,1500,1500,1500,1500,1500
1748138218.131338,-0.03,0.01,-0.06,0.001090830782496456,0.001090830782496456,-0.002181661564992912,0.03221196298854444,0.5376690051524126,3.0247559933245167,0,0,0,0,0,0,1500,1500,1500,1500,1500,1500
1748138218.2318892,0.01,0.02,0.0,-0.00545415391248228,0.006544984694978736,0.0,0.03221196298854444,0.5376690051524126,3.0247559933245167,0,0,0,0,0,0,1500,1500,1500,1500,1500,1500
1748138218.3317852,0.21,0.26,-0.02,-0.006544984694978736,-0.003272492347489368,-0.001090830782496456,0.03221196298854444,0.5376690051524126,3.0247559933245167,0,0,0,0,0,0,1500,1500,1500,1500,1500,1500
1748138218.4150465,0.21,0.26,-0.02,-0.006544984694978736,-0.003272492347489368,-0.001090830782496456,0.03221196298854444,0.5376690051524126,3.0247559933245167,0,0,0,0,0,0,1500,1500,1500,1500,1500,1500
1748138218.5145402,-0.06,-0.11,0.01,-0.004363323129985824,0.009817477042468103,0.004363323129985824,0.03221196298854444,0.5376690051524126,3.0247559933245167,0,0,0,0,0,0,1500,1500,1500,1500,1500,1500
1748138218.6139681,0.13,-0.21,0.13,-0.007635815477475192,-0.00545415391248228,-0.001090830782496456,0.03221196298854444,0.5376690051524126,3.0247559933245167,0,0,0,0,0,0,1500,1500,1500,1500,1500,1500
1748138218.7153475,0.13,-0.21,0.13,-0.007635815477475192,-0.00545415391248228,-0.001090830782496456,0.03221196298854444,0.5376690051524126,3.0247559933245167,0,0,0,0,0,0,1500,1500,1500,1500,1500,1500
1748138218.814523,,,,0.00545415391248228,0.007635815477475192,0.002181661564992912,0.03220578092118856,0.5378057383961721,3.0247603704458985,0,0,0,0,0,0,1500,1500,1500,1500,1500,1500
1748138218.8983755,,,,0.00545415391248228,0.007635815477475192,0.002181661564992912,0.03220578092118856,0.5378057383961721,3.0247603704458985,0,0,0,0,0,0,1500,1500,1500,1500,1500,1500
1748138218.9985316,0.02,-0.3,0.08,0.004363323129985824,-0.002181661564992912,-0.004363323129985824,0.03220578092118856,0.5378057383961721,3.0247603704458985,0,0,0,0,0,0,1500,1500,1500,1500,1500,1500
1748138219.0974414,0.0,-0.15,0.02,0.008726646259971648,-0.002181661564992912,-0.001090830782496456,0.03220578092118856,0.5378057383961721,3.0247603704458985,0,0,0,0,0,0,1500,1500,1500,1500,1500,1500
1748138219.198268,0.0,-0.15,0.02,0.008726646259971648,-0.002181661564992912,-0.001090830782496456,0.03220578092118856,0.5378057383961721,3.0247603704458985,0,0,0,0,0,0,1500,1500,1500,1500,1500,1500
1748138219.2987914,0.02,-0.04,0.11,-0.001090830782496456,-0.00545415391248228,-0.002181661564992912,0.03220578092118856,0.5378057383961721,3.0247603704458985,0,0,0,0,0,0,1500,1500,1500,1500,1500,1500
1748138219.381543,0.02,-0.04,0.11,-0.001090830782496456,-0.00545415391248228,-0.002181661564992912,0.03220578092118856,0.5378057383961721,3.0247603704458985,0,0,0,0,0,0,1500,1500,1500,1500,1500,1500
1748138219.481244,0.02,-0.02,-0.02,-0.002181661564992912,0.001090830782496456,0.002181661564992912,0.032342733899920324,0.5378143442365814,3.0247987076943774,0,0,0,0,0,0,1500,1500,1500,1500,1500,1500
1748138219.5721207,0.0,-0.07,0.01,0.0,-0.002181661564992912,0.004363323129985824,0.032342733899920324,0.5378143442365814,3.0247987076943774,0,0,0,0,0,0,1500,1500,1500,1500,1500,1500
1748138219.6657815,0.0,-0.07,0.01,0.0,-0.002181661564992912,0.004363323129985824,0.032342733899920324,0.5378143442365814,3.0247987076943774,0,0,0,0,0,0,1500,1500,1500,1500,1500,1500
1748138219.764697,0.01,0.02,0.02,0.003272492347489368,-0.001090830782496456,0.001090830782496456,0.032342733899920324,0.5378143442365814,3.0247987076943774,0,0,0,0,0,0,1500,1500,1500,1500,1500,1500
1748138219.8649418,0.01,0.02,0.02,0.003272492347489368,-0.001090830782496456,0.001090830782496456,0.032342733899920324,0.5378143442365814,3.0247987076943774,0,0,0,0,0,0,1500,1500,1500,1500,1500,1500
1748138219.96534,-0.02,-0.01,-0.03,-0.001090830782496456,-0.003272492347489368,0.001090830782496456,0.032342733899920324,0.5378143442365814,3.0247987076943774,0,0,0,0,0,0,1500,1500,1500,1500,1500,1500
1748138220.0560715,0.02,0.01,0.0,0.002181661564992912,0.001090830782496456,0.001090830782496456,0.032342733899920324,0.5378143442365814,3.0247987076943774,0,0,0,0,0,0,1500,1500,1500,1500,1500,1500
1748138220.147933,0.02,0.01,0.0,0.002181661564992912,0.001090830782496456,0.001090830782496456,0.032342733899920324,0.5378143442365814,3.0247987076943774,0,0,0,0,0,0,1500,1500,1500,1500,1500,1500
1748138220.2481036,0.03,0.02,-0.04,0.0,0.0,0.0,0.032342733899920324,0.5378143442365814,3.0247987076943774,0,0,0,0,0,0,1500,1500,1500,1500,1500,1500
1748138220.347993,0.03,0.02,-0.04,0.0,0.0,0.0,0.032342733899920324,0.5378143442365814,3.0247987076943774,0,0,0,0,0,0,1500,1500,1500,1500,1500,1500
1748138220.4488,0.03,-0.06,-0.06,-0.001090830782496456,0.0,0.001090830782496456,0.032342733899920324,0.5378143442365814,3.0247987076943774,0,0,0,0,0,0,1500,1500,1500,1500,1500,1500
1748138220.5377939,0.1,0.09,-0.01,0.002181661564992912,0.0,-0.004363323129985824,0.032342733899920324,0.5378143442365814,3.0247987076943774,0,0,0,0,0,0,1500,1500,1500,1500,1500,1500
1748138220.6320019,0.1,0.09,-0.01,0.002181661564992912,0.0,-0.004363323129985824,0.032342733899920324,0.5378143442365814,3.0247987076943774,0,0,0,0,0,0,1500,1500,1500,1500,1500,1500
1748138220.7317283,-0.25,-0.18,0.24,0.003272492347489368,-0.002181661564992912,0.007635815477475192,0.032342733899920324,0.5378143442365814,3.0247987076943774,0,0,0,0,0,0,1500,1500,1500,1500,1500,1500
1748138220.8316753,-0.25,-0.18,0.24,0.003272492347489368,-0.002181661564992912,0.007635815477475192,0.032342733899920324,0.5378143442365814,3.0247987076943774,0,0,0,0,0,0,1500,1500,1500,1500,1500,1500
1748138220.9321735,0.26,0.41000000000000003,-0.1,0.003272492347489368,0.002181661564992912,0.002181661564992912,0.03257910079492912,0.5378359891615152,3.0247395779073094,0,0,0,0,0,0,1500,1500,1500,1500,1500,1500
1748138221.0316005,0.01,-0.13,-0.04,-0.004363323129985824,0.002181661564992912,0.00545415391248228,0.03289669411289807,0.5377120312874213,3.0249476533118442,0,0,0,0,0,0,1500,1500,1500,1500,1500,1500
1748138221.131568,0.01,-0.13,-0.04,-0.004363323129985824,0.002181661564992912,0.00545415391248228,0.03289669411289807,0.5377120312874213,3.0249476533118442,0,0,0,0,0,0,1500,1500,1500,1500,1500,1500
1748138221.232299,0.02,0.04,0.03,-0.003272492347489368,-0.003272492347489368,-0.001090830782496456,0.032759744345392604,0.537703425972107,3.0249093179527486,0,0,0,0,0,0,1500,1500,1500,1500,1500,1500
1748138221.3287027,-0.01,0.07,-0.07,-0.001090830782496456,-0.00545415391248228,-0.003272492347489368,0.032759744345392604,0.537703425972107,3.0249093179527486,0,0,0,0,0,0,1500,1500,1500,1500,1500,1500
1748138221.4143736,-0.01,0.07,-0.07,-0.001090830782496456,-0.00545415391248228,-0.003272492347489368,0.032759744345392604,0.537703425972107,3.0249093179527486,0,0,0,0,0,0,1500,1500,1500,1500,1500,1500
1748138221.5153606,0.07,0.11,-0.12,0.0,0.001090830782496456,-0.001090830782496456,0.032759744345392604,0.537703425972107,3.0249093179527486,0,0,0,0,0,0,1500,1500,1500,1500,1500,1500
1748138221.6141596,0.07,0.11,-0.12,0.0,0.001090830782496456,-0.001090830782496456,0.032759744345392604,0.537703425972107,3.0249093179527486,0,0,0,0,0,0,1500,1500,1500,1500,1500,1500
1748138221.715173,-0.18,0.52,-0.09,-0.001090830782496456,-0.002181661564992912,0.003272492347489368,0.032759744345392604,0.537703425972107,3.0249093179527486,0,0,0,0,0,0,1500,1500,1500,1500,1500,1500
1748138221.807232,-0.06,0.12,-0.11,0.009817477042468103,0.007635815477475192,0.0,0.03302752534845563,0.537857374101272,3.0249904191688675,0,0,0,0,0,0,1500,1500,1500,1500,1500,1500
1748138221.8982677,-0.06,0.12,-0.11,0.009817477042468103,0.007635815477475192,0.0,0.03302752534845563,0.537857374101272,3.0249904191688675,0,0,0,0,0,0,1500,1500,1500,1500,1500,1500
1748138221.9979644,0.09,-0.02,0.06,-0.002181661564992912,-0.006544984694978736,0.13962634015954636,0.03302752534845563,0.537857374101272,3.0249904191688675,0,0,0,0,0,0,1500,1500,1500,1500,1500,1500
1748138222.098267,0.09,-0.02,0.06,-0.002181661564992912,-0.006544984694978736,0.13962634015954636,0.03302752534845563,0.537857374101272,3.0249904191688675,0,0,0,0,0,0,1500,1500,1500,1500,1500,1500
1748138222.1973782,-0.03,0.06,-0.01,0.00545415391248228,0.0,-0.001090830782496456,0.03289056351139629,0.5378487680399769,3.0249520735167477,0,0,0,0,0,0,1500,1500,1500,1500,1500,1500
1748138222.2869596,0.06,0.17,-0.16,0.00545415391248228,0.004363323129985824,0.002181661564992912,0.03275360345002363,0.5378401620228617,3.0249137295411215,0,0,0,0,0,0,1500,1500,1500,1500,1500,1500
1748138222.3818932,0.06,0.17,-0.16,0.00545415391248228,0.004363323129985824,0.002181661564992912,0.03275360345002363,0.5378401620228617,3.0249137295411215,0,0,0,0,0,0,1500,1500,1500,1500,1500,1500
1748138222.4819965,0.12,-0.01,-0.04,0.004363323129985824,-0.003272492347489368,-0.006544984694978736,0.03275360345002363,0.5378401620228617,3.0249137295411215,0,0,0,0,0,0,1500,1500,1500,1500,1500,1500
1748138222.581148,0.12,-0.01,-0.04,0.004363323129985824,-0.003272492347489368,-0.006544984694978736,0.03275360345002363,0.5378401620228617,3.0249137295411215,0,0,0,0,0,0,1500,1500,1500,1500,1500,1500
1748138222.6647172,0.14,-0.11,0.08,0.003272492347489368,-0.002181661564992912,-0.006544984694978736,0.03248585012835522,0.5376862154739499,3.024832652272769,0,0,0,0,0,0,1500,1500,1500,1500,1500,1500
1748138222.764606,0.14,-0.11,0.08,0.003272492347489368,-0.002181661564992912,-0.006544984694978736,0.03248585012835522,0.5376862154739499,3.024832652272769,0,0,0,0,0,0,1500,1500,1500,1500,1500,1500
1748138222.865729,0.0,0.01,-0.11,-0.009817477042468103,0.006544984694978736,0.006544984694978736,0.03221196298854444,0.5376690051524126,3.0247559933245167,0,0,0,0,0,0,1500,1500,1500,1500,1500,1500
1748138222.9648097,0.02,-0.03,0.04,-0.004363323129985824,0.0,0.003272492347489368,0.03221196298854444,0.5376690051524126,3.0247559933245167,0,0,0,0,0,0,1500,1500,1500,1500,1500,1500
1748138223.0650678,0.02,-0.03,0.04,-0.004363323129985824,0.0,0.003272492347489368,0.03221196298854444,0.5376690051524126,3.0247559933245167,0,0,0,0,0,0,1500,1500,1500,1500,1500,1500
1748138223.1473591,0.02,0.0,-0.01,-0.00545415391248228,-0.001090830782496456,0.001090830782496456,0.03221196298854444,0.5376690051524126,3.0247559933245167,0,0,0,0,0,0,1500,1500,1500,1500,1500,1500
1748138223.253846,0.0,-0.01,-0.02,-0.001090830782496456,0.001090830782496456,0.001090830782496456,0.03221196298854444,0.5376690051524126,3.0247559933245167,0,0,0,0,0,0,1500,1500,1500,1500,1500,1500
1748138223.3885381,0.0,-0.01,-0.02,-0.001090830782496456,0.001090830782496456,0.001090830782496456,0.03221196298854444,0.5376690051524126,3.0247559933245167,0,0,0,0,0,0,1500,1500,1500,1500,1500,1500
1748138223.484576,0.03,0.02,-0.03,-0.001090830782496456,-0.003272492347489368,-0.001090830782496456,0.03221196298854444,0.5376690051524126,3.0247559933245167,0,0,0,0,0,0,1500,1500,1500,1500,1500,1500
1748138223.583657,0.02,-0.02,-0.04,0.0,-0.002181661564992912,0.001090830782496456,0.03221196298854444,0.5376690051524126,3.0247559933245167,0,0,0,0,0,0,1500,1500,1500,1500,1500,1500
1748138223.6824915,0.02,-0.02,-0.04,0.0,-0.002181661564992912,0.001090830782496456,0.03221196298854444,0.5376690051524126,3.0247559933245167,0,0,0,0,0,0,1500,1500,1500,1500,1500,1500
1748138223.7817717,0.01,-0.05,-0.05,0.0,-0.004363323129985824,-0.001090830782496456,0.03221196298854444,0.5376690051524126,3.0247559933245167,0,0,0,0,0,0,1500,1500,1500,1500,1500,1500
1748138223.8648255,0.01,-0.05,-0.05,0.0,-0.004363323129985824,-0.001090830782496456,0.03221196298854444,0.5376690051524126,3.0247559933245167,0,0,0,0,0,0,1500,1500,1500,1500,1500,1500
1748138223.9661036,0.0,-0.03,0.02,0.002181661564992912,0.001090830782496456,-0.001090830782496456,0.03221196298854444,0.5376690051524126,3.0247559933245167,0,0,0,0,0,0,1500,1500,1500,1500,1500,1500
1748138224.066173,0.01,0.0,0.0,0.0,-0.002181661564992912,-0.001090830782496456,0.03221196298854444,0.5376690051524126,3.0247559933245167,0,0,0,0,0,0,1500,1500,1500,1500,1500,1500
1748138224.1489868,0.01,0.0,0.0,0.0,-0.002181661564992912,-0.001090830782496456,0.03221196298854444,0.5376690051524126,3.0247559933245167,0,0,0,0,0,0,1500,1500,1500,1500,1500,1500
1748138224.2485805,0.0,0.02,-0.09,0.002181661564992912,-0.006544984694978736,-0.002181661564992912,0.03221196298854444,0.5376690051524126,3.0247559933245167,0,0,0,0,0,0,1500,1500,1500,1500,1500,1500
1748138224.3479342,0.0,0.02,-0.09,0.002181661564992912,-0.006544984694978736,-0.002181661564992912,0.03221196298854444,0.5376690051524126,3.0247559933245167,0,0,0,0,0,0,1500,1500,1500,1500,1500,1500
1748138224.4481258,0.01,-0.03,0.0,0.0,0.0,-0.001090830782496456,0.03221196298854444,0.5376690051524126,3.0247559933245167,0,0,0,0,0,0,1500,1500,1500,1500,1500,1500
1748138224.5481625,0.03,-0.02,-0.01,-0.001090830782496456,0.0,0.001090830782496456,0.03221196298854444,0.5376690051524126,3.0247559933245167,0,0,0,0,0,0,1500,1500,1500,1500,1500,1500
1748138224.6314418,0.03,-0.02,-0.01,-0.001090830782496456,0.0,0.001090830782496456,0.03221196298854444,0.5376690051524126,3.0247559933245167,0,0,0,0,0,0,1500,1500,1500,1500,1500,1500
1748138224.731115,0.0,-0.01,0.0,0.001090830782496456,0.002181661564992912,-0.001090830782496456,0.03221196298854444,0.5376690051524126,3.0247559933245167,0,0,0,0,0,0,1500,1500,1500,1500,1500,1500
1748138224.8314285,0.0,-0.01,0.0,0.001090830782496456,0.002181661564992912,-0.001090830782496456,0.03221196298854444,0.5376690051524126,3.0247559933245167,0,0,0,0,0,0,1500,1500,1500,1500,1500,1500
1748138224.9139178,0.02,0.02,-0.06,-0.001090830782496456,-0.008726646259971648,-0.001090830782496456,0.03221196298854444,0.5376690051524126,3.0247559933245167,0,0,0,0,0,0,1500,1500,1500,1500,1500,1500
1748138225.0131652,0.01,0.0,-0.04,-0.001090830782496456,0.003272492347489368,0.002181661564992912,0.03221196298854444,0.5376690051524126,3.0247559933245167,0,0,0,0,0,0,1500,1500,1500,1500,1500,1500
1748138225.1148772,0.01,0.0,-0.04,-0.001090830782496456,0.003272492347489368,0.002181661564992912,0.03221196298854444,0.5376690051524126,3.0247559933245167,0,0,0,0,0,0,1500,1500,1500,1500,1500,1500
1748138225.2144763,0.01,-0.03,-0.03,-0.004363323129985824,-0.001090830782496456,0.001090830782496456,0.03221196298854444,0.5376690051524126,3.0247559933245167,0,0,0,0,0,0,1500,1500,1500,1500,1500,1500
1748138225.3148363,0.01,-0.03,-0.03,-0.004363323129985824,-0.001090830782496456,0.001090830782496456,0.03221196298854444,0.5376690051524126,3.0247559933245167,0,0,0,0,0,0,1500,1500,1500,1500,1500,1500
1748138225.3974001,0.0,-0.02,0.0,0.001090830782496456,-0.004363323129985824,0.0,0.03221196298854444,0.5376690051524126,3.0247559933245167,0,0,0,0,0,0,1500,1500,1500,1500,1500,1500
1748138225.4981732,0.04,0.01,-0.03,-0.001090830782496456,-0.003272492347489368,0.001090830782496456,0.03221196298854444,0.5376690051524126,3.0247559933245167,0,0,0,0,0,0,1500,1500,1500,1500,1500,1500
1748138225.598302,0.04,0.01,-0.03,-0.001090830782496456,-0.003272492347489368,0.001090830782496456,0.03221196298854444,0.5376690051524126,3.0247559933245167,0,0,0,0,0,0,1500,1500,1500,1500,1500,1500
1748138225.6976206,0.01,0.01,-0.05,-0.002181661564992912,0.001090830782496456,0.0,0.03221196298854444,0.5376690051524126,3.0247559933245167,0,0,0,0,0,0,1500,1500,1500,1500,1500,1500
1748138225.7988708,0.01,0.01,-0.05,-0.002181661564992912,0.001090830782496456,0.0,0.03221196298854444,0.5376690051524126,3.0247559933245167,0,0,0,0,0,0,1500,1500,1500,1500,1500,1500
1748138225.8810475,0.02,-0.05,-0.01,0.002181661564992912,0.001090830782496456,-0.001090830782496456,0.03221196298854444,0.5376690051524126,3.0247559933245167,0,0,0,0,0,0,1500,1500,1500,1500,1500,1500
1748138225.981705,0.0,-0.01,0.01,-0.002181661564992912,-0.00545415391248228,0.001090830782496456,0.03221196298854444,0.5376690051524126,3.0247559933245167,0,0,0,0,0,0,1500,1500,1500,1500,1500,1500
1748138226.0808985,0.0,-0.01,0.01,-0.002181661564992912,-0.00545415391248228,0.001090830782496456,0.03221196298854444,0.5376690051524126,3.0247559933245167,0,0,0,0,0,0,1500,1500,1500,1500,1500,1500
1748138226.1647046,0.0,-0.01,0.03,-0.002181661564992912,0.001090830782496456,0.0,0.03221196298854444,0.5376690051524126,3.0247559933245167,0,0,0,0,0,0,1500,1500,1500,1500,1500,1500
1748138226.2647786,0.0,-0.01,0.03,-0.002181661564992912,0.001090830782496456,0.0,0.03221196298854444,0.5376690051524126,3.0247559933245167,0,0,0,0,0,0,1500,1500,1500,1500,1500,1500
1748138226.3645794,0.01,0.04,-0.05,0.0,0.004363323129985824,-0.002181661564992912,0.03221196298854444,0.5376690051524126,3.0247559933245167,0,0,0,0,0,0,1500,1500,1500,1500,1500,1500
1748138226.4657285,0.02,0.0,-0.04,-0.001090830782496456,0.001090830782496456,0.001090830782496456,0.03221196298854444,0.5376690051524126,3.0247559933245167,0,0,0,0,0,0,1500,1500,1500,1500,1500,1500
1748138226.5637789,0.02,0.0,-0.04,-0.001090830782496456,0.001090830782496456,0.001090830782496456,0.03221196298854444,0.5376690051524126,3.0247559933245167,0,0,0,0,0,0,1500,1500,1500,1500,1500,1500
1748138226.647541,0.02,-0.03,0.0,0.0,-0.003272492347489368,0.001090830782496456,0.03221196298854444,0.5376690051524126,3.0247559933245167,0,0,0,0,0,0,1500,1500,1500,1500,1500,1500
1748138226.748067,0.02,-0.03,0.0,0.0,-0.003272492347489368,0.001090830782496456,0.03221196298854444,0.5376690051524126,3.0247559933245167,0,0,0,0,0,0,1500,1500,1500,1500,1500,1500
1748138226.8477952,0.01,-0.04,0.0,0.001090830782496456,0.0,-0.002181661564992912,0.03221196298854444,0.5376690051524126,3.0247559933245167,0,0,0,0,0,0,1500,1500,1500,1500,1500,1500
1748138226.9479284,0.02,0.01,-0.02,0.0,0.001090830782496456,0.001090830782496456,0.03221196298854444,0.5376690051524126,3.0247559933245167,0,0,0,0,0,0,1500,1500,1500,1500,1500,1500
1748138227.0472686,0.02,0.01,-0.02,0.0,0.001090830782496456,0.001090830782496456,0.03221196298854444,0.5376690051524126,3.0247559933245167,0,0,0,0,0,0,1500,1500,1500,1500,1500,1500
1748138227.1303432,0.02,0.01,-0.06,-0.001090830782496456,-0.001090830782496456,0.002181661564992912,0.03221196298854444,0.5376690051524126,3.0247559933245167,0,0,0,0,0,0,1500,1500,1500,1500,1500,1500
1748138227.231064,0.02,0.01,-0.06,-0.001090830782496456,-0.001090830782496456,0.002181661564992912,0.03221196298854444,0.5376690051524126,3.0247559933245167,0,0,0,0,0,0,1500,1500,1500,1500,1500,1500
1748138227.3317237,0.01,0.0,-0.05,0.0,-0.00545415391248228,0.001090830782496456,0.03221196298854444,0.5376690051524126,3.0247559933245167,0,0,0,0,0,0,1500,1500,1500,1500,1500,1500
1748138227.414482,0.03,-0.02,0.02,-0.001090830782496456,0.001090830782496456,0.0,0.03221196298854444,0.5376690051524126,3.0247559933245167,0,0,0,0,0,0,1500,1500,1500,1500,1500,1500
1748138227.515274,0.03,-0.02,0.02,-0.001090830782496456,0.001090830782496456,0.0,0.03221196298854444,0.5376690051524126,3.0247559933245167,0,0,0,0,0,0,1500,1500,1500,1500,1500,1500
1748138227.614024,0.01,-0.05,0.02,0.002181661564992912,-0.003272492347489368,0.001090830782496456,0.03221196298854444,0.5376690051524126,3.0247559933245167,0,0,0,0,0,0,1500,1500,1500,1500,1500,1500
1748138227.7146816,0.01,-0.05,0.02,0.002181661564992912,-0.003272492347489368,0.001090830782496456,0.03221196298854444,0.5376690051524126,3.0247559933245167,0,0,0,0,0,0,1500,1500,1500,1500,1500,1500
1748138227.8142374,0.03,0.0,-0.02,0.0,0.0,0.002181661564992912,0.03221196298854444,0.5376690051524126,3.0247559933245167,0,0,0,0,0,0,1500,1500,1500,1500,1500,1500
1748138227.896862,0.03,0.01,-0.09,0.0,-0.003272492347489368,-0.001090830782496456,0.03221196298854444,0.5376690051524126,3.0247559933245167,0,0,0,0,0,0,1500,1500,1500,1500,1500,1500
1748138227.997163,0.03,0.01,-0.09,0.0,-0.003272492347489368,-0.001090830782496456,0.03221196298854444,0.5376690051524126,3.0247559933245167,0,0,0,0,0,0,1500,1500,1500,1500,1500,1500
1748138228.098396,0.01,-0.02,-0.07,0.002181661564992912,-0.004363323129985824,-0.002181661564992912,0.03221196298854444,0.5376690051524126,3.0247559933245167,0,0,0,0,0,0,1500,1500,1500,1500,1500,1500
1748138228.198463,0.01,-0.02,-0.07,0.002181661564992912,-0.004363323129985824,-0.002181661564992912,0.03221196298854444,0.5376690051524126,3.0247559933245167,0,0,0,0,0,0,1500,1500,1500,1500,1500,1500
1748138228.29846,0.03,-0.05,-0.02,0.001090830782496456,0.003272492347489368,0.0,0.03221196298854444,0.5376690051524126,3.0247559933245167,0,0,0,0,0,0,1500,1500,1500,1500,1500,1500
1748138228.3826442,0.01,-0.03,0.02,0.004363323129985824,0.002181661564992912,0.0,0.03221196298854444,0.5376690051524126,3.0247559933245167,0,0,0,0,0,0,1500,1500,1500,1500,1500,1500
1748138228.4813728,0.01,-0.03,0.02,0.004363323129985824,0.002181661564992912,0.0,0.03221196298854444,0.5376690051524126,3.0247559933245167,0,0,0,0,0,0,1500,1500,1500,1500,1500,1500
1748138228.5808415,0.02,0.01,0.0,0.002181661564992912,0.003272492347489368,-0.002181661564992912,0.03221196298854444,0.5376690051524126,3.0247559933245167,0,0,0,0,0,0,1500,1500,1500,1500,1500,1500
1748138228.6647096,0.02,0.01,0.0,0.002181661564992912,0.003272492347489368,-0.002181661564992912,0.03221196298854444,0.5376690051524126,3.0247559933245167,0,0,0,0,0,0,1500,1500,1500,1500,1500,1500
1748138228.764254,0.01,0.01,-0.05,0.001090830782496456,0.003272492347489368,0.001090830782496456,0.03221196298854444,0.5376690051524126,3.0247559933245167,0,0,0,0,0,0,1500,1500,1500,1500,1500,1500
1748138228.8509026,0.03,0.0,-0.04,0.0,0.003272492347489368,0.002181661564992912,0.03221196298854444,0.5376690051524126,3.0247559933245167,0,0,0,0,0,0,1500,1500,1500,1500,1500,1500
1748138228.9481802,0.03,0.0,-0.04,0.0,0.003272492347489368,0.002181661564992912,0.03221196298854444,0.5376690051524126,3.0247559933245167,0,0,0,0,0,0,1500,1500,1500,1500,1500,1500
1748138229.0484288,0.0,-0.01,-0.04,0.001090830782496456,-0.002181661564992912,0.0,0.03221196298854444,0.5376690051524126,3.0247559933245167,0,0,0,0,0,0,1500,1500,1500,1500,1500,1500
1748138229.1317034,0.0,-0.01,-0.04,0.001090830782496456,-0.002181661564992912,0.0,0.03221196298854444,0.5376690051524126,3.0247559933245167,0,0,0,0,0,0,1500,1500,1500,1500,1500,1500
1748138229.231029,0.03,0.06,0.13,0.004363323129985824,0.001090830782496456,0.0,0.03221196298854444,0.5376690051524126,3.0247559933245167,0,0,0,0,0,0,1500,1500,1500,1500,1500,1500
1748138229.3316398,0.03,0.06,0.13,0.004363323129985824,0.001090830782496456,0.0,0.03221196298854444,0.5376690051524126,3.0247559933245167,0,0,0,0,0,0,1500,1500,1500,1500,1500,1500
1748138229.4146369,0.01,0.1,0.01,0.001090830782496456,0.004363323129985824,0.001090830782496456,0.03221196298854444,0.5376690051524126,3.0247559933245167,0,0,0,0,0,0,1500,1500,1500,1500,1500,1500
1748138229.514725,0.0,0.15,-0.05,0.003272492347489368,0.001090830782496456,0.001090830782496456,0.03194867191394086,0.5375526145792436,3.024698331400739,0,0,0,0,0,0,1500,1500,1500,1500,1500,1500
1748138229.6143203,0.0,0.15,-0.05,0.003272492347489368,0.001090830782496456,0.001090830782496456,0.03194867191394086,0.5375526145792436,3.024698331400739,0,0,0,0,0,0,1500,1500,1500,1500,1500,1500
1748138229.7152896,0.1,0.1,0.17,-0.00545415391248228,-0.006544984694978736,0.001090830782496456,0.03221196298854444,0.5376690051524126,3.0247559933245167,0,0,0,0,0,0,1500,1500,1500,1500,1500,1500
1748138229.8123143,-0.06,-0.03,-0.06,-0.001090830782496456,0.007635815477475192,0.001090830782496456,0.03219959848066152,0.5379424827920742,3.024764747571777,0,0,0,0,0,0,1500,1500,1500,1500,1500,1500
1748138229.8979018,-0.06,-0.03,-0.06,-0.001090830782496456,0.007635815477475192,0.001090830782496456,0.03219959848066152,0.5379424827920742,3.024764747571777,0,0,0,0,0,0,1500,1500,1500,1500,1500,1500
1748138229.9981773,0.01,0.03,0.03,-0.001090830782496456,0.0,0.001090830782496456,0.03219959848066152,0.5379424827920742,3.024764747571777,0,0,0,0,0,0,1500,1500,1500,1500,1500,1500
1748138230.0975628,0.01,0.03,0.03,-0.001090830782496456,0.0,0.001090830782496456,0.03219959848066152,0.5379424827920742,3.024764747571777,0,0,0,0,0,0,1500,1500,1500,1500,1500,1500
1748138230.1812382,0.05,-0.01,0.01,0.001090830782496456,0.004363323129985824,0.0,0.03219959848066152,0.5379424827920742,3.024764747571777,0,0,0,0,0,0,1500,1500,1500,1500,1500,1500
1748138230.2808301,0.05,-0.01,0.01,0.001090830782496456,0.004363323129985824,0.0,0.03219959848066152,0.5379424827920742,3.024764747571777,0,0,0,0,0,0,1500,1500,1500,1500,1500,1500
1748138230.3815053,-0.02,0.02,-0.12,0.003272492347489368,0.007635815477475192,0.0,0.03219959848066152,0.5379424827920742,3.024764747571777,0,0,0,0,0,0,1500,1500,1500,1500,1500,1500
1748138230.4819968,0.1,-0.03,0.14,-0.007635815477475192,-0.002181661564992912,0.002181661564992912,0.03219959848066152,0.5379424827920742,3.024764747571777,0,0,0,0,0,0,1500,1500,1500,1500,1500,1500
1748138230.5814056,0.1,-0.03,0.14,-0.007635815477475192,-0.002181661564992912,0.002181661564992912,0.03219959848066152,0.5379424827920742,3.024764747571777,0,0,0,0,0,0,1500,1500,1500,1500,1500,1500
1748138230.6638901,0.0,0.0,0.01,-0.007635815477475192,-0.006544984694978736,0.003272492347489368,0.03209799162688791,0.5372877862872106,3.024727902864733,0,0,0,0,0,0,1500,1500,1500,1500,1500,1500
1748138230.7639606,0.0,0.0,0.01,-0.007635815477475192,-0.006544984694978736,0.003272492347489368,0.03209799162688791,0.5372877862872106,3.024727902864733,0,0,0,0,0,0,1500,1500,1500,1500,1500,1500
1748138230.864776,-0.14,-0.14,-0.21,-0.003272492347489368,0.015271630954950384,0.007635815477475192,0.03236566052692324,0.537441704947841,3.0248088701973703,0,0,0,0,0,0,1500,1500,1500,1500,1500,1500
1748138230.964511,0.03,-0.14,-0.01,-0.001090830782496456,-0.001090830782496456,-0.006544984694978736,0.03237183086339476,0.537304992698753,3.0248044856560274,0,0,0,0,0,0,1500,1500,1500,1500,1500,1500
1748138231.0646935,0.03,-0.14,-0.01,-0.001090830782496456,-0.001090830782496456,-0.006544984694978736,0.03237183086339476,0.537304992698753,3.0248044856560274,0,0,0,0,0,0,1500,1500,1500,1500,1500,1500
1748138231.1478949,-0.01,0.0,-0.12,0.0,0.003272492347489368,0.00545415391248228,0.0326081788208616,0.5373266310523612,3.0247452944398225,0,0,0,0,0,0,1500,1500,1500,1500,1500,1500
1748138231.247805,-0.01,0.0,-0.12,0.0,0.003272492347489368,0.00545415391248228,0.0326081788208616,0.5373266310523612,3.0247452944398225,0,0,0,0,0,0,1500,1500,1500,1500,1500,1500
1748138231.347397,0.03,-0.05,-0.05,0.003272492347489368,-0.001090830782496456,0.001090830782496456,0.0326081788208616,0.5373266310523612,3.0247452944398225,0,0,0,0,0,0,1500,1500,1500,1500,1500,1500
1748138231.4483144,0.01,-0.04,-0.01,0.0,-0.001090830782496456,0.0,0.0326081788208616,0.5373266310523612,3.0247452944398225,0,0,0,0,0,0,1500,1500,1500,1500,1500,1500
1748138231.5473106,0.01,-0.04,-0.01,0.0,-0.001090830782496456,0.0,0.0326081788208616,0.5373266310523612,3.0247452944398225,0,0,0,0,0,0,1500,1500,1500,1500,1500,1500
1748138231.631454,0.01,0.0,-0.01,-0.003272492347489368,-0.004363323129985824,0.002181661564992912,0.0326081788208616,0.5373266310523612,3.0247452944398225,0,0,0,0,0,0,1500,1500,1500,1500,1500,1500
1748138231.7315495,0.01,0.0,-0.01,-0.003272492347489368,-0.004363323129985824,0.002181661564992912,0.0326081788208616,0.5373266310523612,3.0247452944398225,0,0,0,0,0,0,1500,1500,1500,1500,1500,1500
1748138231.8315904,0.01,0.01,-0.01,0.003272492347489368,-0.004363323129985824,0.0,0.0326081788208616,0.5373266310523612,3.0247452944398225,0,0,0,0,0,0,1500,1500,1500,1500,1500,1500
1748138231.9140406,0.02,-0.02,-0.07,-0.002181661564992912,0.001090830782496456,0.002181661564992912,0.0326081788208616,0.5373266310523612,3.0247452944398225,0,0,0,0,0,0,1500,1500,1500,1500,1500,1500
1748138232.0147555,0.02,-0.02,-0.07,-0.002181661564992912,0.001090830782496456,0.002181661564992912,0.0326081788208616,0.5373266310523612,3.0247452944398225,0,0,0,0,0,0,1500,1500,1500,1500,1500,1500
1748138232.1144204,0.03,-0.01,-0.06,0.003272492347489368,0.001090830782496456,0.003272492347489368,0.0326081788208616,0.5373266310523612,3.0247452944398225,0,0,0,0,0,0,1500,1500,1500,1500,1500,1500
1748138232.2147698,0.02,-0.02,-0.01,-0.002181661564992912,-0.001090830782496456,0.002181661564992912,0.0326081788208616,0.5373266310523612,3.0247452944398225,0,0,0,0,0,0,1500,1500,1500,1500,1500,1500
1748138232.3143303,0.02,-0.02,-0.01,-0.002181661564992912,-0.001090830782496456,0.002181661564992912,0.0326081788208616,0.5373266310523612,3.0247452944398225,0,0,0,0,0,0,1500,1500,1500,1500,1500,1500
1748138232.3976245,0.0,0.01,0.0,0.0,-0.001090830782496456,0.001090830782496456,0.0326081788208616,0.5373266310523612,3.0247452944398225,0,0,0,0,0,0,1500,1500,1500,1500,1500,1500
1748138232.4982603,0.0,0.01,0.0,0.0,-0.001090830782496456,0.001090830782496456,0.0326081788208616,0.5373266310523612,3.0247452944398225,0,0,0,0,0,0,1500,1500,1500,1500,1500,1500
1748138232.597388,0.01,0.04,-0.04,0.001090830782496456,-0.001090830782496456,0.002181661564992912,0.0326081788208616,0.5373266310523612,3.0247452944398225,0,0,0,0,0,0,1500,1500,1500,1500,1500,1500
1748138232.6956308,0.03,0.03,-0.05,0.002181661564992912,0.002181661564992912,-0.001090830782496456,0.0326081788208616,0.5373266310523612,3.0247452944398225,0,0,0,0,0,0,1500,1500,1500,1500,1500,1500
1748138232.7974584,0.03,0.03,-0.05,0.002181661564992912,0.002181661564992912,-0.001090830782496456,0.0326081788208616,0.5373266310523612,3.0247452944398225,0,0,0,0,0,0,1500,1500,1500,1500,1500,1500
1748138232.8823628,0.02,0.0,-0.06,0.001090830782496456,0.002181661564992912,0.001090830782496456,0.0326081788208616,0.5373266310523612,3.0247452944398225,0,0,0,0,0,0,1500,1500,1500,1500,1500,1500
1748138232.9808922,0.02,0.0,-0.06,0.001090830782496456,0.002181661564992912,0.001090830782496456,0.0326081788208616,0.5373266310523612,3.0247452944398225,0,0,0,0,0,0,1500,1500,1500,1500,1500,1500
1748138233.0812585,0.01,-0.03,-0.02,-0.002181661564992912,0.001090830782496456,-0.001090830782496456,0.0326081788208616,0.5373266310523612,3.0247452944398225,0,0,0,0,0,0,1500,1500,1500,1500,1500,1500
1748138233.1647081,0.01,-0.03,-0.02,-0.002181661564992912,0.001090830782496456,-0.001090830782496456,0.0326081788208616,0.5373266310523612,3.0247452944398225,0,0,0,0,0,0,1500,1500,1500,1500,1500,1500
1748138233.265402,0.02,0.04,0.01,0.001090830782496456,0.0,0.0,0.0326081788208616,0.5373266310523612,3.0247452944398225,0,0,0,0,0,0,1500,1500,1500,1500,1500,1500
1748138233.3647554,0.1,-0.16,0.08,-0.007635815477475192,-0.006544984694978736,-0.002181661564992912,0.03237183086339476,0.537304992698753,3.0248044856560274,0,0,0,0,0,0,1500,1500,1500,1500,1500,1500
1748138233.4647408,0.1,-0.16,0.08,-0.007635815477475192,-0.006544984694978736,-0.002181661564992912,0.03237183086339476,0.537304992698753,3.0248044856560274,0,0,0,0,0,0,1500,1500,1500,1500,1500,1500
1748138233.5645742,-0.01,0.03,-0.14,0.006544984694978736,0.001090830782496456,0.001090830782496456,0.03237183086339476,0.537304992698753,3.0248044856560274,0,0,0,0,0,0,1500,1500,1500,1500,1500,1500
1748138233.6474311,-0.01,0.03,-0.14,0.006544984694978736,0.001090830782496456,0.001090830782496456,0.03237183086339476,0.537304992698753,3.0248044856560274,0,0,0,0,0,0,1500,1500,1500,1500,1500,1500
1748138233.7489011,0.01,0.02,-0.05,0.003272492347489368,0.002181661564992912,0.0,0.03237183086339476,0.537304992698753,3.0248044856560274,0,0,0,0,0,0,1500,1500,1500,1500,1500,1500
1748138233.8483431,0.04,-0.06,0.04,-0.001090830782496456,-0.003272492347489368,0.002181661564992912,0.03237183086339476,0.537304992698753,3.0248044856560274,0,0,0,0,0,0,1500,1500,1500,1500,1500,1500
1748138233.9472098,0.04,-0.06,0.04,-0.001090830782496456,-0.003272492347489368,0.002181661564992912,0.03237183086339476,0.537304992698753,3.0248044856560274,0,0,0,0,0,0,1500,1500,1500,1500,1500,1500
1748138234.0482156,0.0,-0.01,-0.06,-0.003272492347489368,0.003272492347489368,0.001090830782496456,0.03237183086339476,0.537304992698753,3.0248044856560274,0,0,0,0,0,0,1500,1500,1500,1500,1500,1500
1748138234.1304119,0.0,-0.01,-0.06,-0.003272492347489368,0.003272492347489368,0.001090830782496456,0.03237183086339476,0.537304992698753,3.0248044856560274,0,0,0,0,0,0,1500,1500,1500,1500,1500,1500
1748138234.2326183,0.02,0.02,-0.01,0.001090830782496456,-0.002181661564992912,0.0,0.03237183086339476,0.537304992698753,3.0248044856560274,0,0,0,0,0,0,1500,1500,1500,1500,1500,1500
1748138234.331369,0.03,0.0,-0.04,-0.001090830782496456,0.002181661564992912,0.0,0.03237183086339476,0.537304992698753,3.0248044856560274,0,0,0,0,0,0,1500,1500,1500,1500,1500,1500
1748138234.414923,0.03,0.0,-0.04,-0.001090830782496456,0.002181661564992912,0.0,0.03237183086339476,0.537304992698753,3.0248044856560274,0,0,0,0,0,0,1500,1500,1500,1500,1500,1500
1748138234.5135207,0.0,-0.02,-0.06,0.0,-0.002181661564992912,0.001090830782496456,0.03237183086339476,0.537304992698753,3.0248044856560274,0,0,0,0,0,0,1500,1500,1500,1500,1500,1500
1748138234.615089,0.0,-0.02,-0.06,0.0,-0.002181661564992912,0.001090830782496456,0.03237183086339476,0.537304992698753,3.0248044856560274,0,0,0,0,0,0,1500,1500,1500,1500,1500,1500
1748138234.7136586,0.01,-0.02,0.04,0.003272492347489368,0.003272492347489368,0.002181661564992912,0.03237183086339476,0.537304992698753,3.0248044856560274,0,0,0,0,0,0,1500,1500,1500,1500,1500,1500
1748138234.8155735,0.01,-0.01,0.0,-0.001090830782496456,-0.001090830782496456,0.001090830782496456,0.03237183086339476,0.537304992698753,3.0248044856560274,0,0,0,0,0,0,1500,1500,1500,1500,1500,1500
1748138234.9149942,0.01,-0.01,0.0,-0.001090830782496456,-0.001090830782496456,0.001090830782496456,0.03237183086339476,0.537304992698753,3.0248044856560274,0,0,0,0,0,0,1500,1500,1500,1500,1500,1500
1748138235.0148208,0.0,0.01,-0.01,-0.001090830782496456,-0.001090830782496456,-0.001090830782496456,0.03237183086339476,0.537304992698753,3.0248044856560274,0,0,0,0,0,0,1500,1500,1500,1500,1500,1500
1748138235.1155639,0.01,0.01,-0.06,0.0,-0.001090830782496456,0.001090830782496456,0.03237183086339476,0.537304992698753,3.0248044856560274,0,0,0,0,0,0,1500,1500,1500,1500,1500,1500
1748138235.2143438,0.01,0.01,-0.06,0.0,-0.001090830782496456,0.001090830782496456,0.03237183086339476,0.537304992698753,3.0248044856560274,0,0,0,0,0,0,1500,1500,1500,1500,1500,1500
1748138235.3143399,0.02,-0.01,-0.01,0.0,0.003272492347489368,0.0,0.03237183086339476,0.537304992698753,3.0248044856560274,0,0,0,0,0,0,1500,1500,1500,1500,1500,1500
1748138235.3977773,0.02,-0.01,-0.01,0.0,0.003272492347489368,0.0,0.03237183086339476,0.537304992698753,3.0248044856560274,0,0,0,0,0,0,1500,1500,1500,1500,1500,1500
1748138235.497925,-0.01,-0.02,0.0,0.001090830782496456,0.001090830782496456,0.001090830782496456,0.03237183086339476,0.537304992698753,3.0248044856560274,0,0,0,0,0,0,1500,1500,1500,1500,1500,1500
1748138235.5973837,0.0,0.0,-0.01,0.0,0.001090830782496456,-0.001090830782496456,0.03237183086339476,0.537304992698753,3.0248044856560274,0,0,0,0,0,0,1500,1500,1500,1500,1500,1500
1748138235.6814022,0.0,0.0,-0.01,0.0,0.001090830782496456,-0.001090830782496456,0.03237183086339476,0.537304992698753,3.0248044856560274,0,0,0,0,0,0,1500,1500,1500,1500,1500,1500
1748138235.7809794,0.0,0.0,-0.02,-0.001090830782496456,-0.001090830782496456,0.0,0.03237183086339476,0.537304992698753,3.0248044856560274,0,0,0,0,0,0,1500,1500,1500,1500,1500,1500
1748138235.880837,0.0,0.0,-0.02,-0.001090830782496456,-0.001090830782496456,0.0,0.03237183086339476,0.537304992698753,3.0248044856560274,0,0,0,0,0,0,1500,1500,1500,1500,1500,1500
1748138235.9805875,0.0,0.02,-0.06,0.0,-0.002181661564992912,0.0,0.03237183086339476,0.537304992698753,3.0248044856560274,0,0,0,0,0,0,1500,1500,1500,1500,1500,1500
1748138236.0819876,0.01,-0.02,0.0,-0.002181661564992912,0.0,0.0,0.03237183086339476,0.537304992698753,3.0248044856560274,0,0,0,0,0,0,1500,1500,1500,1500,1500,1500
1748138236.1658998,0.01,-0.02,0.0,-0.002181661564992912,0.0,0.0,0.03237183086339476,0.537304992698753,3.0248044856560274,0,0,0,0,0,0,1500,1500,1500,1500,1500,1500
1748138236.265489,0.0,0.0,0.02,0.002181661564992912,0.001090830782496456,0.001090830782496456,0.03237183086339476,0.537304992698753,3.0248044856560274,0,0,0,0,0,0,1500,1500,1500,1500,1500,1500
1748138236.3648252,0.0,0.0,0.02,0.002181661564992912,0.001090830782496456,0.001090830782496456,0.03237183086339476,0.537304992698753,3.0248044856560274,0,0,0,0,0,0,1500,1500,1500,1500,1500,1500
1748138236.4644225,0.0,0.0,-0.01,-0.00545415391248228,-0.003272492347489368,0.001090830782496456,0.03237183086339476,0.537304992698753,3.0248044856560274,0,0,0,0,0,0,1500,1500,1500,1500,1500,1500
1748138236.563949,0.03,0.0,-0.06,0.001090830782496456,0.0,-0.001090830782496456,0.03237183086339476,0.537304992698753,3.0248044856560274,0,0,0,0,0,0,1500,1500,1500,1500,1500,1500
1748138236.6481655,0.03,0.0,-0.06,0.001090830782496456,0.0,-0.001090830782496456,0.03237183086339476,0.537304992698753,3.0248044856560274,0,0,0,0,0,0,1500,1500,1500,1500,1500,1500
1748138236.7483637,0.02,0.01,-0.05,0.0,-0.003272492347489368,0.0,0.03237183086339476,0.537304992698753,3.0248044856560274,0,0,0,0,0,0,1500,1500,1500,1500,1500,1500
1748138236.8475711,0.02,0.01,-0.05,0.0,-0.003272492347489368,0.0,0.03237183086339476,0.537304992698753,3.0248044856560274,0,0,0,0,0,0,1500,1500,1500,1500,1500,1500
