time,ay,ax,az,gy,gx,gz,roll,pitch,yaw,cmd_fx,cmd_fy,cmd_fz,cmd_tx,cmd_ty,cmd_tz,pwm_1,pwm_2,pwm_3,pwm_4,pwm_5,pwm_6
1747553308.798898,0.0,0.0,0.0,0.0,0.0,0.0,0.0,0.0,0.0,0,0,0,0,0,0,1500,1500,1500,1500,1500,1500
1747553308.890303,0.02,0.01,-0.33,0.001090830782496456,-0.002181661564992912,0.0,-0.018978881302954942,0.0904781218987497,-0.0008592513974775759,0,0,0,0,0,0,1500,1500,1500,1500,1500,1500
1747553308.9907863,0.02,0.01,-0.33,0.001090830782496456,-0.002181661564992912,0.0,-0.018978881302954942,0.0904781218987497,-0.0008592513974775759,0,0,0,0,0,0,1500,1500,1500,1500,1500,1500
1747553309.0905733,0.02,-0.02,-0.36,0.001090830782496456,0.002181661564992912,-0.001090830782496456,-0.018978881302954942,0.0904781218987497,-0.0008592513974775759,0,0,0,0,0,0,1500,1500,1500,1500,1500,1500
1747553309.187326,0.01,0.02,-0.33,-0.001090830782496456,-0.002181661564992912,0.001090830782496456,-0.018978881302954942,0.0904781218987497,-0.0008592513974775759,0,0,0,0,0,0,1500,1500,1500,1500,1500,1500
1747553309.2744231,0.01,0.02,-0.33,-0.001090830782496456,-0.002181661564992912,0.001090830782496456,-0.018978881302954942,0.0904781218987497,-0.0008592513974775759,0,0,0,0,0,0,1500,1500,1500,1500,1500,1500
1747553309.3737538,0.05,0.0,-0.36,0.0,-0.003272492347489368,-0.001090830782496456,-0.018978881302954942,0.0904781218987497,-0.0008592513974775759,0,0,0,0,0,0,1500,1500,1500,1500,1500,1500
1747553309.4745915,0.05,0.0,-0.36,0.0,-0.003272492347489368,-0.001090830782496456,-0.018978881302954942,0.0904781218987497,-0.0008592513974775759,0,0,0,0,0,0,1500,1500,1500,1500,1500,1500
1747553309.5577693,0.02,0.01,-0.3,-0.001090830782496456,0.004363323129985824,-0.001090830782496456,-0.018978881302954942,0.0904781218987497,-0.0008592513974775759,0,0,0,0,0,0,1500,1500,1500,1500,1500,1500
1747553309.657338,0.02,0.01,-0.3,-0.001090830782496456,0.004363323129985824,-0.001090830782496456,-0.018978881302954942,0.0904781218987497,-0.0008592513974775759,0,0,0,0,0,0,1500,1500,1500,1500,1500,1500
1747553309.757783,0.01,-0.01,-0.32,0.001090830782496456,-0.004363323129985824,-0.001090830782496456,-0.018978881302954942,0.0904781218987497,-0.0008592513974775759,0,0,0,0,0,0,1500,1500,1500,1500,1500,1500
1747553309.8576012,0.01,-0.01,-0.3,-0.001090830782496456,-0.001090830782496456,0.002181661564992912,-0.018978881302954942,0.0904781218987497,-0.0008592513974775759,0,0,0,0,0,0,1500,1500,1500,1500,1500,1500
1747553309.95747,0.01,-0.01,-0.3,-0.001090830782496456,-0.001090830782496456,0.002181661564992912,-0.018978881302954942,0.0904781218987497,-0.0008592513974775759,0,0,0,0,0,0,1500,1500,1500,1500,1500,1500
1747553310.041264,0.03,0.0,-0.32,0.0,0.002181661564992912,0.002181661564992912,-0.018978881302954942,0.0904781218987497,-0.0008592513974775759,0,0,0,0,0,0,1500,1500,1500,1500,1500,1500
1747553310.1405613,0.03,0.0,-0.32,0.0,0.002181661564992912,0.002181661564992912,-0.018978881302954942,0.0904781218987497,-0.0008592513974775759,0,0,0,0,0,0,1500,1500,1500,1500,1500,1500
1747553310.2403603,0.04,0.0,-0.36,0.001090830782496456,0.00545415391248228,0.0,-0.018978881302954942,0.0904781218987497,-0.0008592513974775759,0,0,0,0,0,0,1500,1500,1500,1500,1500,1500
1747553310.3241682,0.01,0.03,-0.29,0.0,-0.004363323129985824,0.002181661564992912,-0.018978881302954942,0.0904781218987497,-0.0008592513974775759,0,0,0,0,0,0,1500,1500,1500,1500,1500,1500
1747553310.4238033,0.01,0.03,-0.29,0.0,-0.004363323129985824,0.002181661564992912,-0.018978881302954942,0.0904781218987497,-0.0008592513974775759,0,0,0,0,0,0,1500,1500,1500,1500,1500,1500
1747553310.5242224,0.03,0.02,-0.36,-0.001090830782496456,0.00545415391248228,-0.001090830782496456,0.019020618754347227,-0.09067769169847534,-0.0008592513974775759,0,0,0,0,0,0,1500,1500,1500,1500,1500,1500
1747553310.6237924,0.02,-0.01,-0.3,0.002181661564992912,0.0,-0.001090830782496456,-0.018978881302954942,0.0904781218987497,-0.0008592513974775759,0,0,0,0,0,0,1500,1500,1500,1500,1500,1500
1747553310.7238896,0.02,-0.01,-0.3,0.002181661564992912,0.0,-0.001090830782496456,-0.018978881302954942,0.0904781218987497,-0.0008592513974775759,0,0,0,0,0,0,1500,1500,1500,1500,1500,1500
1747553310.8072946,0.03,0.02,-0.39,-0.004363323129985824,0.002181661564992912,0.002181661564992912,-0.018978881302954942,0.0904781218987497,-0.0008592513974775759,0,0,0,0,0,0,1500,1500,1500,1500,1500,1500
1747553310.9073174,0.03,0.02,-0.39,-0.004363323129985824,0.002181661564992912,0.002181661564992912,-0.018978881302954942,0.0904781218987497,-0.0008592513974775759,0,0,0,0,0,0,1500,1500,1500,1500,1500,1500
1747553311.0079772,0.02,0.0,-0.3,-0.002181661564992912,0.0,0.001090830782496456,-0.018978881302954942,0.0904781218987497,-0.0008592513974775759,0,0,0,0,0,0,1500,1500,1500,1500,1500,1500
1747553311.1109972,0.03,0.01,-0.37,-0.003272492347489368,-0.001090830782496456,0.0,-0.018978881302954942,0.0904781218987497,-0.0008592513974775759,0,0,0,0,0,0,1500,1500,1500,1500,1500,1500
1747553311.2087102,0.03,0.01,-0.37,-0.003272492347489368,-0.001090830782496456,0.0,-0.018978881302954942,0.0904781218987497,-0.0008592513974775759,0,0,0,0,0,0,1500,1500,1500,1500,1500,1500
1747553311.2921908,0.01,0.0,-0.3,-0.003272492347489368,0.001090830782496456,0.0,-0.018978881302954942,0.0904781218987497,-0.0008592513974775759,0,0,0,0,0,0,1500,1500,1500,1500,1500,1500
1747553311.3916335,0.01,0.0,-0.3,-0.003272492347489368,0.001090830782496456,0.0,-0.018978881302954942,0.0904781218987497,-0.0008592513974775759,0,0,0,0,0,0,1500,1500,1500,1500,1500,1500
1747553311.4934282,0.07,0.0,-0.36,0.0,-0.008726646259971648,0.001090830782496456,-0.018978881302954942,0.0904781218987497,-0.0008592513974775759,0,0,0,0,0,0,1500,1500,1500,1500,1500,1500
1747553311.5923254,0.02,0.03,-0.34,0.0,-0.001090830782496456,-0.001090830782496456,-0.018978881302954942,0.0904781218987497,-0.0008592513974775759,0,0,0,0,0,0,1500,1500,1500,1500,1500,1500
1747553311.692673,0.02,0.03,-0.34,0.0,-0.001090830782496456,-0.001090830782496456,-0.018978881302954942,0.0904781218987497,-0.0008592513974775759,0,0,0,0,0,0,1500,1500,1500,1500,1500,1500
1747553311.77663,0.01,0.03,-0.29,0.001090830782496456,-0.003272492347489368,0.0,-0.018978881302954942,0.0904781218987497,-0.0008592513974775759,0,0,0,0,0,0,1500,1500,1500,1500,1500,1500
1747553311.876548,0.03,0.0,-0.34,0.001090830782496456,0.001090830782496456,0.001090830782496456,-0.018978881302954942,0.0904781218987497,-0.0008592513974775759,0,0,0,0,0,0,1500,1500,1500,1500,1500,1500
1747553311.9772866,0.03,0.0,-0.34,0.001090830782496456,0.001090830782496456,0.001090830782496456,-0.018978881302954942,0.0904781218987497,-0.0008592513974775759,0,0,0,0,0,0,1500,1500,1500,1500,1500,1500
1747553312.076579,0.02,0.0,-0.34,0.001090830782496456,-0.002181661564992912,-0.002181661564992912,-0.018978881302954942,0.0904781218987497,-0.0008592513974775759,0,0,0,0,0,0,1500,1500,1500,1500,1500,1500
1747553312.1764038,0.02,0.0,-0.34,0.001090830782496456,-0.002181661564992912,-0.002181661564992912,-0.018978881302954942,0.0904781218987497,-0.0008592513974775759,0,0,0,0,0,0,1500,1500,1500,1500,1500,1500
1747553312.2619956,0.02,0.02,-0.38,-0.002181661564992912,-0.002181661564992912,0.0,-0.018978881302954942,0.0904781218987497,-0.0008592513974775759,0,0,0,0,0,0,1500,1500,1500,1500,1500,1500
1747553312.3653893,0.01,0.04,-0.3,0.004363323129985824,0.001090830782496456,-0.002181661564992912,-0.018978881302954942,0.0904781218987497,-0.0008592513974775759,0,0,0,0,0,0,1500,1500,1500,1500,1500,1500
1747553312.45937,0.01,0.04,-0.3,0.004363323129985824,0.001090830782496456,-0.002181661564992912,-0.018978881302954942,0.0904781218987497,-0.0008592513974775759,0,0,0,0,0,0,1500,1500,1500,1500,1500,1500
1747553312.5427783,0.04,0.01,-0.33,0.0,-0.003272492347489368,0.001090830782496456,-0.018978881302954942,0.0904781218987497,-0.0008592513974775759,0,0,0,0,0,0,1500,1500,1500,1500,1500,1500
1747553312.6406102,0.04,0.01,-0.33,0.0,-0.003272492347489368,0.001090830782496456,-0.018978881302954942,0.0904781218987497,-0.0008592513974775759,0,0,0,0,0,0,1500,1500,1500,1500,1500,1500
1747553312.7430596,0.01,0.0,-0.28,-0.001090830782496456,-0.003272492347489368,-0.001090830782496456,-0.018978881302954942,0.0904781218987497,-0.0008592513974775759,0,0,0,0,0,0,1500,1500,1500,1500,1500,1500
1747553312.8427024,0.04,0.0,-0.39,0.001090830782496456,-0.001090830782496456,0.0,-0.018978881302954942,0.0904781218987497,-0.0008592513974775759,0,0,0,0,0,0,1500,1500,1500,1500,1500,1500
1747553312.9422038,0.04,0.0,-0.39,0.001090830782496456,-0.001090830782496456,0.0,-0.018978881302954942,0.0904781218987497,-0.0008592513974775759,0,0,0,0,0,0,1500,1500,1500,1500,1500,1500
1747553313.0266142,0.0,0.03,-0.28,-0.002181661564992912,0.001090830782496456,0.0,-0.018978881302954942,0.0904781218987497,-0.0008592513974775759,0,0,0,0,0,0,1500,1500,1500,1500,1500,1500
1747553313.1246605,0.05,0.0,-0.38,0.0,0.001090830782496456,0.0,-0.018978881302954942,0.0904781218987497,-0.0008592513974775759,0,0,0,0,0,0,1500,1500,1500,1500,1500,1500
1747553313.2263763,0.05,0.0,-0.38,0.0,0.001090830782496456,0.0,-0.018978881302954942,0.0904781218987497,-0.0008592513974775759,0,0,0,0,0,0,1500,1500,1500,1500,1500,1500
1747553313.3265498,0.03,0.0,-0.35000000000000003,0.002181661564992912,-0.00545415391248228,0.001090830782496456,-0.018978881302954942,0.0904781218987497,-0.0008592513974775759,0,0,0,0,0,0,1500,1500,1500,1500,1500,1500
1747553313.4264355,0.03,0.0,-0.35000000000000003,0.002181661564992912,-0.00545415391248228,0.001090830782496456,-0.018978881302954942,0.0904781218987497,-0.0008592513974775759,0,0,0,0,0,0,1500,1500,1500,1500,1500,1500
1747553313.5094056,0.02,0.0,-0.39,0.0,0.001090830782496456,0.001090830782496456,-0.018978881302954942,0.0904781218987497,-0.0008592513974775759,0,0,0,0,0,0,1500,1500,1500,1500,1500,1500
1747553313.6084375,0.03,0.01,-0.33,-0.001090830782496456,-0.002181661564992912,0.002181661564992912,-0.018978881302954942,0.0904781218987497,-0.0008592513974775759,0,0,0,0,0,0,1500,1500,1500,1500,1500,1500
1747553313.7094178,0.03,0.01,-0.33,-0.001090830782496456,-0.002181661564992912,0.002181661564992912,-0.018978881302954942,0.0904781218987497,-0.0008592513974775759,0,0,0,0,0,0,1500,1500,1500,1500,1500,1500
1747553313.7926428,0.04,0.0,-0.36,0.0,0.0,-0.002181661564992912,-0.018978881302954942,0.0904781218987497,-0.0008592513974775759,0,0,0,0,0,0,1500,1500,1500,1500,1500,1500
1747553313.892839,0.04,0.0,-0.36,0.0,0.0,-0.002181661564992912,-0.018978881302954942,0.0904781218987497,-0.0008592513974775759,0,0,0,0,0,0,1500,1500,1500,1500,1500,1500
1747553313.9926481,0.07,-0.02,-0.38,-0.001090830782496456,0.003272492347489368,0.002181661564992912,-0.018978881302954942,0.0904781218987497,-0.0008592513974775759,0,0,0,0,0,0,1500,1500,1500,1500,1500,1500
1747553314.0928738,0.04,0.01,-0.34,0.001090830782496456,-0.002181661564992912,-0.001090830782496456,-0.018978881302954942,0.0904781218987497,-0.0008592513974775759,0,0,0,0,0,0,1500,1500,1500,1500,1500,1500
1747553314.1947925,0.04,0.01,-0.34,0.001090830782496456,-0.002181661564992912,-0.001090830782496456,-0.018978881302954942,0.0904781218987497,-0.0008592513974775759,0,0,0,0,0,0,1500,1500,1500,1500,1500,1500
1747553314.2944372,0.04,0.0,-0.33,0.001090830782496456,-0.002181661564992912,0.0,-0.018978881302954942,0.0904781218987497,-0.0008592513974775759,0,0,0,0,0,0,1500,1500,1500,1500,1500,1500
1747553314.3883986,0.04,0.02,-0.36,-0.001090830782496456,-0.001090830782496456,0.002181661564992912,-0.018978881302954942,0.0904781218987497,-0.0008592513974775759,0,0,0,0,0,0,1500,1500,1500,1500,1500,1500
1747553314.4945335,0.04,0.02,-0.36,-0.001090830782496456,-0.001090830782496456,0.002181661564992912,-0.018978881302954942,0.0904781218987497,-0.0008592513974775759,0,0,0,0,0,0,1500,1500,1500,1500,1500,1500
1747553314.59376,0.04,0.01,-0.4,0.001090830782496456,0.003272492347489368,0.0,-0.018978881302954942,0.0904781218987497,-0.0008592513974775759,0,0,0,0,0,0,1500,1500,1500,1500,1500,1500
1747553314.693083,0.04,0.01,-0.4,0.001090830782496456,0.003272492347489368,0.0,-0.018978881302954942,0.0904781218987497,-0.0008592513974775759,0,0,0,0,0,0,1500,1500,1500,1500,1500,1500
1747553314.7762063,0.02,0.0,-0.29,0.0,0.0,0.001090830782496456,-0.018978881302954942,0.0904781218987497,-0.0008592513974775759,0,0,0,0,0,0,1500,1500,1500,1500,1500,1500
1747553314.8763788,0.02,0.02,-0.36,-0.002181661564992912,-0.002181661564992912,-0.002181661564992912,-0.018978881302954942,0.0904781218987497,-0.0008592513974775759,0,0,0,0,0,0,1500,1500,1500,1500,1500,1500
1747553314.9751997,0.02,0.02,-0.36,-0.002181661564992912,-0.002181661564992912,-0.002181661564992912,-0.018978881302954942,0.0904781218987497,-0.0008592513974775759,0,0,0,0,0,0,1500,1500,1500,1500,1500,1500
1747553315.0750802,0.02,-0.02,-0.26,-0.002181661564992912,-0.003272492347489368,-0.001090830782496456,-0.018978881302954942,0.0904781218987497,-0.0008592513974775759,0,0,0,0,0,0,1500,1500,1500,1500,1500,1500
1747553315.179073,0.02,-0.02,-0.26,-0.002181661564992912,-0.003272492347489368,-0.001090830782496456,-0.018978881302954942,0.0904781218987497,-0.0008592513974775759,0,0,0,0,0,0,1500,1500,1500,1500,1500,1500
1747553315.2772284,0.06,0.0,-0.35000000000000003,0.0,-0.001090830782496456,-0.001090830782496456,-0.018978881302954942,0.0904781218987497,-0.0008592513974775759,0,0,0,0,0,0,1500,1500,1500,1500,1500,1500
1747553315.3749194,0.03,0.0,-0.32,-0.002181661564992912,-0.003272492347489368,0.0,-0.018978881302954942,0.0904781218987497,-0.0008592513974775759,0,0,0,0,0,0,1500,1500,1500,1500,1500,1500
1747553315.4751208,0.03,0.0,-0.32,-0.002181661564992912,-0.003272492347489368,0.0,-0.018978881302954942,0.0904781218987497,-0.0008592513974775759,0,0,0,0,0,0,1500,1500,1500,1500,1500,1500
1747553315.5582738,0.04,-0.02,-0.43,-0.002181661564992912,0.009817477042468103,0.001090830782496456,-0.018978881302954942,0.0904781218987497,-0.0008592513974775759,0,0,0,0,0,0,1500,1500,1500,1500,1500,1500
1747553315.6580024,0.04,0.0,-0.35000000000000003,-0.002181661564992912,-0.003272492347489368,0.0,-0.018978881302954942,0.0904781218987497,-0.0008592513974775759,0,0,0,0,0,0,1500,1500,1500,1500,1500,1500
1747553315.7576487,0.04,0.0,-0.35000000000000003,-0.002181661564992912,-0.003272492347489368,0.0,-0.018978881302954942,0.0904781218987497,-0.0008592513974775759,0,0,0,0,0,0,1500,1500,1500,1500,1500,1500
1747553315.8571353,0.02,0.0,-0.33,0.0,-0.006544984694978736,0.001090830782496456,-0.018978881302954942,0.0904781218987497,-0.0008592513974775759,0,0,0,0,0,0,1500,1500,1500,1500,1500,1500
1747553315.9611328,0.01,0.02,-0.31,0.002181661564992912,0.001090830782496456,0.001090830782496456,-0.018978881302954942,0.0904781218987497,-0.0008592513974775759,0,0,0,0,0,0,1500,1500,1500,1500,1500,1500
1747553316.060326,0.01,0.02,-0.31,0.002181661564992912,0.001090830782496456,0.001090830782496456,-0.018978881302954942,0.0904781218987497,-0.0008592513974775759,0,0,0,0,0,0,1500,1500,1500,1500,1500,1500
1747553316.1590335,0.01,0.01,-0.3,0.001090830782496456,0.001090830782496456,0.0,-0.018978881302954942,0.0904781218987497,-0.0008592513974775759,0,0,0,0,0,0,1500,1500,1500,1500,1500,1500
1747553316.2436666,0.01,0.01,-0.3,0.001090830782496456,0.001090830782496456,0.0,-0.018978881302954942,0.0904781218987497,-0.0008592513974775759,0,0,0,0,0,0,1500,1500,1500,1500,1500,1500
1747553316.3439515,0.05,0.0,-0.34,0.0,-0.003272492347489368,-0.001090830782496456,-0.018978881302954942,0.0904781218987497,-0.0008592513974775759,0,0,0,0,0,0,1500,1500,1500,1500,1500,1500
1747553316.4362216,0.04,0.0,-0.36,0.001090830782496456,-0.002181661564992912,0.002181661564992912,-0.018978881302954942,0.0904781218987497,-0.0008592513974775759,0,0,0,0,0,0,1500,1500,1500,1500,1500,1500
1747553316.5261722,0.04,0.0,-0.36,0.001090830782496456,-0.002181661564992912,0.002181661564992912,-0.018978881302954942,0.0904781218987497,-0.0008592513974775759,0,0,0,0,0,0,1500,1500,1500,1500,1500,1500
1747553316.6261642,0.05,0.01,-0.34,0.0,-0.001090830782496456,0.0,-0.018978881302954942,0.0904781218987497,-0.0008592513974775759,0,0,0,0,0,0,1500,1500,1500,1500,1500,1500
1747553316.726357,0.05,0.01,-0.34,0.0,-0.001090830782496456,0.0,-0.018978881302954942,0.0904781218987497,-0.0008592513974775759,0,0,0,0,0,0,1500,1500,1500,1500,1500,1500
1747553316.824873,0.02,-0.01,-0.29,-0.001090830782496456,0.0,-0.001090830782496456,-0.018978881302954942,0.0904781218987497,-0.0008592513974775759,0,0,0,0,0,0,1500,1500,1500,1500,1500,1500
1747553316.9273574,0.06,-0.01,-0.36,0.0,-0.002181661564992912,-0.001090830782496456,-0.018978881302954942,0.0904781218987497,-0.0008592513974775759,0,0,0,0,0,0,1500,1500,1500,1500,1500,1500
1747553317.009074,0.06,-0.01,-0.36,0.0,-0.002181661564992912,-0.001090830782496456,-0.018978881302954942,0.0904781218987497,-0.0008592513974775759,0,0,0,0,0,0,1500,1500,1500,1500,1500,1500
1747553317.1095028,0.01,0.0,-0.3,0.0,0.001090830782496456,-0.001090830782496456,-0.018978881302954942,0.0904781218987497,-0.0008592513974775759,0,0,0,0,0,0,1500,1500,1500,1500,1500,1500
1747553317.2096102,0.01,0.0,-0.3,0.0,0.001090830782496456,-0.001090830782496456,-0.018978881302954942,0.0904781218987497,-0.0008592513974775759,0,0,0,0,0,0,1500,1500,1500,1500,1500,1500
1747553317.2928202,0.03,0.0,-0.35000000000000003,0.001090830782496456,0.002181661564992912,-0.001090830782496456,-0.018978881302954942,0.0904781218987497,-0.0008592513974775759,0,0,0,0,0,0,1500,1500,1500,1500,1500,1500
1747553317.389363,0.03,0.0,-0.3,-0.002181661564992912,0.0,-0.001090830782496456,-0.018978881302954942,0.0904781218987497,-0.0008592513974775759,0,0,0,0,0,0,1500,1500,1500,1500,1500,1500
1747553317.492273,0.03,0.0,-0.3,-0.002181661564992912,0.0,-0.001090830782496456,-0.018978881302954942,0.0904781218987497,-0.0008592513974775759,0,0,0,0,0,0,1500,1500,1500,1500,1500,1500
1747553317.5923114,0.01,0.02,-0.37,0.001090830782496456,-0.003272492347489368,0.001090830782496456,-0.018978881302954942,0.0904781218987497,-0.0008592513974775759,0,0,0,0,0,0,1500,1500,1500,1500,1500,1500
1747553317.6922655,0.01,0.02,-0.37,0.001090830782496456,-0.003272492347489368,0.001090830782496456,-0.018978881302954942,0.0904781218987497,-0.0008592513974775759,0,0,0,0,0,0,1500,1500,1500,1500,1500,1500
1747553317.7762182,0.01,0.0,-0.32,0.001090830782496456,-0.002181661564992912,-0.002181661564992912,-0.018978881302954942,0.0904781218987497,-0.0008592513974775759,0,0,0,0,0,0,1500,1500,1500,1500,1500,1500
1747553317.876727,0.04,0.01,-0.32,0.0,0.001090830782496456,0.001090830782496456,-0.018978881302954942,0.0904781218987497,-0.0008592513974775759,0,0,0,0,0,0,1500,1500,1500,1500,1500,1500
1747553317.97651,0.04,0.01,-0.32,0.0,0.001090830782496456,0.001090830782496456,-0.018978881302954942,0.0904781218987497,-0.0008592513974775759,0,0,0,0,0,0,1500,1500,1500,1500,1500,1500
1747553318.076519,0.02,0.02,-0.38,0.001090830782496456,0.0,-0.002181661564992912,-0.018978881302954942,0.0904781218987497,-0.0008592513974775759,0,0,0,0,0,0,1500,1500,1500,1500,1500,1500
1747553318.1730247,0.06,0.0,-0.29,0.0,0.003272492347489368,0.001090830782496456,-0.018978881302954942,0.0904781218987497,-0.0008592513974775759,0,0,0,0,0,0,1500,1500,1500,1500,1500,1500
1747553318.2592714,0.06,0.0,-0.29,0.0,0.003272492347489368,0.001090830782496456,-0.018978881302954942,0.0904781218987497,-0.0008592513974775759,0,0,0,0,0,0,1500,1500,1500,1500,1500,1500
1747553318.3746927,0.03,0.0,-0.34,0.003272492347489368,-0.002181661564992912,0.0,-0.018978881302954942,0.0904781218987497,-0.0008592513974775759,0,0,0,0,0,0,1500,1500,1500,1500,1500,1500
1747553318.4764383,0.03,0.0,-0.34,0.003272492347489368,-0.002181661564992912,0.0,-0.018978881302954942,0.0904781218987497,-0.0008592513974775759,0,0,0,0,0,0,1500,1500,1500,1500,1500,1500
1747553318.5766144,0.01,0.0,-0.33,-0.002181661564992912,0.002181661564992912,-0.003272492347489368,-0.018978881302954942,0.0904781218987497,-0.0008592513974775759,0,0,0,0,0,0,1500,1500,1500,1500,1500,1500
1747553318.6766164,0.02,0.01,-0.35000000000000003,0.002181661564992912,0.0,-0.001090830782496456,-0.018978881302954942,0.0904781218987497,-0.0008592513974775759,0,0,0,0,0,0,1500,1500,1500,1500,1500,1500
1747553318.7591712,0.02,0.01,-0.35000000000000003,0.002181661564992912,0.0,-0.001090830782496456,-0.018978881302954942,0.0904781218987497,-0.0008592513974775759,0,0,0,0,0,0,1500,1500,1500,1500,1500,1500
1747553318.8586364,0.01,0.01,-0.3,0.001090830782496456,-0.001090830782496456,-0.001090830782496456,-0.018978881302954942,0.0904781218987497,-0.0008592513974775759,0,0,0,0,0,0,1500,1500,1500,1500,1500,1500
1747553318.9588883,0.01,0.01,-0.3,0.001090830782496456,-0.001090830782496456,-0.001090830782496456,-0.018978881302954942,0.0904781218987497,-0.0008592513974775759,0,0,0,0,0,0,1500,1500,1500,1500,1500,1500
1747553319.042485,0.06,0.0,-0.37,-0.002181661564992912,0.0,-0.001090830782496456,-0.018978881302954942,0.0904781218987497,-0.0008592513974775759,0,0,0,0,0,0,1500,1500,1500,1500,1500,1500
1747553319.1426177,0.0,0.01,-0.29,0.004363323129985824,0.004363323129985824,0.0,-0.018978881302954942,0.0904781218987497,-0.0008592513974775759,0,0,0,0,0,0,1500,1500,1500,1500,1500,1500
1747553319.2423213,0.0,0.01,-0.29,0.004363323129985824,0.004363323129985824,0.0,-0.018978881302954942,0.0904781218987497,-0.0008592513974775759,0,0,0,0,0,0,1500,1500,1500,1500,1500,1500
1747553319.3432856,0.02,0.01,-0.33,0.001090830782496456,-0.001090830782496456,0.0,-0.018978881302954942,0.0904781218987497,-0.0008592513974775759,0,0,0,0,0,0,1500,1500,1500,1500,1500,1500
1747553319.4393198,0.02,0.01,-0.3,0.001090830782496456,-0.002181661564992912,0.0,-0.018978881302954942,0.0904781218987497,-0.0008592513974775759,0,0,0,0,0,0,1500,1500,1500,1500,1500,1500
1747553319.5249925,0.02,0.01,-0.3,0.001090830782496456,-0.002181661564992912,0.0,-0.018978881302954942,0.0904781218987497,-0.0008592513974775759,0,0,0,0,0,0,1500,1500,1500,1500,1500,1500
1747553319.6255116,0.01,0.01,-0.34,0.0,-0.002181661564992912,-0.001090830782496456,-0.018978881302954942,0.0904781218987497,-0.0008592513974775759,0,0,0,0,0,0,1500,1500,1500,1500,1500,1500
1747553319.7262075,0.01,0.01,-0.34,0.0,-0.002181661564992912,-0.001090830782496456,-0.018978881302954942,0.0904781218987497,-0.0008592513974775759,0,0,0,0,0,0,1500,1500,1500,1500,1500,1500
1747553319.826377,0.04,0.0,-0.33,-0.002181661564992912,-0.001090830782496456,0.001090830782496456,-0.018978881302954942,0.0904781218987497,-0.0008592513974775759,0,0,0,0,0,0,1500,1500,1500,1500,1500,1500
1747553319.9198585,0.05,0.0,-0.34,0.002181661564992912,0.003272492347489368,0.0,-0.018978881302954942,0.0904781218987497,-0.0008592513974775759,0,0,0,0,0,0,1500,1500,1500,1500,1500,1500
1747553320.0096242,0.05,0.0,-0.34,0.002181661564992912,0.003272492347489368,0.0,-0.018978881302954942,0.0904781218987497,-0.0008592513974775759,0,0,0,0,0,0,1500,1500,1500,1500,1500,1500
1747553320.1090999,0.01,0.0,-0.32,0.0,-0.002181661564992912,0.0,-0.018978881302954942,0.0904781218987497,-0.0008592513974775759,0,0,0,0,0,0,1500,1500,1500,1500,1500,1500
1747553320.2092319,0.01,0.0,-0.32,0.0,-0.002181661564992912,0.0,-0.018978881302954942,0.0904781218987497,-0.0008592513974775759,0,0,0,0,0,0,1500,1500,1500,1500,1500,1500
1747553320.293528,0.05,0.0,-0.35000000000000003,-0.002181661564992912,-0.00545415391248228,-0.001090830782496456,-0.018978881302954942,0.0904781218987497,-0.0008592513974775759,0,0,0,0,0,0,1500,1500,1500,1500,1500,1500
1747553320.3924248,0.02,-0.01,-0.39,0.001090830782496456,0.006544984694978736,-0.002181661564992912,-0.018978881302954942,0.0904781218987497,-0.0008592513974775759,0,0,0,0,0,0,1500,1500,1500,1500,1500,1500
1747553320.4920022,0.02,-0.01,-0.39,0.001090830782496456,0.006544984694978736,-0.002181661564992912,-0.018978881302954942,0.0904781218987497,-0.0008592513974775759,0,0,0,0,0,0,1500,1500,1500,1500,1500,1500
1747553320.592083,0.01,0.03,-0.32,0.0,-0.002181661564992912,0.001090830782496456,-0.018978881302954942,0.0904781218987497,-0.0008592513974775759,0,0,0,0,0,0,1500,1500,1500,1500,1500,1500
1747553320.6933532,0.01,0.03,-0.32,0.0,-0.002181661564992912,0.001090830782496456,-0.018978881302954942,0.0904781218987497,-0.0008592513974775759,0,0,0,0,0,0,1500,1500,1500,1500,1500,1500
1747553320.7765641,0.03,-0.01,-0.36,-0.001090830782496456,-0.001090830782496456,0.003272492347489368,-0.018978881302954942,0.0904781218987497,-0.0008592513974775759,0,0,0,0,0,0,1500,1500,1500,1500,1500,1500
1747553320.8762734,0.02,0.01,-0.27,0.001090830782496456,0.001090830782496456,0.0,-0.018978881302954942,0.0904781218987497,-0.0008592513974775759,0,0,0,0,0,0,1500,1500,1500,1500,1500,1500
1747553320.9763806,0.02,0.01,-0.27,0.001090830782496456,0.001090830782496456,0.0,-0.018978881302954942,0.0904781218987497,-0.0008592513974775759,0,0,0,0,0,0,1500,1500,1500,1500,1500,1500
1747553321.0763237,0.04,0.0,-0.41000000000000003,0.001090830782496456,0.004363323129985824,-0.001090830782496456,-0.018978881302954942,0.0904781218987497,-0.0008592513974775759,0,0,0,0,0,0,1500,1500,1500,1500,1500,1500
1747553321.174062,0.04,0.0,-0.41000000000000003,0.001090830782496456,0.004363323129985824,-0.001090830782496456,-0.018978881302954942,0.0904781218987497,-0.0008592513974775759,0,0,0,0,0,0,1500,1500,1500,1500,1500,1500
1747553321.2585526,0.01,0.03,-0.31,0.002181661564992912,0.001090830782496456,-0.001090830782496456,-0.018978881302954942,0.0904781218987497,-0.0008592513974775759,0,0,0,0,0,0,1500,1500,1500,1500,1500,1500
1747553321.358381,0.05,0.0,-0.34,-0.001090830782496456,-0.003272492347489368,0.0,-0.018978881302954942,0.0904781218987497,-0.0008592513974775759,0,0,0,0,0,0,1500,1500,1500,1500,1500,1500
1747553321.4585311,0.05,0.0,-0.34,-0.001090830782496456,-0.003272492347489368,0.0,-0.018978881302954942,0.0904781218987497,-0.0008592513974775759,0,0,0,0,0,0,1500,1500,1500,1500,1500,1500
1747553321.541257,0.03,0.0,-0.33,-0.002181661564992912,-0.001090830782496456,-0.001090830782496456,-0.018978881302954942,0.0904781218987497,-0.0008592513974775759,0,0,0,0,0,0,1500,1500,1500,1500,1500,1500
1747553321.641999,0.03,0.0,-0.33,-0.002181661564992912,-0.001090830782496456,-0.001090830782496456,-0.018978881302954942,0.0904781218987497,-0.0008592513974775759,0,0,0,0,0,0,1500,1500,1500,1500,1500,1500
1747553321.7407484,0.04,0.0,-0.34,-0.002181661564992912,0.001090830782496456,0.0,-0.018978881302954942,0.0904781218987497,-0.0008592513974775759,0,0,0,0,0,0,1500,1500,1500,1500,1500,1500
1747553321.8417866,0.0,0.0,-0.31,-0.003272492347489368,0.002181661564992912,-0.001090830782496456,-0.018978881302954942,0.0904781218987497,-0.0008592513974775759,0,0,0,0,0,0,1500,1500,1500,1500,1500,1500
1747553321.940531,0.0,0.0,-0.31,-0.003272492347489368,0.002181661564992912,-0.001090830782496456,-0.018978881302954942,0.0904781218987497,-0.0008592513974775759,0,0,0,0,0,0,1500,1500,1500,1500,1500,1500
1747553322.024262,0.03,0.04,-0.28,0.002181661564992912,-0.001090830782496456,0.001090830782496456,-0.018978881302954942,0.0904781218987497,-0.0008592513974775759,0,0,0,0,0,0,1500,1500,1500,1500,1500,1500
1747553322.1215787,0.02,-0.01,-0.28,-0.001090830782496456,-0.004363323129985824,0.001090830782496456,-3.1387473103556554,-1.5707963267948966,3.136024428756603,0,0,0,0,0,0,1500,1500,1500,1500,1500,1500
1747553322.2246408,0.02,-0.01,-0.28,-0.001090830782496456,-0.004363323129985824,0.001090830782496456,-3.1387473103556554,-1.5707963267948966,3.136024428756603,0,0,0,0,0,0,1500,1500,1500,1500,1500,1500
1747553322.3101392,0.01,-0.01,-0.3,0.003272492347489368,-0.002181661564992912,0.0,-0.018978881302954942,0.0904781218987497,-0.0008592513974775759,0,0,0,0,0,0,1500,1500,1500,1500,1500,1500
1747553322.4085562,0.01,-0.01,-0.3,0.003272492347489368,-0.002181661564992912,0.0,-0.018978881302954942,0.0904781218987497,-0.0008592513974775759,0,0,0,0,0,0,1500,1500,1500,1500,1500,1500
1747553322.509393,0.02,0.0,-0.33,0.0,0.002181661564992912,-0.002181661564992912,-0.018978881302954942,0.0904781218987497,-0.0008592513974775759,0,0,0,0,0,0,1500,1500,1500,1500,1500,1500
1747553322.6081324,0.03,0.01,-0.31,0.001090830782496456,0.001090830782496456,-0.002181661564992912,-0.018978881302954942,0.0904781218987497,-0.0008592513974775759,0,0,0,0,0,0,1500,1500,1500,1500,1500,1500
1747553322.7078028,0.03,0.01,-0.31,0.001090830782496456,0.001090830782496456,-0.002181661564992912,-0.018978881302954942,0.0904781218987497,-0.0008592513974775759,0,0,0,0,0,0,1500,1500,1500,1500,1500,1500
1747553322.7908776,0.03,-0.01,-0.38,0.0,0.002181661564992912,0.001090830782496456,-0.018978881302954942,0.0904781218987497,-0.0008592513974775759,0,0,0,0,0,0,1500,1500,1500,1500,1500,1500
1747553322.8913422,0.03,-0.01,-0.38,0.0,0.002181661564992912,0.001090830782496456,-0.018978881302954942,0.0904781218987497,-0.0008592513974775759,0,0,0,0,0,0,1500,1500,1500,1500,1500,1500
1747553322.9913554,0.03,0.02,-0.3,-0.001090830782496456,0.001090830782496456,0.002181661564992912,-0.018978881302954942,0.0904781218987497,-0.0008592513974775759,0,0,0,0,0,0,1500,1500,1500,1500,1500,1500
1747553323.0746174,0.03,-0.01,-0.4,0.001090830782496456,0.0,0.002181661564992912,-0.018978881302954942,0.0904781218987497,-0.0008592513974775759,0,0,0,0,0,0,1500,1500,1500,1500,1500,1500
1747553323.1747298,0.03,-0.01,-0.4,0.001090830782496456,0.0,0.002181661564992912,-0.018978881302954942,0.0904781218987497,-0.0008592513974775759,0,0,0,0,0,0,1500,1500,1500,1500,1500,1500
1747553323.274233,0.01,0.0,-0.32,0.003272492347489368,-0.003272492347489368,0.003272492347489368,-0.018978881302954942,0.0904781218987497,-0.0008592513974775759,0,0,0,0,0,0,1500,1500,1500,1500,1500,1500
1747553323.37494,0.02,0.01,-0.36,-0.002181661564992912,-0.001090830782496456,-0.001090830782496456,-0.018978881302954942,0.0904781218987497,-0.0008592513974775759,0,0,0,0,0,0,1500,1500,1500,1500,1500,1500
1747553323.4748304,0.02,0.01,-0.36,-0.002181661564992912,-0.001090830782496456,-0.001090830782496456,-0.018978881302954942,0.0904781218987497,-0.0008592513974775759,0,0,0,0,0,0,1500,1500,1500,1500,1500,1500
1747553323.5584495,0.02,0.0,-0.28,-0.002181661564992912,0.0,0.0,-0.018978881302954942,0.0904781218987497,-0.0008592513974775759,0,0,0,0,0,0,1500,1500,1500,1500,1500,1500
1747553323.6577084,0.02,0.0,-0.28,-0.002181661564992912,0.0,0.0,-0.018978881302954942,0.0904781218987497,-0.0008592513974775759,0,0,0,0,0,0,1500,1500,1500,1500,1500,1500
1747553323.7569492,0.02,0.0,-0.35000000000000003,-0.001090830782496456,0.003272492347489368,0.0,-0.018978881302954942,0.0904781218987497,-0.0008592513974775759,0,0,0,0,0,0,1500,1500,1500,1500,1500,1500
1747553323.8576353,0.01,0.0,-0.34,0.0,-0.004363323129985824,0.003272492347489368,-0.018978881302954942,0.0904781218987497,-0.0008592513974775759,0,0,0,0,0,0,1500,1500,1500,1500,1500,1500
1747553323.9569964,0.01,0.0,-0.34,0.0,-0.004363323129985824,0.003272492347489368,-0.018978881302954942,0.0904781218987497,-0.0008592513974775759,0,0,0,0,0,0,1500,1500,1500,1500,1500,1500
1747553324.0404608,0.03,0.0,-0.36,-0.003272492347489368,-0.002181661564992912,-0.001090830782496456,-0.018978881302954942,0.0904781218987497,-0.0008592513974775759,0,0,0,0,0,0,1500,1500,1500,1500,1500,1500
1747553324.1415555,0.03,0.0,-0.36,-0.003272492347489368,-0.002181661564992912,-0.001090830782496456,-0.018978881302954942,0.0904781218987497,-0.0008592513974775759,0,0,0,0,0,0,1500,1500,1500,1500,1500,1500
1747553324.2401445,0.03,-0.02,-0.31,-0.001090830782496456,-0.00545415391248228,0.0,-0.018978881302954942,0.0904781218987497,-0.0008592513974775759,0,0,0,0,0,0,1500,1500,1500,1500,1500,1500
1747553324.3239882,0.03,-0.02,-0.31,-0.001090830782496456,-0.00545415391248228,0.0,-0.018978881302954942,0.0904781218987497,-0.0008592513974775759,0,0,0,0,0,0,1500,1500,1500,1500,1500,1500
1747553324.4238024,0.05,-0.01,-0.36,-0.002181661564992912,0.003272492347489368,0.002181661564992912,-0.018978881302954942,0.0904781218987497,-0.0008592513974775759,0,0,0,0,0,0,1500,1500,1500,1500,1500,1500
1747553324.5244272,0.04,-0.01,-0.34,0.002181661564992912,-0.001090830782496456,-0.001090830782496456,-0.018978881302954942,0.0904781218987497,-0.0008592513974775759,0,0,0,0,0,0,1500,1500,1500,1500,1500,1500
1747553324.6241686,0.04,-0.01,-0.34,0.002181661564992912,-0.001090830782496456,-0.001090830782496456,-0.018978881302954942,0.0904781218987497,-0.0008592513974775759,0,0,0,0,0,0,1500,1500,1500,1500,1500,1500
1747553324.7242935,0.04,0.0,-0.32,-0.002181661564992912,-0.002181661564992912,0.002181661564992912,-0.018978881302954942,0.0904781218987497,-0.0008592513974775759,0,0,0,0,0,0,1500,1500,1500,1500,1500,1500
1747553324.8075721,0.04,0.0,-0.32,0.004363323129985824,-0.003272492347489368,0.001090830782496456,-0.018978881302954942,0.0904781218987497,-0.0008592513974775759,0,0,0,0,0,0,1500,1500,1500,1500,1500,1500
1747553324.9078777,0.04,0.0,-0.32,0.004363323129985824,-0.003272492347489368,0.001090830782496456,-0.018978881302954942,0.0904781218987497,-0.0008592513974775759,0,0,0,0,0,0,1500,1500,1500,1500,1500,1500
1747553325.0071318,0.02,0.03,-0.28,0.003272492347489368,-0.001090830782496456,0.001090830782496456,-0.018978881302954942,0.0904781218987497,-0.0008592513974775759,0,0,0,0,0,0,1500,1500,1500,1500,1500,1500
1747553325.107702,0.02,0.03,-0.28,0.003272492347489368,-0.001090830782496456,0.001090830782496456,-0.018978881302954942,0.0904781218987497,-0.0008592513974775759,0,0,0,0,0,0,1500,1500,1500,1500,1500,1500
1747553325.2073677,0.07,-0.02,-0.38,0.001090830782496456,0.0,-0.001090830782496456,0.019020618754347227,-0.09067769169847534,-0.0008592513974775759,0,0,0,0,0,0,1500,1500,1500,1500,1500,1500
1747553325.2911613,0.02,0.0,-0.29,-0.002181661564992912,0.001090830782496456,0.0,-0.018978881302954942,0.0904781218987497,-0.0008592513974775759,0,0,0,0,0,0,1500,1500,1500,1500,1500,1500
1747553325.390578,0.02,0.0,-0.29,-0.002181661564992912,0.001090830782496456,0.0,-0.018978881302954942,0.0904781218987497,-0.0008592513974775759,0,0,0,0,0,0,1500,1500,1500,1500,1500,1500
1747553325.4908025,0.05,-0.01,-0.38,-0.002181661564992912,-0.001090830782496456,0.001090830782496456,-0.018978881302954942,0.0904781218987497,-0.0008592513974775759,0,0,0,0,0,0,1500,1500,1500,1500,1500,1500
1747553325.5736365,0.05,-0.01,-0.38,-0.002181661564992912,-0.001090830782496456,0.001090830782496456,-0.018978881302954942,0.0904781218987497,-0.0008592513974775759,0,0,0,0,0,0,1500,1500,1500,1500,1500,1500
1747553325.6745312,0.01,0.0,-0.34,0.0,-0.001090830782496456,0.001090830782496456,-0.018978881302954942,0.0904781218987497,-0.0008592513974775759,0,0,0,0,0,0,1500,1500,1500,1500,1500,1500
1747553325.773519,0.05,0.0,-0.35000000000000003,0.0,0.001090830782496456,0.0,-0.018978881302954942,0.0904781218987497,-0.0008592513974775759,0,0,0,0,0,0,1500,1500,1500,1500,1500,1500
1747553325.8739018,0.05,0.0,-0.35000000000000003,0.0,0.001090830782496456,0.0,-0.018978881302954942,0.0904781218987497,-0.0008592513974775759,0,0,0,0,0,0,1500,1500,1500,1500,1500,1500
1747553325.9741,0.02,0.01,-0.39,-0.001090830782496456,-0.001090830782496456,-0.001090830782496456,-0.018978881302954942,0.0904781218987497,-0.0008592513974775759,0,0,0,0,0,0,1500,1500,1500,1500,1500,1500
1747553326.0572824,0.02,0.01,-0.39,-0.001090830782496456,-0.001090830782496456,-0.001090830782496456,-0.018978881302954942,0.0904781218987497,-0.0008592513974775759,0,0,0,0,0,0,1500,1500,1500,1500,1500,1500
1747553326.1577573,0.0,0.0,-0.28,0.001090830782496456,0.003272492347489368,0.001090830782496456,-0.018978881302954942,0.0904781218987497,-0.0008592513974775759,0,0,0,0,0,0,1500,1500,1500,1500,1500,1500
1747553326.257434,0.03,0.01,-0.35000000000000003,0.001090830782496456,0.0,0.001090830782496456,-0.018978881302954942,0.0904781218987497,-0.0008592513974775759,0,0,0,0,0,0,1500,1500,1500,1500,1500,1500
1747553326.3576932,0.03,0.01,-0.35000000000000003,0.001090830782496456,0.0,0.001090830782496456,-0.018978881302954942,0.0904781218987497,-0.0008592513974775759,0,0,0,0,0,0,1500,1500,1500,1500,1500,1500
1747553326.4573183,0.03,-0.02,-0.31,0.001090830782496456,0.003272492347489368,0.001090830782496456,-0.018978881302954942,0.0904781218987497,-0.0008592513974775759,0,0,0,0,0,0,1500,1500,1500,1500,1500,1500
1747553326.5420485,0.04,0.01,-0.36,0.001090830782496456,-0.002181661564992912,0.0,-0.018978881302954942,0.0904781218987497,-0.0008592513974775759,0,0,0,0,0,0,1500,1500,1500,1500,1500,1500
1747553326.641994,0.04,0.01,-0.36,0.001090830782496456,-0.002181661564992912,0.0,-0.018978881302954942,0.0904781218987497,-0.0008592513974775759,0,0,0,0,0,0,1500,1500,1500,1500,1500,1500
1747553326.7407248,0.03,0.0,-0.3,0.001090830782496456,0.001090830782496456,-0.001090830782496456,-0.018978881302954942,0.0904781218987497,-0.0008592513974775759,0,0,0,0,0,0,1500,1500,1500,1500,1500,1500
1747553326.8243492,0.03,0.0,-0.3,0.001090830782496456,0.001090830782496456,-0.001090830782496456,-0.018978881302954942,0.0904781218987497,-0.0008592513974775759,0,0,0,0,0,0,1500,1500,1500,1500,1500,1500
1747553326.9242682,0.05,0.0,-0.36,-0.001090830782496456,-0.004363323129985824,0.001090830782496456,-0.018978881302954942,0.0904781218987497,-0.0008592513974775759,0,0,0,0,0,0,1500,1500,1500,1500,1500,1500
1747553327.0243945,0.02,0.0,-0.32,0.001090830782496456,0.001090830782496456,0.0,-0.018978881302954942,0.0904781218987497,-0.0008592513974775759,0,0,0,0,0,0,1500,1500,1500,1500,1500,1500
1747553327.1244972,0.02,0.0,-0.32,0.001090830782496456,0.001090830782496456,0.0,-0.018978881302954942,0.0904781218987497,-0.0008592513974775759,0,0,0,0,0,0,1500,1500,1500,1500,1500,1500
1747553327.223667,0.03,0.0,-0.35000000000000003,-0.002181661564992912,0.001090830782496456,0.002181661564992912,-0.018978881302954942,0.0904781218987497,-0.0008592513974775759,0,0,0,0,0,0,1500,1500,1500,1500,1500,1500
1747553327.3076417,0.03,0.0,-0.35000000000000003,-0.002181661564992912,0.001090830782496456,0.002181661564992912,-0.018978881302954942,0.0904781218987497,-0.0008592513974775759,0,0,0,0,0,0,1500,1500,1500,1500,1500,1500
1747553327.4121876,0.01,0.01,-0.34,-0.001090830782496456,0.003272492347489368,0.0,-0.018978881302954942,0.0904781218987497,-0.0008592513974775759,0,0,0,0,0,0,1500,1500,1500,1500,1500,1500
1747553327.5087693,0.05,0.0,-0.34,0.0,0.003272492347489368,0.0,-0.018978881302954942,0.0904781218987497,-0.0008592513974775759,0,0,0,0,0,0,1500,1500,1500,1500,1500,1500
1747553327.6079867,0.05,0.0,-0.34,0.0,0.003272492347489368,0.0,-0.018978881302954942,0.0904781218987497,-0.0008592513974775759,0,0,0,0,0,0,1500,1500,1500,1500,1500,1500
1747553327.7081716,0.01,0.02,-0.37,-0.001090830782496456,0.001090830782496456,-0.001090830782496456,-0.018978881302954942,0.0904781218987497,-0.0008592513974775759,0,0,0,0,0,0,1500,1500,1500,1500,1500,1500
1747553327.7904377,0.01,0.02,-0.37,-0.001090830782496456,0.001090830782496456,-0.001090830782496456,-0.018978881302954942,0.0904781218987497,-0.0008592513974775759,0,0,0,0,0,0,1500,1500,1500,1500,1500,1500
1747553327.8907301,0.03,0.0,-0.29,0.001090830782496456,0.002181661564992912,-0.001090830782496456,-0.018978881302954942,0.0904781218987497,-0.0008592513974775759,0,0,0,0,0,0,1500,1500,1500,1500,1500,1500
1747553327.9905171,0.03,0.03,-0.37,0.003272492347489368,0.003272492347489368,0.0,-0.018978881302954942,0.0904781218987497,-0.0008592513974775759,0,0,0,0,0,0,1500,1500,1500,1500,1500,1500
1747553328.074419,0.03,0.03,-0.37,0.003272492347489368,0.003272492347489368,0.0,-0.018978881302954942,0.0904781218987497,-0.0008592513974775759,0,0,0,0,0,0,1500,1500,1500,1500,1500,1500
1747553328.1747742,0.01,-0.01,-0.32,0.003272492347489368,0.001090830782496456,0.0,-0.018978881302954942,0.0904781218987497,-0.0008592513974775759,0,0,0,0,0,0,1500,1500,1500,1500,1500,1500
1747553328.2745426,0.01,-0.01,-0.32,0.003272492347489368,0.001090830782496456,0.0,-0.018978881302954942,0.0904781218987497,-0.0008592513974775759,0,0,0,0,0,0,1500,1500,1500,1500,1500,1500
1747553328.3739653,0.03,-0.01,-0.39,0.0,-0.001090830782496456,0.0,-0.018978881302954942,0.0904781218987497,-0.0008592513974775759,0,0,0,0,0,0,1500,1500,1500,1500,1500,1500
1747553328.4737523,0.02,0.03,-0.35000000000000003,-0.001090830782496456,0.002181661564992912,0.001090830782496456,-0.018978881302954942,0.0904781218987497,-0.0008592513974775759,0,0,0,0,0,0,1500,1500,1500,1500,1500,1500
1747553328.5571952,0.02,0.03,-0.35000000000000003,-0.001090830782496456,0.002181661564992912,0.001090830782496456,-0.018978881302954942,0.0904781218987497,-0.0008592513974775759,0,0,0,0,0,0,1500,1500,1500,1500,1500,1500
1747553328.6563725,0.03,0.0,-0.35000000000000003,0.0,-0.001090830782496456,0.002181661564992912,-0.018978881302954942,0.0904781218987497,-0.0008592513974775759,0,0,0,0,0,0,1500,1500,1500,1500,1500,1500
1747553328.7476213,0.01,-0.01,-0.3,0.0,0.0,-0.001090830782496456,-0.018978881302954942,0.0904781218987497,-0.0008592513974775759,0,0,0,0,0,0,1500,1500,1500,1500,1500,1500
1747553328.84203,0.01,-0.01,-0.3,0.0,0.0,-0.001090830782496456,-0.018978881302954942,0.0904781218987497,-0.0008592513974775759,0,0,0,0,0,0,1500,1500,1500,1500,1500,1500
1747553328.9409137,0.01,0.01,-0.35000000000000003,0.0,-0.003272492347489368,0.001090830782496456,-0.018978881302954942,0.0904781218987497,-0.0008592513974775759,0,0,0,0,0,0,1500,1500,1500,1500,1500,1500
1747553329.0390682,0.01,0.01,-0.35000000000000003,0.0,-0.003272492347489368,0.001090830782496456,-0.018978881302954942,0.0904781218987497,-0.0008592513974775759,0,0,0,0,0,0,1500,1500,1500,1500,1500,1500
1747553329.140343,0.04,0.0,-0.32,0.001090830782496456,0.001090830782496456,0.0,-0.018978881302954942,0.0904781218987497,-0.0008592513974775759,0,0,0,0,0,0,1500,1500,1500,1500,1500,1500
1747553329.2412734,0.03,0.01,-0.3,-0.002181661564992912,-0.002181661564992912,0.001090830782496456,-0.018978881302954942,0.0904781218987497,-0.0008592513974775759,0,0,0,0,0,0,1500,1500,1500,1500,1500,1500
1747553329.324749,0.03,0.01,-0.3,-0.002181661564992912,-0.002181661564992912,0.001090830782496456,-0.018978881302954942,0.0904781218987497,-0.0008592513974775759,0,0,0,0,0,0,1500,1500,1500,1500,1500,1500
1747553329.423265,0.03,0.0,-0.32,-0.004363323129985824,0.001090830782496456,-0.003272492347489368,-0.018978881302954942,0.0904781218987497,-0.0008592513974775759,0,0,0,0,0,0,1500,1500,1500,1500,1500,1500
1747553329.5240993,0.03,0.0,-0.32,-0.004363323129985824,0.001090830782496456,-0.003272492347489368,-0.018978881302954942,0.0904781218987497,-0.0008592513974775759,0,0,0,0,0,0,1500,1500,1500,1500,1500,1500
1747553329.6251035,0.05,-0.02,-0.34,0.002181661564992912,-0.004363323129985824,-0.001090830782496456,-0.018978881302954942,0.0904781218987497,-0.0008592513974775759,0,0,0,0,0,0,1500,1500,1500,1500,1500,1500
1747553329.7252357,0.04,0.0,-0.36,0.002181661564992912,-0.004363323129985824,-0.002181661564992912,-0.018978881302954942,0.0904781218987497,-0.0008592513974775759,0,0,0,0,0,0,1500,1500,1500,1500,1500,1500
1747553329.8071811,0.04,0.0,-0.36,0.002181661564992912,-0.004363323129985824,-0.002181661564992912,-0.018978881302954942,0.0904781218987497,-0.0008592513974775759,0,0,0,0,0,0,1500,1500,1500,1500,1500,1500
1747553329.9074426,0.02,0.0,-0.3,0.0,-0.001090830782496456,0.001090830782496456,-0.018978881302954942,0.0904781218987497,-0.0008592513974775759,0,0,0,0,0,0,1500,1500,1500,1500,1500,1500
1747553330.007748,0.02,0.0,-0.3,0.0,-0.001090830782496456,0.001090830782496456,-0.018978881302954942,0.0904781218987497,-0.0008592513974775759,0,0,0,0,0,0,1500,1500,1500,1500,1500,1500
1747553330.1073194,0.02,0.01,-0.37,0.001090830782496456,0.004363323129985824,0.001090830782496456,-0.018978881302954942,0.0904781218987497,-0.0008592513974775759,0,0,0,0,0,0,1500,1500,1500,1500,1500,1500
1747553330.2076788,0.03,-0.01,-0.33,0.002181661564992912,0.001090830782496456,-0.001090830782496456,-0.018978881302954942,0.0904781218987497,-0.0008592513974775759,0,0,0,0,0,0,1500,1500,1500,1500,1500,1500
1747553330.2902243,0.03,-0.01,-0.33,0.002181661564992912,0.001090830782496456,-0.001090830782496456,-0.018978881302954942,0.0904781218987497,-0.0008592513974775759,0,0,0,0,0,0,1500,1500,1500,1500,1500,1500
1747553330.3907623,0.05,0.01,-0.33,0.003272492347489368,0.002181661564992912,-0.002181661564992912,-0.018978881302954942,0.0904781218987497,-0.0008592513974775759,0,0,0,0,0,0,1500,1500,1500,1500,1500,1500
1747553330.4811919,0.02,0.0,-0.31,0.0,-0.002181661564992912,-0.001090830782496456,-0.018978881302954942,0.0904781218987497,-0.0008592513974775759,0,0,0,0,0,0,1500,1500,1500,1500,1500,1500
1747553330.5776124,0.02,0.0,-0.31,0.0,-0.002181661564992912,-0.001090830782496456,-0.018978881302954942,0.0904781218987497,-0.0008592513974775759,0,0,0,0,0,0,1500,1500,1500,1500,1500,1500
1747553330.6747522,0.01,-0.01,-0.35000000000000003,0.004363323129985824,0.001090830782496456,-0.001090830782496456,-0.018978881302954942,0.0904781218987497,-0.0008592513974775759,0,0,0,0,0,0,1500,1500,1500,1500,1500,1500
1747553330.7718985,0.01,-0.01,-0.35000000000000003,0.004363323129985824,0.001090830782496456,-0.001090830782496456,-0.018978881302954942,0.0904781218987497,-0.0008592513974775759,0,0,0,0,0,0,1500,1500,1500,1500,1500,1500
1747553330.8583972,0.02,0.0,-0.32,0.001090830782496456,0.0,-0.001090830782496456,-0.018978881302954942,0.0904781218987497,-0.0008592513974775759,0,0,0,0,0,0,1500,1500,1500,1500,1500,1500
1747553330.9596865,0.02,0.01,-0.31,-0.004363323129985824,0.003272492347489368,-0.001090830782496456,-0.018978881302954942,0.0904781218987497,-0.0008592513974775759,0,0,0,0,0,0,1500,1500,1500,1500,1500,1500
1747553331.043652,0.02,0.01,-0.31,-0.004363323129985824,0.003272492347489368,-0.001090830782496456,-0.018978881302954942,0.0904781218987497,-0.0008592513974775759,0,0,0,0,0,0,1500,1500,1500,1500,1500,1500
1747553331.142767,0.03,0.0,-0.36,-0.001090830782496456,0.0,-0.001090830782496456,-0.018978881302954942,0.0904781218987497,-0.0008592513974775759,0,0,0,0,0,0,1500,1500,1500,1500,1500,1500
1747553331.243738,0.03,0.0,-0.36,-0.001090830782496456,0.0,-0.001090830782496456,-0.018978881302954942,0.0904781218987497,-0.0008592513974775759,0,0,0,0,0,0,1500,1500,1500,1500,1500,1500
1747553331.3420882,0.01,0.01,-0.31,-0.002181661564992912,-0.001090830782496456,-0.001090830782496456,-0.018978881302954942,0.0904781218987497,-0.0008592513974775759,0,0,0,0,0,0,1500,1500,1500,1500,1500,1500
1747553331.431615,0.03,0.01,-0.33,0.001090830782496456,-0.001090830782496456,-0.001090830782496456,-0.018978881302954942,0.0904781218987497,-0.0008592513974775759,0,0,0,0,0,0,1500,1500,1500,1500,1500,1500
1747553331.5261872,0.03,0.01,-0.33,0.001090830782496456,-0.001090830782496456,-0.001090830782496456,-0.018978881302954942,0.0904781218987497,-0.0008592513974775759,0,0,0,0,0,0,1500,1500,1500,1500,1500,1500
1747553331.6250923,0.03,-0.02,-0.33,-0.003272492347489368,0.001090830782496456,0.002181661564992912,-0.018978881302954942,0.0904781218987497,-0.0008592513974775759,0,0,0,0,0,0,1500,1500,1500,1500,1500,1500
1747553331.7265892,0.03,-0.02,-0.33,-0.003272492347489368,0.001090830782496456,0.002181661564992912,-0.018978881302954942,0.0904781218987497,-0.0008592513974775759,0,0,0,0,0,0,1500,1500,1500,1500,1500,1500
1747553331.8261685,0.04,0.03,-0.3,0.0,0.002181661564992912,-0.002181661564992912,-0.018978881302954942,0.0904781218987497,-0.0008592513974775759,0,0,0,0,0,0,1500,1500,1500,1500,1500,1500
1747553331.9265738,0.02,0.04,-0.34,0.0,0.002181661564992912,0.0,-0.018978881302954942,0.0904781218987497,-0.0008592513974775759,0,0,0,0,0,0,1500,1500,1500,1500,1500,1500
1747553332.0096533,0.02,0.04,-0.34,0.0,0.002181661564992912,0.0,-0.018978881302954942,0.0904781218987497,-0.0008592513974775759,0,0,0,0,0,0,1500,1500,1500,1500,1500,1500
1747553332.109302,0.03,0.0,-0.35000000000000003,0.001090830782496456,-0.002181661564992912,0.002181661564992912,-0.018978881302954942,0.0904781218987497,-0.0008592513974775759,0,0,0,0,0,0,1500,1500,1500,1500,1500,1500
1747553332.2098334,0.03,0.0,-0.35000000000000003,0.001090830782496456,-0.002181661564992912,0.002181661564992912,-0.018978881302954942,0.0904781218987497,-0.0008592513974775759,0,0,0,0,0,0,1500,1500,1500,1500,1500,1500
1747553332.292774,0.02,0.01,-0.3,0.001090830782496456,0.002181661564992912,0.0,-0.018978881302954942,0.0904781218987497,-0.0008592513974775759,0,0,0,0,0,0,1500,1500,1500,1500,1500,1500
1747553332.3935487,0.02,0.0,-0.33,0.003272492347489368,0.001090830782496456,-0.002181661564992912,-0.018978881302954942,0.0904781218987497,-0.0008592513974775759,0,0,0,0,0,0,1500,1500,1500,1500,1500,1500
1747553332.4925673,0.02,0.0,-0.33,0.003272492347489368,0.001090830782496456,-0.002181661564992912,-0.018978881302954942,0.0904781218987497,-0.0008592513974775759,0,0,0,0,0,0,1500,1500,1500,1500,1500,1500
1747553332.592845,0.01,0.0,-0.34,-0.001090830782496456,0.003272492347489368,-0.001090830782496456,-0.018978881302954942,0.0904781218987497,-0.0008592513974775759,0,0,0,0,0,0,1500,1500,1500,1500,1500,1500
1747553332.6919303,0.01,0.0,-0.34,-0.001090830782496456,0.003272492347489368,-0.001090830782496456,-0.018978881302954942,0.0904781218987497,-0.0008592513974775759,0,0,0,0,0,0,1500,1500,1500,1500,1500,1500
1747553332.775062,0.05,0.0,-0.3,0.003272492347489368,-0.001090830782496456,-0.001090830782496456,-0.018978881302954942,0.0904781218987497,-0.0008592513974775759,0,0,0,0,0,0,1500,1500,1500,1500,1500,1500
1747553332.8744926,0.04,0.01,-0.36,-0.002181661564992912,0.004363323129985824,0.001090830782496456,-0.018978881302954942,0.0904781218987497,-0.0008592513974775759,0,0,0,0,0,0,1500,1500,1500,1500,1500,1500
1747553332.9745646,0.04,0.01,-0.36,-0.002181661564992912,0.004363323129985824,0.001090830782496456,-0.018978881302954942,0.0904781218987497,-0.0008592513974775759,0,0,0,0,0,0,1500,1500,1500,1500,1500,1500
1747553333.0593991,0.05,-0.01,-0.36,0.004363323129985824,0.0,0.001090830782496456,-0.018978881302954942,0.0904781218987497,-0.0008592513974775759,0,0,0,0,0,0,1500,1500,1500,1500,1500,1500
1747553333.1587818,0.05,-0.01,-0.36,0.004363323129985824,0.0,0.001090830782496456,-0.018978881302954942,0.0904781218987497,-0.0008592513974775759,0,0,0,0,0,0,1500,1500,1500,1500,1500,1500
1747553333.2566879,0.02,0.01,-0.29,0.001090830782496456,0.001090830782496456,0.002181661564992912,-0.018978881302954942,0.0904781218987497,-0.0008592513974775759,0,0,0,0,0,0,1500,1500,1500,1500,1500,1500
1747553333.3603854,0.03,0.0,-0.36,0.0,0.001090830782496456,-0.002181661564992912,-0.018978881302954942,0.0904781218987497,-0.0008592513974775759,0,0,0,0,0,0,1500,1500,1500,1500,1500,1500
1747553333.4587586,0.03,0.0,-0.36,0.0,0.001090830782496456,-0.002181661564992912,-0.018978881302954942,0.0904781218987497,-0.0008592513974775759,0,0,0,0,0,0,1500,1500,1500,1500,1500,1500
1747553333.540102,0.03,-0.01,-0.3,-0.001090830782496456,0.001090830782496456,0.001090830782496456,-0.018978881302954942,0.0904781218987497,-0.0008592513974775759,0,0,0,0,0,0,1500,1500,1500,1500,1500,1500
1747553333.6539354,0.03,-0.01,-0.3,-0.001090830782496456,0.001090830782496456,0.001090830782496456,-0.018978881302954942,0.0904781218987497,-0.0008592513974775759,0,0,0,0,0,0,1500,1500,1500,1500,1500,1500
1747553333.7438545,0.02,0.02,-0.32,0.0,-0.002181661564992912,-0.002181661564992912,-0.018978881302954942,0.0904781218987497,-0.0008592513974775759,0,0,0,0,0,0,1500,1500,1500,1500,1500,1500
1747553333.84193,0.04,-0.01,-0.42,0.0,0.0,0.0,-0.018978881302954942,0.0904781218987497,-0.0008592513974775759,0,0,0,0,0,0,1500,1500,1500,1500,1500,1500
1747553333.9430416,0.04,-0.01,-0.42,0.0,0.0,0.0,-0.018978881302954942,0.0904781218987497,-0.0008592513974775759,0,0,0,0,0,0,1500,1500,1500,1500,1500,1500
1747553334.0248578,0.01,0.02,-0.3,0.003272492347489368,-0.002181661564992912,0.001090830782496456,-0.018978881302954942,0.0904781218987497,-0.0008592513974775759,0,0,0,0,0,0,1500,1500,1500,1500,1500,1500
1747553334.1271384,0.01,0.02,-0.3,0.003272492347489368,-0.002181661564992912,0.001090830782496456,-0.018978881302954942,0.0904781218987497,-0.0008592513974775759,0,0,0,0,0,0,1500,1500,1500,1500,1500,1500
1747553334.2114904,0.03,0.0,-0.33,-0.002181661564992912,0.002181661564992912,0.0,-0.018978881302954942,0.0904781218987497,-0.0008592513974775759,0,0,0,0,0,0,1500,1500,1500,1500,1500,1500
1747553334.310666,0.05,-0.02,-0.35000000000000003,0.002181661564992912,-0.002181661564992912,0.002181661564992912,-0.018978881302954942,0.0904781218987497,-0.0008592513974775759,0,0,0,0,0,0,1500,1500,1500,1500,1500,1500
1747553334.4083433,0.05,-0.02,-0.35000000000000003,0.002181661564992912,-0.002181661564992912,0.002181661564992912,-0.018978881302954942,0.0904781218987497,-0.0008592513974775759,0,0,0,0,0,0,1500,1500,1500,1500,1500,1500
1747553334.492782,0.01,-0.02,-0.31,0.003272492347489368,0.003272492347489368,0.0,-0.018978881302954942,0.0904781218987497,-0.0008592513974775759,0,0,0,0,0,0,1500,1500,1500,1500,1500,1500
1747553334.5943997,0.01,-0.02,-0.31,0.003272492347489368,0.003272492347489368,0.0,-0.018978881302954942,0.0904781218987497,-0.0008592513974775759,0,0,0,0,0,0,1500,1500,1500,1500,1500,1500
1747553334.6850178,0.0,0.0,-0.37,0.003272492347489368,-0.002181661564992912,-0.001090830782496456,-0.018978881302954942,0.0904781218987497,-0.0008592513974775759,0,0,0,0,0,0,1500,1500,1500,1500,1500,1500
1747553334.774453,0.03,-0.01,-0.36,0.001090830782496456,0.001090830782496456,-0.001090830782496456,-0.018978881302954942,0.0904781218987497,-0.0008592513974775759,0,0,0,0,0,0,1500,1500,1500,1500,1500,1500
1747553334.874113,0.03,-0.01,-0.36,0.001090830782496456,0.001090830782496456,-0.001090830782496456,-0.018978881302954942,0.0904781218987497,-0.0008592513974775759,0,0,0,0,0,0,1500,1500,1500,1500,1500,1500
1747553334.9743645,0.0,0.01,-0.29,-0.003272492347489368,-0.001090830782496456,0.0,-0.018978881302954942,0.0904781218987497,-0.0008592513974775759,0,0,0,0,0,0,1500,1500,1500,1500,1500,1500
1747553335.0576243,0.0,0.01,-0.29,-0.003272492347489368,-0.001090830782496456,0.0,-0.018978881302954942,0.0904781218987497,-0.0008592513974775759,0,0,0,0,0,0,1500,1500,1500,1500,1500,1500
1747553335.1588352,0.04,0.01,-0.33,-0.001090830782496456,-0.002181661564992912,-0.002181661564992912,-0.018978881302954942,0.0904781218987497,-0.0008592513974775759,0,0,0,0,0,0,1500,1500,1500,1500,1500,1500
1747553335.2492695,0.01,0.0,-0.36,-0.002181661564992912,0.0,-0.001090830782496456,-0.018978881302954942,0.0904781218987497,-0.0008592513974775759,0,0,0,0,0,0,1500,1500,1500,1500,1500,1500
1747553335.3430264,0.01,0.0,-0.36,-0.002181661564992912,0.0,-0.001090830782496456,-0.018978881302954942,0.0904781218987497,-0.0008592513974775759,0,0,0,0,0,0,1500,1500,1500,1500,1500,1500
1747553335.4411993,0.01,0.0,-0.32,0.001090830782496456,0.0,-0.001090830782496456,-0.018978881302954942,0.0904781218987497,-0.0008592513974775759,0,0,0,0,0,0,1500,1500,1500,1500,1500,1500
1747553335.5251052,0.01,0.0,-0.32,0.001090830782496456,0.0,-0.001090830782496456,-0.018978881302954942,0.0904781218987497,-0.0008592513974775759,0,0,0,0,0,0,1500,1500,1500,1500,1500,1500
1747553335.6274602,0.0,0.0,-0.37,-0.001090830782496456,0.001090830782496456,0.002181661564992912,-0.018978881302954942,0.0904781218987497,-0.0008592513974775759,0,0,0,0,0,0,1500,1500,1500,1500,1500,1500
1747553335.7247133,0.04,0.01,-0.31,0.002181661564992912,0.001090830782496456,-0.001090830782496456,-0.018978881302954942,0.0904781218987497,-0.0008592513974775759,0,0,0,0,0,0,1500,1500,1500,1500,1500,1500
1747553335.8095412,0.04,0.01,-0.31,0.002181661564992912,0.001090830782496456,-0.001090830782496456,-0.018978881302954942,0.0904781218987497,-0.0008592513974775759,0,0,0,0,0,0,1500,1500,1500,1500,1500,1500
1747553335.908645,0.02,0.0,-0.36,0.001090830782496456,0.0,-0.001090830782496456,-0.018978881302954942,0.0904781218987497,-0.0008592513974775759,0,0,0,0,0,0,1500,1500,1500,1500,1500,1500
1747553336.0120907,0.02,0.0,-0.36,0.001090830782496456,0.0,-0.001090830782496456,-0.018978881302954942,0.0904781218987497,-0.0008592513974775759,0,0,0,0,0,0,1500,1500,1500,1500,1500,1500
1747553336.108375,0.04,0.0,-0.38,0.0,-0.00545415391248228,0.002181661564992912,-0.018978881302954942,0.0904781218987497,-0.0008592513974775759,0,0,0,0,0,0,1500,1500,1500,1500,1500,1500
1747553336.1988351,0.02,0.02,-0.28,0.0,0.002181661564992912,0.001090830782496456,-0.018978881302954942,0.0904781218987497,-0.0008592513974775759,0,0,0,0,0,0,1500,1500,1500,1500,1500,1500
1747553336.2924066,0.02,0.02,-0.28,0.0,0.002181661564992912,0.001090830782496456,-0.018978881302954942,0.0904781218987497,-0.0008592513974775759,0,0,0,0,0,0,1500,1500,1500,1500,1500,1500
1747553336.389949,0.04,-0.01,-0.36,-0.001090830782496456,0.001090830782496456,0.0,-0.018978881302954942,0.0904781218987497,-0.0008592513974775759,0,0,0,0,0,0,1500,1500,1500,1500,1500,1500
1747553336.4907298,0.04,-0.01,-0.36,-0.001090830782496456,0.001090830782496456,0.0,-0.018978881302954942,0.0904781218987497,-0.0008592513974775759,0,0,0,0,0,0,1500,1500,1500,1500,1500,1500
1747553336.5744925,0.03,0.0,-0.36,0.001090830782496456,-0.001090830782496456,0.0,-0.018978881302954942,0.0904781218987497,-0.0008592513974775759,0,0,0,0,0,0,1500,1500,1500,1500,1500,1500
1747553336.674294,0.03,0.0,-0.36,0.001090830782496456,-0.001090830782496456,0.0,-0.018978881302954942,0.0904781218987497,-0.0008592513974775759,0,0,0,0,0,0,1500,1500,1500,1500,1500,1500
1747553336.773642,0.04,0.0,-0.31,0.003272492347489368,0.0,-0.002181661564992912,-0.018978881302954942,0.0904781218987497,-0.0008592513974775759,0,0,0,0,0,0,1500,1500,1500,1500,1500,1500
1747553336.8747463,0.02,0.01,-0.33,0.0,0.0,0.002181661564992912,-0.018978881302954942,0.0904781218987497,-0.0008592513974775759,0,0,0,0,0,0,1500,1500,1500,1500,1500,1500
1747553336.9733322,0.02,0.01,-0.33,0.0,0.0,0.002181661564992912,-0.018978881302954942,0.0904781218987497,-0.0008592513974775759,0,0,0,0,0,0,1500,1500,1500,1500,1500,1500
1747553337.0580401,0.02,0.02,-0.36,-0.001090830782496456,-0.001090830782496456,0.0,-0.018978881302954942,0.0904781218987497,-0.0008592513974775759,0,0,0,0,0,0,1500,1500,1500,1500,1500,1500
1747553337.1577814,0.02,0.02,-0.36,-0.001090830782496456,-0.001090830782496456,0.0,-0.018978881302954942,0.0904781218987497,-0.0008592513974775759,0,0,0,0,0,0,1500,1500,1500,1500,1500,1500
1747553337.2703593,0.03,0.0,-0.3,-0.001090830782496456,-0.002181661564992912,-0.001090830782496456,-0.018978881302954942,0.0904781218987497,-0.0008592513974775759,0,0,0,0,0,0,1500,1500,1500,1500,1500,1500
1747553337.3629425,0.02,0.04,-0.41000000000000003,0.0,0.003272492347489368,0.001090830782496456,-0.018978881302954942,0.0904781218987497,-0.0008592513974775759,0,0,0,0,0,0,1500,1500,1500,1500,1500,1500
1747553337.4638479,0.02,0.04,-0.41000000000000003,0.0,0.003272492347489368,0.001090830782496456,-0.018978881302954942,0.0904781218987497,-0.0008592513974775759,0,0,0,0,0,0,1500,1500,1500,1500,1500,1500
1747553337.564982,0.05,-0.02,-0.37,0.0,0.004363323129985824,0.001090830782496456,-0.018978881302954942,0.0904781218987497,-0.0008592513974775759,0,0,0,0,0,0,1500,1500,1500,1500,1500,1500
1747553337.6581817,0.01,0.01,-0.33,0.002181661564992912,0.002181661564992912,0.004363323129985824,-0.018978881302954942,0.0904781218987497,-0.0008592513974775759,0,0,0,0,0,0,1500,1500,1500,1500,1500,1500
1747553337.7573311,0.01,0.01,-0.33,0.002181661564992912,0.002181661564992912,0.004363323129985824,-0.018978881302954942,0.0904781218987497,-0.0008592513974775759,0,0,0,0,0,0,1500,1500,1500,1500,1500,1500
1747553337.8572478,0.02,0.0,-0.3,-0.002181661564992912,-0.003272492347489368,0.003272492347489368,-0.018978881302954942,0.0904781218987497,-0.0008592513974775759,0,0,0,0,0,0,1500,1500,1500,1500,1500,1500
1747553337.9570813,0.02,0.0,-0.3,-0.002181661564992912,-0.003272492347489368,0.003272492347489368,-0.018978881302954942,0.0904781218987497,-0.0008592513974775759,0,0,0,0,0,0,1500,1500,1500,1500,1500,1500
1747553338.0399976,0.0,-0.01,-0.38,0.003272492347489368,0.001090830782496456,0.002181661564992912,-0.018978881302954942,0.0904781218987497,-0.0008592513974775759,0,0,0,0,0,0,1500,1500,1500,1500,1500,1500
1747553338.1403446,0.01,0.0,-0.29,0.001090830782496456,0.001090830782496456,0.002181661564992912,-0.018978881302954942,0.0904781218987497,-0.0008592513974775759,0,0,0,0,0,0,1500,1500,1500,1500,1500,1500
1747553338.2397463,0.01,0.0,-0.29,0.001090830782496456,0.001090830782496456,0.002181661564992912,-0.018978881302954942,0.0904781218987497,-0.0008592513974775759,0,0,0,0,0,0,1500,1500,1500,1500,1500,1500
