time,ay,ax,az,gy,gx,gz,roll,pitch,yaw,cmd_fx,cmd_fy,cmd_fz,cmd_tx,cmd_ty,cmd_tz,pwm_1,pwm_2,pwm_3,pwm_4,pwm_5,pwm_6
1747555062.19816,0.0,0.0,0.0,0.0,0.0,0.0,0.0,0.0,0.0,0,0,0,0,0,0,1500,1500,1500,1500,1500,1500
1747555062.2963579,-0.05,-0.24,0.07,-0.006544984694978736,-0.011999138607461015,-0.004363323129985824,2.1523580847983372,-0.14029727368367836,-0.265739783047124,0,0,0,0,0,0,1500,1500,1500,1500,1500,1500
1747555062.3981214,-0.05,-0.24,0.07,-0.006544984694978736,-0.011999138607461015,-0.004363323129985824,2.1523580847983372,-0.14029727368367836,-0.265739783047124,0,0,0,0,0,0,1500,1500,1500,1500,1500,1500
1747555062.4974098,-0.05,-0.2,0.11,-0.003272492347489368,-0.00545415391248228,-0.003272492347489368,2.152527167743647,-0.13974871276554104,-0.2665883761849821,0,0,0,0,0,0,1500,1500,1500,1500,1500,1500
1747555062.596722,-0.07,-0.18,0.08,-0.006544984694978736,0.001090830782496456,0.0,2.1525170388236794,-0.13964197907894715,-0.2666452814384085,0,0,0,0,0,0,1500,1500,1500,1500,1500,1500
1747555062.6805387,-0.07,-0.18,0.08,-0.006544984694978736,0.001090830782496456,0.0,2.1525170388236794,-0.13964197907894715,-0.2666452814384085,0,0,0,0,0,0,1500,1500,1500,1500,1500,1500
1747555062.7806568,0.0,-0.03,0.1,-0.004363323129985824,0.001090830782496456,-0.003272492347489368,2.1525170388236794,-0.13964197907894715,-0.2666452814384085,0,0,0,0,0,0,1500,1500,1500,1500,1500,1500
1747555062.8803236,0.0,-0.03,0.1,-0.004363323129985824,0.001090830782496456,-0.003272492347489368,2.1525170388236794,-0.13964197907894715,-0.2666452814384085,0,0,0,0,0,0,1500,1500,1500,1500,1500,1500
1747555062.9648767,-0.05,-0.09,-0.04,0.0,-0.00545415391248228,0.002181661564992912,2.1525170388236794,-0.13964197907894715,-0.2666452814384085,0,0,0,0,0,0,1500,1500,1500,1500,1500,1500
1747555063.0645103,-0.04,-0.09,0.0,-0.002181661564992912,-0.006544984694978736,0.003272492347489368,2.1526068799413682,-0.13915969608514575,-0.2673244987868477,0,0,0,0,0,0,1500,1500,1500,1500,1500,1500
1747555063.1642025,-0.04,-0.09,0.0,-0.002181661564992912,-0.006544984694978736,0.003272492347489368,2.1526068799413682,-0.13915969608514575,-0.2673244987868477,0,0,0,0,0,0,1500,1500,1500,1500,1500,1500
1747555063.2645447,-0.02,-0.07,0.05,-0.00545415391248228,-0.007635815477475192,-0.009817477042468103,2.1526068799413682,-0.13915969608514575,-0.2673244987868477,0,0,0,0,0,0,1500,1500,1500,1500,1500,1500
1747555063.364598,-0.02,-0.07,0.05,-0.00545415391248228,-0.007635815477475192,-0.009817477042468103,2.1526068799413682,-0.13915969608514575,-0.2673244987868477,0,0,0,0,0,0,1500,1500,1500,1500,1500,1500
1747555063.447739,-0.03,-0.06,0.0,0.001090830782496456,-0.007635815477475192,-0.011999138607461015,2.15265569298559,-0.13758053940024675,-0.26648094254298044,0,0,0,0,0,0,1500,1500,1500,1500,1500,1500
1747555063.547672,0.0,-0.05,0.13,-0.001090830782496456,0.003272492347489368,0.014180800172453928,2.1525502672144654,-0.137746438925585,-0.26651892228059937,0,0,0,0,0,0,1500,1500,1500,1500,1500,1500
1747555063.647761,0.0,-0.05,0.13,-0.001090830782496456,0.003272492347489368,0.014180800172453928,2.1525502672144654,-0.137746438925585,-0.26651892228059937,0,0,0,0,0,0,1500,1500,1500,1500,1500,1500
1747555063.7468412,-0.07,-0.08,0.02,0.0,0.00545415391248228,0.020725784867432664,2.1528499811166277,-0.14034092351770688,-0.2682620485928293,0,0,0,0,0,0,1500,1500,1500,1500,1500,1500
1747555063.8458927,-0.11,-0.08,-0.08,-0.00545415391248228,0.004363323129985824,0.009817477042468103,2.1529258846967854,-0.14246864850834215,-0.2696518843762548,0,0,0,0,0,0,1500,1500,1500,1500,1500,1500
1747555063.9309604,-0.11,-0.08,-0.08,-0.00545415391248228,0.004363323129985824,0.009817477042468103,2.1529258846967854,-0.14246864850834215,-0.2696518843762548,0,0,0,0,0,0,1500,1500,1500,1500,1500,1500
1747555064.0315018,-0.07,-0.04,0.04,-0.00545415391248228,0.003272492347489368,-0.002181661564992912,2.1529258846967854,-0.14246864850834215,-0.2696518843762548,0,0,0,0,0,0,1500,1500,1500,1500,1500,1500
1747555064.13008,-0.07,-0.04,0.04,-0.00545415391248228,0.003272492347489368,-0.002181661564992912,2.1529258846967854,-0.14246864850834215,-0.2696518843762548,0,0,0,0,0,0,1500,1500,1500,1500,1500,1500
1747555064.2142127,-0.06,-0.02,-0.01,-0.004363323129985824,0.003272492347489368,0.003272492347489368,2.1529258846967854,-0.14246864850834215,-0.2696518843762548,0,0,0,0,0,0,1500,1500,1500,1500,1500,1500
1747555064.313621,-0.06,-0.02,-0.01,-0.004363323129985824,0.003272492347489368,0.003272492347489368,2.1529258846967854,-0.14246864850834215,-0.2696518843762548,0,0,0,0,0,0,1500,1500,1500,1500,1500,1500
1747555064.4144077,-0.01,-0.02,0.05,-0.002181661564992912,0.006544984694978736,0.014180800172453928,2.1530398262940604,-0.14285873785225062,-0.2698767450368135,0,0,0,0,0,0,1500,1500,1500,1500,1500,1500
1747555064.514207,-0.12,-0.08,-0.05,0.0,0.020725784867432664,0.019634954084936207,2.153188026139521,-0.1455759357922368,-0.27055034397960137,0,0,0,0,0,0,1500,1500,1500,1500,1500,1500
1747555064.6145563,-0.12,-0.08,-0.05,0.0,0.020725784867432664,0.019634954084936207,2.153188026139521,-0.1455759357922368,-0.27055034397960137,0,0,0,0,0,0,1500,1500,1500,1500,1500,1500
1747555064.697801,-0.14,-0.07,-0.05,-0.002181661564992912,0.008726646259971648,0.014180800172453928,2.1531567031543997,-0.1490489112596263,-0.270527393552851,0,0,0,0,0,0,1500,1500,1500,1500,1500,1500
1747555064.7953541,-0.16,-0.07,0.0,-0.004363323129985824,-0.008726646259971648,0.001090830782496456,2.153179868705883,-0.149450295709065,-0.27101758884247024,0,0,0,0,0,0,1500,1500,1500,1500,1500,1500
1747555064.8978343,-0.16,-0.07,0.0,-0.004363323129985824,-0.008726646259971648,0.001090830782496456,2.153179868705883,-0.149450295709065,-0.27101758884247024,0,0,0,0,0,0,1500,1500,1500,1500,1500,1500
1747555064.9978917,-0.13,-0.07,-0.01,-0.007635815477475192,-0.008726646259971648,-0.004363323129985824,2.153211152826271,-0.14851464349953986,-0.27264126321750454,0,0,0,0,0,0,1500,1500,1500,1500,1500,1500
1747555065.0968301,-0.13,-0.07,-0.01,-0.007635815477475192,-0.008726646259971648,-0.004363323129985824,2.153211152826271,-0.14851464349953986,-0.27264126321750454,0,0,0,0,0,0,1500,1500,1500,1500,1500,1500
1747555065.1804478,-0.07,-0.04,0.05,-0.003272492347489368,0.007635815477475192,0.007635815477475192,2.153141963785045,-0.14842690882007245,-0.2726979502905191,0,0,0,0,0,0,1500,1500,1500,1500,1500,1500
1747555065.2814963,-0.15,-0.07,-0.03,0.008726646259971648,0.018544123302439753,0.017453292519943295,2.153202868941976,-0.1510417727287505,-0.2721486582443849,0,0,0,0,0,0,1500,1500,1500,1500,1500,1500
1747555065.3803117,-0.15,-0.07,-0.03,0.008726646259971648,0.018544123302439753,0.017453292519943295,2.153202868941976,-0.1510417727287505,-0.2721486582443849,0,0,0,0,0,0,1500,1500,1500,1500,1500,1500
1747555065.4641225,-0.19,-0.11,-0.07,-0.00545415391248228,0.0,0.009817477042468103,2.153330868448099,-0.15325225108642745,-0.27239299189270016,0,0,0,0,0,0,1500,1500,1500,1500,1500,1500
1747555065.5643728,-0.19,-0.11,-0.07,-0.00545415391248228,0.0,0.009817477042468103,2.153330868448099,-0.15325225108642745,-0.27239299189270016,0,0,0,0,0,0,1500,1500,1500,1500,1500,1500
1747555065.6648533,-0.15,-0.07,0.05,-0.018544123302439753,-0.008726646259971648,0.003272492347489368,2.1516593513726225,-0.15323023742441388,-0.2728265465148006,0,0,0,0,0,0,1500,1500,1500,1500,1500,1500
1747555065.7643123,-0.16,-0.01,-0.04,-0.003272492347489368,0.007635815477475192,0.01090830782496456,2.1503099805526205,-0.15341280230503193,-0.2729962450703426,0,0,0,0,0,0,1500,1500,1500,1500,1500,1500
1747555065.8647277,-0.16,-0.01,-0.04,-0.003272492347489368,0.007635815477475192,0.01090830782496456,2.1503099805526205,-0.15341280230503193,-0.2729962450703426,0,0,0,0,0,0,1500,1500,1500,1500,1500,1500
1747555065.9474194,-0.19,-0.02,-0.06,0.007635815477475192,0.015271630954950384,0.014180800172453928,2.1503379792652444,-0.15599941581541932,-0.27261455923199557,0,0,0,0,0,0,1500,1500,1500,1500,1500,1500
1747555066.047503,-0.19,-0.02,-0.06,0.007635815477475192,0.015271630954950384,0.014180800172453928,2.1503379792652444,-0.15599941581541932,-0.27261455923199557,0,0,0,0,0,0,1500,1500,1500,1500,1500,1500
1747555066.1478508,-0.2,-0.11,-0.07,-0.002181661564992912,-0.004363323129985824,0.009817477042468103,2.1519137173367087,-0.15554031049841896,-0.27329688087456266,0,0,0,0,0,0,1500,1500,1500,1500,1500,1500
1747555066.2499535,-0.15,-0.08,-0.05,-0.008726646259971648,-0.013089969389957472,0.002181661564992912,2.1525029521069685,-0.1531356247632511,-0.2747150766535587,0,-7.388752,0,0,0,0,1460,1460,1460,1500,1500,1500
1747555066.3480084,-0.15,-0.08,-0.05,-0.008726646259971648,-0.013089969389957472,0.002181661564992912,2.1525029521069685,-0.1531356247632511,-0.2747150766535587,0,-12.5,0,0,0,-0.008217,1420,1420,1420,1500,1500,1500
1747555066.4316146,-0.08,0.01,0.08,-0.013089969389957472,0.001090830782496456,0.001090830782496456,2.1504471270236882,-0.1518431577950093,-0.2755290921372988,0,-12.5,0,0,0,-0.008217,1380,1380,1380,1500,1500,1500
1747555066.5314891,-0.08,0.01,0.08,-0.013089969389957472,0.001090830782496456,0.001090830782496456,2.1504471270236882,-0.1518431577950093,-0.2755290921372988,0,-12.5,0,0,0,-0.009517,1340,1340,1354,1500,1500,1500
1747555066.6318128,-0.61,-0.29,0.19,-0.018544123302439753,0.015271630954950384,0.016362461737446838,2.148864037285772,-0.15167547751827287,-0.2754741064049948,0,-12.5,0,0,0,-0.009517,1321,1325,1354,1500,1500,1500
1747555066.714464,-0.81,-0.2,0.0,-0.09926560120717749,-0.09381144729469522,-0.16471544815696484,2.1423578981619786,-0.14356917447996478,-0.27489274229176003,0,-12.5,0,0,0,-0.009517,1321,1325,1354,1500,1500,1500
1747555066.8133628,-0.81,-0.2,0.0,-0.09926560120717749,-0.09381144729469522,-0.16471544815696484,2.1423578981619786,-0.14356917447996478,-0.27489274229176003,0,-12.5,0,0,0,-0.009517,1321,1325,1354,1500,1500,1500
1747555066.9141052,-0.8,0.08,0.0,-0.21380283336930536,-0.24434609527920614,-0.5181446216858165,2.1167238454310087,-0.06457983432553915,-0.26831000309457964,0,-12.5,0,0,0,-0.009517,1321,1325,1354,1500,1500,1500
1747555067.014759,-0.32,-0.14,0.09,-0.1505346479845109,-0.2683443724941282,-0.5497787143782138,2.089066616582223,0.03280122142207219,-0.26120794289734395,0,-12.5,0,0,0,-0.009517,1321,1325,1354,1500,1500,1500
1747555067.1142695,-0.32,-0.14,0.09,-0.1505346479845109,-0.2683443724941282,-0.5497787143782138,2.089066616582223,0.03280122142207219,-0.26120794289734395,0,-12.5,0,0,0,-0.009517,1321,1325,1354,1500,1500,1500
1747555067.1972294,-0.16,-0.14,-0.05,-0.10362892433716332,-0.25416357232167425,-0.46796640569097964,2.071683585751664,0.1167209109529038,-0.2580141835772251,0,-12.5,0,0,0,-0.009517,1321,1325,1354,1500,1500,1500
1747555067.2967355,-0.16,-0.14,-0.05,-0.10362892433716332,-0.25416357232167425,-0.46796640569097964,2.071683585751664,0.1167209109529038,-0.2580141835772251,0,-12.5,0,0,0,-0.009517,1321,1325,1354,1500,1500,1500
1747555067.398204,-0.09,-0.2,-0.05,-0.07417649320975901,-0.26070855701665296,-0.3490658503988659,2.0570740802823213,0.19209711805931592,-0.26231744238607735,0,-12.5,0,0,0,-0.009517,1321,1325,1354,1500,1500,1500
1747555067.4987845,-0.02,-0.29,0.04,-0.06981317007977318,-0.2650718801466388,-0.23234695667174513,2.043898156915275,0.2502400676233634,-0.27884831459547327,0,-12.5,0,0,0,-0.009517,1321,1325,1354,1500,1500,1500
1747555067.5976448,-0.02,-0.29,0.04,-0.06981317007977318,-0.2650718801466388,-0.23234695667174513,2.043898156915275,0.2502400676233634,-0.27884831459547327,0,-12.5,0,0,0,-0.009517,1321,1325,1354,1500,1500,1500
1747555067.68086,0.06,-0.13,-0.24,-0.0916297857297023,-0.26070855701665296,-0.13853550937704992,2.0254170645238547,0.2954032637318208,-0.30323847808452603,0,-12.5,0,0,0,-0.009517,1321,1325,1354,1500,1500,1500
1747555067.7803159,0.06,-0.13,-0.24,-0.0916297857297023,-0.26070855701665296,-0.13853550937704992,2.0254170645238547,0.2954032637318208,-0.30323847808452603,0,-12.5,0,0,0,-0.009517,1321,1325,1354,1500,1500,1500
1747555067.8800547,0.17,-0.22,-0.14,-0.05235987755982989,-0.22471114119426994,-0.04363323129985824,2.0053936266027512,0.3238171553146908,-0.3329300697680794,0,-12.5,0,0,0,-0.009517,1321,1325,1354,1500,1500,1500
1747555067.9637115,0.11,-0.02,0.19,-0.025089107997418487,-0.18435040224190105,0.038179077387375956,1.9908888051725533,0.33552626130259366,-0.36148789771728207,0,-12.5,0,0,0,-0.009517,1321,1325,1354,1500,1500,1500
1747555068.0639777,0.11,-0.02,0.19,-0.025089107997418487,-0.18435040224190105,0.038179077387375956,1.9908888051725533,0.33552626130259366,-0.36148789771728207,0,-12.5,0,0,0,-0.009517,1321,1325,1354,1500,1500,1500
1747555068.1638367,-0.14,-0.36,0.16,0.004363323129985824,-0.15162547876700738,0.12435470920459599,1.9786317098720954,0.3332170081459224,-0.39192545343396445,0,-0.014485,0,0,0,0,1361,1365,1394,1500,1500,1500
1747555068.2601554,0.5700000000000001,-0.67,0.01,0.022907446432425576,-0.15707963267948966,0.14726215563702155,1.9720333106369838,0.3240363675048732,-0.4224342279463523,0,0,0,0,0,0,1401,1405,1434,1500,1500,1500
1747555068.363894,0.5700000000000001,-0.67,0.01,0.022907446432425576,-0.15707963267948966,0.14726215563702155,1.9720333106369838,0.3240363675048732,-0.4224342279463523,0,0,0,0,0,0,1441,1445,1474,1500,1500,1500
1747555068.452313,0.5,-0.39,0.09,0.11344640137963143,-0.04145156973486533,0.346884188833873,1.9754367672809983,0.29162974643139616,-0.4523136135276321,0,0,0,0,0,0,1481,1485,1500,1500,1500,1500
1747555068.5474205,0.5,-0.39,0.09,0.11344640137963143,-0.04145156973486533,0.346884188833873,1.9754367672809983,0.29162974643139616,-0.4523136135276321,0,0,0,0,0,0,1500,1500,1500,1500,1500,1500
1747555068.6476576,-0.21,-0.34,0.19,0.17562375598192942,0.04145156973486533,0.5094179754258449,1.9876097219377482,0.23507990278252475,-0.47636505760340486,3,0,0,0,0,0,1540,1460,1500,1540,1540,1540
1747555068.7473464,0.02,-0.14,0.0,0.24980024919168842,0.04145156973486533,0.631591023065448,2.0148892794952338,0.15033856022525252,-0.5081907953348104,3,0,0,0,0,0,1564,1429,1500,1580,1580,1580
1747555068.8475263,0.02,-0.14,0.0,0.24980024919168842,0.04145156973486533,0.631591023065448,2.0148892794952338,0.15033856022525252,-0.5081907953348104,3,0,0,0,0,0,1564,1429,1500,1620,1587,1587
1747555068.9306066,0.9500000000000001,-0.04,-0.06,0.2748893571891069,0.025089107997418487,0.6806784082777885,2.0525599787932856,0.05768395145287924,-0.5493476226828246,3,0,0,0,0,0,1564,1429,1500,1620,1587,1587
1747555069.0303311,0.9500000000000001,-0.04,-0.06,0.2748893571891069,0.025089107997418487,0.6806784082777885,2.0525599787932856,0.05768395145287924,-0.5493476226828246,3,0,0,0,0,0,1564,1429,1500,1620,1587,1587
1747555069.1300707,-0.36,0.43,-0.34,0.3327033886614191,-0.03599741582238305,0.7232208087951503,2.1012098041618716,-0.03911080348027204,-0.6041856971433818,3,0,0,0,0,0,1564,1429,1500,1620,1587,1587
1747555069.2140317,-0.18,0.36,-0.06,0.037088246604879506,-0.04908738521234052,0.5268712679457882,2.126769538645539,-0.11025181185382978,-0.6565420229948166,3,0,0,0,0,0,1564,1429,1500,1620,1587,1587
1747555069.3145196,-0.18,0.36,-0.06,0.037088246604879506,-0.04908738521234052,0.5268712679457882,2.126769538645539,-0.11025181185382978,-0.6565420229948166,3,0,0,0,0,0,1564,1429,1500,1620,1587,1587
1747555069.4146078,-0.41000000000000003,0.15,-0.1,-0.17235126363444003,-0.0719948316447661,0.35015668118136234,2.1196556982062345,-0.16025489137212384,-0.7002691593213847,3,0,0,0,0,0,1564,1429,1500,1620,1587,1587
1747555069.512995,-0.21,0.22,0.0,-0.3370667117914049,-0.10799224746714914,0.210530341021816,2.0872460385520646,-0.18269084292681426,-0.7328565044704674,3,0,0,0,0,0,1564,1429,1500,1620,1587,1587
1747555069.6138084,-0.21,0.22,0.0,-0.3370667117914049,-0.10799224746714914,0.210530341021816,2.0872460385520646,-0.18269084292681426,-0.7328565044704674,3,0,0,0,0,0,1564,1429,1500,1620,1587,1587
1747555069.6969619,0.0,0.06,-0.23,-0.5126904677733343,-0.11344640137963143,0.10035643198967395,2.027473811640921,-0.18991992773346583,-0.7600205030026422,3,0,0,0,0,0,1564,1429,1500,1620,1587,1587
1747555069.7976315,0.0,0.06,-0.23,-0.5126904677733343,-0.11344640137963143,0.10035643198967395,2.027473811640921,-0.18991992773346583,-0.7600205030026422,3,0,0,0,0,0,1564,1429,1500,1620,1587,1587
1747555069.896929,0.14,0.02,-0.16,-0.619591884457987,-0.10253809355466686,0.03381575425739013,1.9430647607233538,-0.18850076768854485,-0.7793048306453219,3,0,0,0,0,0,1564,1429,1500,1620,1587,1587
1747555069.980535,0.14,0.02,-0.16,-0.619591884457987,-0.10253809355466686,0.03381575425739013,1.9430647607233538,-0.18850076768854485,-0.7793048306453219,3,0,0,0,0,0,1564,1429,1500,1620,1587,1587
1747555070.080031,0.0,-0.06,-0.19,-0.6697701004528239,-0.11126473981463851,-0.01090830782496456,1.852985517776475,-0.18351074611456222,-0.7946280615444541,3,0,0,0,0,0,1564,1429,1500,1620,1587,1587
1747555070.1806448,0.13,-0.08,-0.35000000000000003,-0.7264933011426397,-0.13526301702956053,-0.030543261909900768,1.751770047247632,-0.1744683169698252,-0.8143421805086288,3,0,0,0,0,0,1564,1429,1500,1620,1587,1587
1747555070.2802908,0.13,-0.08,-0.35000000000000003,-0.7264933011426397,-0.13526301702956053,-0.030543261909900768,1.751770047247632,-0.1744683169698252,-0.8143421805086288,3,0,0,0,0,0,1564,1429,1500,1620,1587,1587
1747555070.3806336,0.06,0.0,-0.3,-0.8388488717397746,-0.17780541754692233,-0.0545415391248228,1.6340613960841657,-0.16583253226778977,-0.8405333439718702,3,0,0,0,0,0,1564,1429,1500,1620,1587,1587
1747555070.4647558,0.01,-0.19,-0.26,-0.8901179185171081,-0.17562375598192942,-0.12544553998709243,1.5125811800460647,-0.15290245379842016,-0.8669995611645243,3,0,0,0,0,0,1564,1429,1500,1620,1587,1587
1747555070.564094,0.01,-0.19,-0.26,-0.8901179185171081,-0.17562375598192942,-0.12544553998709243,1.5125811800460647,-0.15290245379842016,-0.8669995611645243,3,0,0,0,0,0,1564,1429,1500,1620,1587,1587
1747555070.6644776,-0.03,-0.3,-0.29,-0.8552113334772214,-0.20943951023931956,-0.18544123302439752,1.3816337316995353,-0.13207810265026942,-0.9004574223615148,3,0,0,0,0,0,1564,1429,1500,1620,1587,1587
1747555070.764864,-0.03,-0.3,-0.29,-0.8552113334772214,-0.20943951023931956,-0.18544123302439752,1.3816337316995353,-0.13207810265026942,-0.9004574223615148,3,0,0,0,0,0,1564,1429,1500,1620,1587,1587
1747555070.8640122,0.06,-0.01,-0.51,-0.6283185307179586,-0.2530727415391778,-0.12544553998709243,1.274423558559416,-0.11504279720554138,-0.9414193188794802,0,0,0,0,0,0,1524,1469,1500,1580,1547,1547
1747555070.9476635,-0.3,-0.51,-0.14,-0.24434609527920614,-0.2585268954516601,0.001090830782496456,1.2116176279255413,-0.11934771166421265,-0.9807796175169238,3,0,0,0,0,0,1564,1429,1500,1620,1587,1587
1747555071.0474937,-0.3,-0.51,-0.14,-0.24434609527920614,-0.2585268954516601,0.001090830782496456,1.2116176279255413,-0.11934771166421265,-0.9807796175169238,3,0,0,0,0,0,1564,1429,1500,1620,1587,1587
1747555071.1475723,-0.06,0.1,-0.64,-0.13199052468207118,-0.26725354171163174,0.016362461737446838,1.1914958539445806,-0.13433281159057592,-1.0185255315220731,0,0,0,0,0,0,1524,1469,1500,1580,1547,1547
1747555071.2306883,-0.06,0.1,-0.64,-0.13199052468207118,-0.26725354171163174,0.016362461737446838,1.1914958539445806,-0.13433281159057592,-1.0185255315220731,0,0,0,0,0,0,1500,1500,1500,1540,1507,1507
1747555071.3305154,-0.46,-0.26,0.11,0.0818123086872342,-0.2814343418840856,0.013089969389957472,1.1964733573230206,-0.15204091706315706,-1.0580316767240099,-3,0,0,0,0,0,1460,1540,1500,1500,1467,1467
1747555071.4148607,-0.23,-0.16,-0.16,0.06872233929727672,-0.27707101875409984,-0.06435901616729091,1.2148854766111399,-0.16159834901435313,-1.1006212201520826,-3,0,0,0,0,0,1429,1564,1500,1460,1427,1427
1747555071.5144703,-0.23,-0.16,-0.16,0.06872233929727672,-0.27707101875409984,-0.06435901616729091,1.2148854766111399,-0.16159834901435313,-1.1006212201520826,-3,0,0,0,0,0,1429,1564,1500,1420,1402,1402
1747555071.6142302,0.02,-0.05,-0.3,0.17889624832941878,-0.31525009614147576,-0.07308566242726255,1.242147349705181,-0.1656222492880597,-1.1450671384022386,-3,0,0,0,0,0,1429,1564,1500,1380,1402,1402
1747555071.697238,0.02,-0.05,-0.3,0.17889624832941878,-0.31525009614147576,-0.07308566242726255,1.242147349705181,-0.1656222492880597,-1.1450671384022386,-3,0,0,0,0,0,1429,1564,1500,1363,1402,1402
1747555071.7970207,-0.35000000000000003,-0.16,-0.08,0.08072147790473774,-0.31634092692397225,-0.11235557059713497,1.2783767603383862,-0.1662044227385569,-1.1979589066361074,-3,0,0,0,0,0,1429,1564,1500,1363,1402,1402
1747555071.8978074,-0.06,-0.26,0.0,-0.05890486225480862,-0.28361600344907856,-0.19198621771937624,1.2874039399576969,-0.15558466293913778,-1.247305071377011,-3,0,0,0,0,0,1429,1564,1500,1363,1402,1402
1747555071.997326,-0.06,-0.26,0.0,-0.05890486225480862,-0.28361600344907856,-0.19198621771937624,1.2874039399576969,-0.15558466293913778,-1.247305071377011,-3,0,0,0,0,0,1429,1564,1500,1363,1402,1402
1747555072.0971234,-0.28,-0.32,0.01,0.28034351110158917,-0.2748893571891069,-0.13962634015954636,1.306583398551697,-0.14032978717867806,-1.2967504503257365,-3,0,0,0,0,0,1429,1564,1500,1363,1402,1402
1747555072.180655,-0.1,-0.23,-0.08,0.4930555136883981,-0.2781618495365963,-0.0818123086872342,1.37598118408398,-0.13439548451970262,-1.3423927792286696,-3,0,0,0,0,0,1429,1564,1500,1363,1402,1402
1747555072.2801962,-0.1,-0.23,-0.08,0.4930555136883981,-0.2781618495365963,-0.0818123086872342,1.37598118408398,-0.13439548451970262,-1.3423927792286696,-3,0,0,0,0,0,1429,1564,1500,1363,1402,1402
1747555072.3803434,0.18,0.02,-0.19,0.5803219762881145,-0.272707695624114,-0.05781403147231216,1.4609904918145264,-0.13046019961696545,-1.3836906431731768,-3,0,0,0,0,0,1429,1564,1500,1363,1402,1402
1747555072.4643083,0.18,0.02,-0.19,0.5803219762881145,-0.272707695624114,-0.05781403147231216,1.4609904918145264,-0.13046019961696545,-1.3836906431731768,-3,0,0,0,0,0,1429,1564,1500,1363,1402,1402
1747555072.5641458,-0.29,-0.03,-0.15,0.5726861608106394,-0.27379852640661045,-0.05235987755982989,1.5564054276282226,-0.1246790611465977,-1.4271510084174663,-3,0,0,0,0,0,1429,1564,1500,1363,1402,1402
1747555072.6644309,0.01,0.06,-0.01,0.5639595145506677,-0.27598018797160334,-0.07853981633974483,1.650279963471478,-0.11282423314024997,-1.469609872522133,-3,0,0,0,0,0,1429,1564,1500,1363,1402,1402
1747555072.7638836,0.01,0.06,-0.01,0.5639595145506677,-0.27598018797160334,-0.07853981633974483,1.650279963471478,-0.11282423314024997,-1.469609872522133,-3,0,0,0,0,0,1429,1564,1500,1363,1402,1402
1747555072.8638475,-0.07,0.14,-0.2,0.48432886742842646,-0.2879793265790644,-0.06217735460229799,1.7322528831329427,-0.09743291816690368,-1.509561248805039,-3,0,0,0,0,0,1429,1564,1500,1363,1402,1402
1747555072.9464931,-0.07,0.14,-0.2,0.48432886742842646,-0.2879793265790644,-0.06217735460229799,1.7322528831329427,-0.09743291816690368,-1.509561248805039,-3,0,0,0,0,0,1429,1564,1500,1363,1402,1402
1747555073.0481763,-0.1,0.06,0.0,0.3741549583962844,-0.2879793265790644,-0.038179077387375956,1.803342499363755,-0.08046181477449825,-1.5518203246561622,-3,0,0,0,0,0,1429,1564,1500,1363,1402,1402
1747555073.1466546,-0.16,-0.01,-0.14,0.29888763440402893,-0.27707101875409984,-0.015271630954950384,1.855684827950082,-0.06545246465854526,-1.5901234749974806,-3,0,0,0,0,0,1429,1564,1500,1363,1402,1402
1747555073.229561,-0.16,-0.01,-0.14,0.29888763440402893,-0.27707101875409984,-0.015271630954950384,1.855684827950082,-0.06545246465854526,-1.5901234749974806,-3,0,0,0,0,0,1429,1564,1500,1363,1402,1402
1747555073.3306153,-0.02,-0.03,-0.1,0.20943951023931956,-0.27379852640661045,0.02945243112740431,1.8961577504743374,-0.0534138266482335,-1.6291836094169956,-3,0,0,0,0,0,1429,1564,1500,1363,1402,1402
1747555073.429972,-0.15,0.01,-0.07,0.13526301702956053,-0.26616271092913524,0.05126904677733343,1.9262077368278392,-0.04479766530576342,-1.6709091629250878,-3,0,0,0,0,0,1429,1564,1500,1363,1402,1402
1747555073.5307827,-0.15,0.01,-0.07,0.13526301702956053,-0.26616271092913524,0.05126904677733343,1.9262077368278392,-0.04479766530576342,-1.6709091629250878,-3,0,0,0,0,0,1429,1564,1500,1363,1402,1402
1747555073.6307003,0.0,0.0,-0.27,0.061086523819801536,-0.2683443724941282,0.06326818538479445,1.943789775281631,-0.03855763528620263,-1.7126830597226228,-3,0,0,0,0,0,1429,1564,1500,1363,1402,1402
1747555073.7136152,0.0,0.0,-0.27,0.061086523819801536,-0.2683443724941282,0.06326818538479445,1.943789775281631,-0.03855763528620263,-1.7126830597226228,-3,0,0,0,0,0,1429,1564,1500,1363,1402,1402
1747555073.8133037,-0.07,0.01,0.01,0.015271630954950384,-0.2792526803190927,0.06981317007977318,1.9521132716611738,-0.032507705784585235,-1.7557408753889807,-3,0,0,0,0,0,1429,1564,1500,1363,1402,1402
1747555073.9145246,-0.18,0.0,-0.04,-0.0272707695624114,-0.29670597283903605,0.07963064712224129,1.9528128381924315,-0.027154370249526726,-1.7989744049571634,-3,0,0,0,0,0,1429,1564,1500,1363,1402,1402
1747555074.0143325,-0.18,0.0,-0.04,-0.0272707695624114,-0.29670597283903605,0.07963064712224129,1.9528128381924315,-0.027154370249526726,-1.7989744049571634,-3,0,0,0,0,0,1429,1564,1500,1363,1402,1402
1747555074.1143696,-0.12,0.09,-0.13,-0.019634954084936207,-0.3108867730114899,0.07417649320975901,1.950297629141438,-0.020859129872155074,-1.8469543964026924,-3,0,0,0,0,0,1429,1564,1500,1363,1402,1402
1747555074.1973147,-0.12,0.09,-0.13,-0.019634954084936207,-0.3108867730114899,0.07417649320975901,1.950297629141438,-0.020859129872155074,-1.8469543964026924,-3,0,0,0,0,0,1429,1564,1500,1363,1402,1402
1747555074.2970958,-0.19,-0.04,-0.09,-0.044724062082354694,-0.3392483733563978,0.050178215994836975,1.9477517472409993,-0.011172586659400128,-1.8938446715356536,-3,0,0,0,0,0,1429,1564,1500,1363,1402,1402
1747555074.398002,-0.14,-0.14,-0.09,-0.05781403147231216,-0.36324665057131983,0.04145156973486533,1.9401273168538233,0.0018903326325346278,-1.9468478454260874,-3,0,0,0,0,0,1429,1564,1500,1363,1402,1402
1747555074.4971492,-0.14,-0.14,-0.09,-0.05781403147231216,-0.36324665057131983,0.04145156973486533,1.9401273168538233,0.0018903326325346278,-1.9468478454260874,-3,0,0,0,0,0,1429,1564,1500,1363,1402,1402
1747555074.597757,-0.1,-0.06,-0.17,-0.04799655442984406,-0.3817907738737596,0.032724923474893676,1.932019014825512,0.017926036238270444,-2.00224933854761,-3,0,0,0,0,0,1429,1564,1500,1363,1402,1402
1747555074.697332,-0.18,-0.01,-0.22,-0.05890486225480862,-0.41015237421866746,0.032724923474893676,1.9244531975842554,0.03420483432532894,-2.057964954522251,-3,0,0,0,0,0,1429,1564,1500,1363,1402,1402
1747555074.7976735,-0.18,-0.01,-0.22,-0.05890486225480862,-0.41015237421866746,0.032724923474893676,1.9244531975842554,0.03420483432532894,-2.057964954522251,-3,0,0,0,0,0,1429,1564,1500,1363,1402,1402
1747555074.8974159,-0.26,-0.04,-0.08,-0.06981317007977318,-0.4439681284760576,0.013089969389957472,1.9130175081791065,0.05424674892290088,-2.122006312202328,-3,0,0,0,0,0,1429,1564,1500,1363,1402,1402
1747555074.9815145,-0.26,-0.04,-0.08,-0.06981317007977318,-0.4439681284760576,0.013089969389957472,1.9130175081791065,0.05424674892290088,-2.122006312202328,-3,0,0,0,0,0,1429,1564,1500,1363,1402,1402
1747555075.0804253,-0.1,0.0,-0.22,-0.07963064712224129,-0.47451139038595835,0.006544984694978736,1.8974548225155567,0.07777920717418922,-2.1896963879395455,-3,0,0,0,0,0,1429,1564,1500,1363,1402,1402
1747555075.1801786,-0.11,0.02,-0.15,-0.08290313946973066,-0.4799655442984406,0.011999138607461015,1.879679847017009,0.10012452333940265,-2.260798791358733,-3,0,0,0,0,0,1429,1564,1500,1363,1402,1402
1747555075.2807515,-0.11,0.02,-0.15,-0.08290313946973066,-0.4799655442984406,0.011999138607461015,1.879679847017009,0.10012452333940265,-2.260798791358733,-3,0,0,0,0,0,1429,1564,1500,1363,1402,1402
1747555075.3806765,-0.25,-0.01,0.0,-0.12435470920459599,-0.4636030825609938,0.001090830782496456,1.8582430633957796,0.12097719139972558,-2.3271484124811703,-3,0,0,0,0,0,1429,1564,1500,1363,1402,1402
1747555075.4641755,-0.22,0.01,-0.05,-0.17235126363444003,-0.4701480672559725,-0.011999138607461015,1.8291918199552035,0.1404955925248379,-2.3929168481611143,-3,0,0,0,0,0,1429,1564,1500,1363,1402,1402
1747555075.5638108,-0.22,0.01,-0.05,-0.17235126363444003,-0.4701480672559725,-0.011999138607461015,1.8291918199552035,0.1404955925248379,-2.3929168481611143,-3,0,0,0,0,0,1429,1564,1500,1363,1402,1402
1747555075.6644526,-0.14,-0.02,-0.05,-0.23125612588924865,-0.46142142099600086,-0.016362461737446838,1.7880874123101136,0.16137122847579122,-2.4631967818679126,0,1.584618,0,0,0,0,1469,1553,1540,1403,1442,1442
1747555075.7635798,-0.14,-0.02,-0.05,-0.23125612588924865,-0.46142142099600086,-0.016362461737446838,1.7880874123101136,0.16137122847579122,-2.4631967818679126,0,12.5,0,0,0,0,1509,1593,1580,1443,1482,1482
1747555075.8632104,-0.16,0.16,-0.12,-0.24652775684419906,-0.4636030825609938,-0.007635815477475192,1.741461384659278,0.17700527352186204,-2.5302046643743217,0,12.5,0,0,0,0,1549,1633,1620,1483,1500,1500
1747555075.9474902,-0.06,0.13,0.18,-0.04690572364734761,-0.4919646829059016,-0.08835729338221293,1.7081785132401257,0.1908388933354432,-2.603521729862045,0,12.5,0,0,0,0,1589,1651,1627,1500,1500,1500
1747555076.046977,-0.06,0.13,0.18,-0.04690572364734761,-0.4919646829059016,-0.08835729338221293,1.7081785132401257,0.1908388933354432,-2.603521729862045,0,12.5,0,0,0,0,1629,1651,1627,1500,1500,1500
1747555076.1462703,0.33,0.41000000000000003,0.15,0.03490658503988659,-0.42215151282612845,-0.4439681284760576,1.6954122915033771,0.23439958883585435,-2.6728801224056804,0,12.5,0,0,0,0,1655,1651,1627,1500,1500,1500
1747555076.2299502,0.33,0.41000000000000003,0.15,0.03490658503988659,-0.42215151282612845,-0.4439681284760576,1.6954122915033771,0.23439958883585435,-2.6728801224056804,0,12.5,0,0,0,0,1655,1651,1627,1500,1500,1500
1747555076.331539,0.09,-0.41000000000000003,0.27,0.07963064712224129,-0.2617993877991494,-0.5966844380255614,1.6941572108687828,0.3258045670665017,-2.711374032651849,0,12.5,0,0,0,0,1655,1651,1627,1500,1500,1500
1747555076.4318535,0.39,0.1,0.34,0.2748893571891069,-0.3687008044838021,-0.2378011105842274,1.7065615629260518,0.3968245779254209,-2.7545866944613424,0,12.5,0,0,0,0,1655,1651,1627,1500,1500,1500
1747555076.5305943,0.39,0.1,0.34,0.2748893571891069,-0.3687008044838021,-0.2378011105842274,1.7065615629260518,0.3968245779254209,-2.7545866944613424,0,12.5,0,0,0,0,1655,1651,1627,1500,1500,1500
1747555076.6301436,-0.42,-0.41000000000000003,0.29,0.38724492778624187,-0.35561083509384467,-0.03381575425739013,1.7335282123227291,0.4226401007085639,-2.810885478235718,0,12.5,0,0,0,0,1655,1651,1627,1500,1500,1500
1747555076.713879,-0.42,-0.41000000000000003,0.29,0.38724492778624187,-0.35561083509384467,-0.03381575425739013,1.7335282123227291,0.4226401007085639,-2.810885478235718,0,12.5,0,0,0,0,1655,1651,1627,1500,1500,1500
1747555076.8144886,-0.43,-0.03,0.26,0.37742745074377376,-0.3010692959690218,0.05999569303730508,1.7686182392368845,0.4297054365107961,-2.867637731936164,0,12.5,0,0,0,0,1655,1651,1627,1500,1500,1500
1747555076.9146821,0.28,-0.02,0.15,0.34033920413889424,-0.2814343418840856,0.0818123086872342,1.7997502146708493,0.4278681436172836,-2.9159048907745464,0,12.5,0,0,0,0,1655,1651,1627,1500,1500,1500
1747555077.013786,0.28,-0.02,0.15,0.34033920413889424,-0.2814343418840856,0.0818123086872342,1.7997502146708493,0.4278681436172836,-2.9159048907745464,0,12.5,0,0,0,0,1655,1651,1627,1500,1500,1500
1747555077.114563,-0.36,-0.06,-0.07,0.31634092692397225,-0.2923426497090502,0.09381144729469522,1.8296237467152683,0.42482075496202737,-2.9672029098809123,0,12.5,0,0,0,0,1655,1651,1627,1500,1500,1500
1747555077.1973233,0.43,0.09,0.27,0.3174317577064687,-0.2879793265790644,0.08944812416470939,1.855762086690461,0.42371567646305713,-3.0196138135697446,0,12.5,0,0,0,0,1655,1651,1627,1500,1500,1500
1747555077.2971635,0.43,0.09,0.27,0.3174317577064687,-0.2879793265790644,0.08944812416470939,1.855762086690461,0.42371567646305713,-3.0196138135697446,0,12.5,0,0,0,0,1655,1651,1627,1500,1500,1500
1747555077.3967829,-0.56,0.22,-0.08,0.3239767424014474,-0.27707101875409984,0.10144726277217041,1.883818189158598,0.42308122745938626,-3.070601512776935,0,12.5,0,0,0,0,1655,1651,1627,1500,1500,1500
1747555077.4800255,-0.56,0.22,-0.08,0.3239767424014474,-0.27707101875409984,0.10144726277217041,1.883818189158598,0.42308122745938626,-3.070601512776935,0,12.5,0,0,0,0,1655,1651,1627,1500,1500,1500
1747555077.5801969,-0.65,-0.07,-0.22,0.30543261909900765,-0.29343348049154666,0.09817477042468103,1.9100518111445797,0.4243483694291584,-3.122277761936689,0,12.5,0,0,0,0,1655,1651,1627,1500,1500,1500
1747555077.6802816,-0.01,0.22,0.04,0.2977968036215325,-0.32615840396644036,0.13308135546456762,1.9319672132848142,0.42604116812082804,3.1070888540432753,0,12.5,0,0,0,0,1655,1651,1627,1500,1500,1500
1747555077.7803755,-0.01,0.22,0.04,0.2977968036215325,-0.32615840396644036,0.13308135546456762,1.9319672132848142,0.42604116812082804,3.1070888540432753,0,12.5,0,0,0,0,1655,1651,1627,1500,1500,1500
1747555077.8806148,0.13,0.35000000000000003,0.15,0.2781618495365963,-0.3643374813538163,0.13308135546456762,1.949525367330768,0.4319759324524631,3.04298540818267,0,12.5,0,0,0,0,1655,1651,1627,1500,1500,1500
1747555077.9747624,0.13,0.35000000000000003,0.15,0.2781618495365963,-0.3643374813538163,0.13308135546456762,1.949525367330768,0.4319759324524631,3.04298540818267,0,12.5,0,0,0,0,1655,1651,1627,1500,1500,1500
1747555078.0659187,-0.77,-0.38,-0.01,0.27598018797160334,-0.3937899124812206,0.1341721862470641,1.960418728525966,0.43610199562317986,2.97867304709686,0,9.060928,0,0,0,0,1627,1624,1606,1500,1500,1500
1747555078.1632764,-0.68,-0.06,0.14,0.272707695624114,-0.4188790204786391,0.1461713248545251,1.9706603396539675,0.4432290328991427,2.9054542824129728,0,0,0,0,0,0,1587,1584,1566,1500,1500,1500
1747555078.2466645,-0.68,-0.06,0.14,0.272707695624114,-0.4188790204786391,0.1461713248545251,1.9706603396539675,0.4432290328991427,2.9054542824129728,0,0,0,0,0,0,1547,1544,1526,1500,1500,1500
1747555078.346844,-0.74,0.08,0.12,0.22252947962927702,-0.4385139745635753,0.16689710972195776,1.976606121128217,0.44711402648688353,2.8254485573055734,0,0,0,0,0,0,1507,1504,1500,1500,1500,1500
1747555078.430401,-0.74,0.08,0.12,0.22252947962927702,-0.4385139745635753,0.16689710972195776,1.976606121128217,0.44711402648688353,2.8254485573055734,0,0,0,0,0,0,1500,1500,1500,1500,1500,1500
1747555078.5307503,-0.8300000000000001,0.29,-0.04,0.14508049407202864,-0.433059820651093,0.14726215563702155,1.9662167627195286,0.46379208379329123,2.74300401983756,0,0,0,0,-4.8e-05,0,1500,1500,1500,1500,1500,1500
1747555078.6296146,-0.47000000000000003,0.18,-0.01,0.09817477042468103,-0.42542400517361784,0.12980886311707826,1.9466373007729805,0.48097780289966036,2.6643017998512906,0,0,0,0.010913,-0.523624,0,1500,1500,1500,1500,1460,1460
1747555078.713455,-0.47000000000000003,0.18,-0.01,0.09817477042468103,-0.42542400517361784,0.12980886311707826,1.9466373007729805,0.48097780289966036,2.6643017998512906,0,0,0,0.010913,-0.56,0,1500,1500,1500,1500,1420,1420
1747555078.813074,-0.36,0.02,-0.01,0.061086523819801536,-0.41233403578366035,0.1189005552921137,1.9245661198617752,0.4911148419200075,2.5929139157626686,0,0,0,6e-05,-0.56,0,1500,1500,1500,1500,1391,1391
1747555078.9132411,-0.36,0.02,-0.01,0.061086523819801536,-0.41233403578366035,0.1189005552921137,1.9245661198617752,0.4911148419200075,2.5929139157626686,0,0,0,0,-0.56,0,1500,1500,1500,1500,1391,1391
1747555078.996061,-0.31,0.15,0.06,-0.04036073895236887,-0.3883357585687383,0.13744467859455345,1.8954946297879551,0.49631588945485955,2.5188415288098147,0,0,0,0,-0.56,0,1500,1500,1500,1500,1391,1391
1747555079.0961075,-0.3,0.22,-0.09,-0.5890486225480862,-0.37306412761378793,0.1712604328519436,1.826281470628333,0.49200161979767654,2.8803550268763605,0,0,0,0,-0.56,0,1500,1500,1500,1500,1391,1391
1747555079.1802316,-0.3,0.22,-0.09,-0.5890486225480862,-0.37306412761378793,0.1712604328519436,1.826281470628333,0.49200161979767654,2.8803550268763605,0,0,0,0,-0.56,0,1500,1500,1500,1500,1391,1391
1747555079.279765,-0.21,0.09,-0.34,-1.27736284630335,-0.3839724354387525,0.16253378659197193,1.6405421867353482,0.47639696925564845,2.810897827681354,0,0,0,0,-0.56,0,1500,1500,1500,1500,1391,1391
1747555079.3796046,-0.21,0.09,-0.34,-1.27736284630335,-0.3839724354387525,0.16253378659197193,1.6405421867353482,0.47639696925564845,2.810897827681354,0,0,0,0,-0.56,0,1500,1500,1500,1500,1391,1391
1747555079.4634454,-0.25,0.11,-0.25,-1.6297011890497053,-0.41233403578366035,0.09817477042468103,1.3790963296886292,0.4514630374106047,2.7428116772164906,0,0,0,0,-0.56,0,1500,1500,1500,1500,1391,1391
1747555079.5634658,-0.23,0.02,-0.31,-1.748601744341819,-0.42542400517361784,0.006544984694978736,1.0869428558560181,0.42210818843284137,2.677296836545498,0,0,0,0,-0.56,0,1500,1500,1500,1500,1391,1391
1747555079.6630635,-0.23,0.02,-0.31,-1.748601744341819,-0.42542400517361784,0.006544984694978736,1.0869428558560181,0.42210818843284137,2.677296836545498,0,0,0,0,-0.56,0,1500,1500,1500,1500,1391,1391
1747555079.7473936,-0.33,0.22,-0.34,-1.7911441448591807,-0.42215151282612845,-0.07417649320975901,0.7884064996892098,0.3874719139711721,2.6152978179014794,0,0,0,0,0,0,1500,1500,1500,1500,1431,1431
1747555079.8469539,-0.33,0.22,-0.34,-1.7911441448591807,-0.42215151282612845,-0.07417649320975901,0.7884064996892098,0.3874719139711721,2.6152978179014794,0,-5.607191,0,0,0,0,1460,1460,1460,1500,1471,1471
1747555079.9309876,-0.46,-0.01,-0.29,-1.79441663720667,-0.37960911230876665,-0.17671458676442586,0.5082144009078071,0.3520806485947663,2.5612971771464017,0,-12.5,0,0,0,0,1420,1420,1420,1500,1500,1500
1747555080.0303996,-0.3,0.06,-0.21,-1.1573714602287397,-0.3370667117914049,-0.2792526803190927,0.2610022727668717,0.31393859017057857,2.5036408951682065,0,-12.5,0,0,0,0,1380,1380,1380,1500,1500,1500
1747555080.1302788,-0.3,0.06,-0.21,-1.1573714602287397,-0.3370667117914049,-0.2792526803190927,0.2610022727668717,0.31393859017057857,2.5036408951682065,0,-12.5,0,0,0,0,1340,1340,1354,1500,1500,1500
1747555080.2129505,-0.52,0.37,-0.11,-0.6119560689805118,-0.2901609881440573,-0.3097959422289935,0.12465119868914375,0.27997860107563616,2.451139442068063,0,-12.5,0,0,0,0,1321,1325,1354,1500,1500,1500
1747555080.3142729,-0.52,0.37,-0.11,-0.6119560689805118,-0.2901609881440573,-0.3097959422289935,0.12465119868914375,0.27997860107563616,2.451139442068063,0,-12.5,0,0,0,0,1321,1325,1354,1500,1500,1500
1747555080.4136436,-1.82,0.14,0.1,-0.32288591161895097,-0.2596177262341565,-0.3294308963139297,0.046812264523174725,0.24640587459678076,2.3977826695530857,0,-12.5,0,0,0,0,1321,1325,1354,1500,1500,1500
1747555080.514294,-0.87,0.46,-0.09,-0.2007128639793479,-0.19198621771937624,-0.2999784651865254,-0.004183022782847566,0.21784626981025945,2.345471727180987,0,-12.5,0,0,0,0,1321,1325,1354,1500,1500,1500
1747555080.6135101,-0.87,0.46,-0.09,-0.2007128639793479,-0.19198621771937624,-0.2999784651865254,-0.004183022782847566,0.21784626981025945,2.345471727180987,0,-12.5,0,0,0,0,1321,1325,1354,1500,1500,1500
1747555080.6978981,-0.5700000000000001,0.47000000000000003,-0.02,-0.0272707695624114,-0.11453723216212788,-0.15489797111449674,-0.019297341481223446,0.20829593070323696,2.311369081113348,0,-12.5,0,0,0,0,1321,1325,1354,1500,1500,1500
1747555080.7970252,-0.5700000000000001,0.47000000000000003,-0.02,-0.0272707695624114,-0.11453723216212788,-0.15489797111449674,-0.019297341481223446,0.20829593070323696,2.311369081113348,0,-12.5,0,0,0,0,1321,1325,1354,1500,1500,1500
1747555080.8972716,-0.25,0.34,0.07,0.006544984694978736,-0.04254240051736178,-0.00545415391248228,-0.014560121710079013,0.2073266929423961,2.300292418175844,0,-12.5,0,0,0,0,1321,1325,1354,1500,1500,1500
1747555080.9802978,-0.25,0.09,0.08,0.003272492347489368,0.04363323129985824,0.1538071403320003,-0.008040792934228932,0.21265449280269083,2.3129832729433977,0,-12.5,0,0,0,0,1321,1325,1354,1500,1500,1500
1747555081.0797753,-0.25,0.09,0.08,0.003272492347489368,0.04363323129985824,0.1538071403320003,-0.008040792934228932,0.21265449280269083,2.3129832729433977,0,-12.5,0,0,0,0,1321,1325,1354,1500,1500,1500
1747555081.1801484,-0.05,0.12,0.03,0.00545415391248228,0.09708393964218458,0.2454369260617026,0.0010279165250946648,0.2282982824768544,2.345595436932859,0,-12.5,0,0,0,0,1321,1325,1354,1500,1500,1500
1747555081.2800605,-0.01,0.04,0.09,-0.03490658503988659,0.11671889372712078,0.32179508083645453,0.009301607498946176,0.24597951906729376,2.387878848549764,0,-12.5,0,0,0,0,1321,1325,1354,1500,1500,1500
1747555081.3802855,-0.01,0.04,0.09,-0.03490658503988659,0.11671889372712078,0.32179508083645453,0.009301607498946176,0.24597951906729376,2.387878848549764,-3,-12.5,0,0,0,0,1301,1347,1354,1460,1460,1460
1747555081.4641976,0.0,-0.02,0.05,-0.050178215994836975,0.10253809355466686,0.40251655874119224,0.017460911639597124,0.26172885553922554,2.4469881108043228,-3,-0.537779,0,0,0,0,1341,1387,1394,1420,1420,1420
1747555081.56379,0.0,-0.02,0.05,-0.050178215994836975,0.10253809355466686,0.40251655874119224,0.017460911639597124,0.26172885553922554,2.4469881108043228,-3,0,0,0,0,0,1381,1427,1434,1380,1402,1402
1747555081.664125,0.32,0.17,0.07,-0.06326818538479445,0.10253809355466686,0.3643374813538163,0.025882441713976363,0.2750466587056612,2.5130418432787307,-3,0,0,0,0,0,1421,1467,1474,1363,1402,1402
1747555081.7632751,0.66,-0.11,0.05,-0.11344640137963143,0.10799224746714914,0.31852258848896514,0.027506948398700302,0.2902403572181668,2.5653118054972786,-3,0,0,0,0,0,1429,1507,1500,1363,1402,1402
1747555081.8636823,0.66,-0.11,0.05,-0.11344640137963143,0.10799224746714914,0.31852258848896514,0.027506948398700302,0.2902403572181668,2.5653118054972786,-3,0,0,0,0,0,1429,1547,1500,1363,1402,1402
1747555081.9467213,0.53,-0.33,0.11,-0.11235557059713497,0.08835729338221293,0.46469391334349025,0.02240384958829399,0.2975446897531696,2.626537057079285,-3,0,0,0,0,0,1429,1564,1500,1363,1402,1402
1747555082.0468092,0.53,-0.33,0.11,-0.11235557059713497,0.08835729338221293,0.46469391334349025,0.02240384958829399,0.2975446897531696,2.626537057079285,-3,0,0,0,0,0,1429,1564,1500,1363,1402,1402
1747555082.146381,0.29,-0.05,0.12,-0.006544984694978736,0.12762720155208535,0.5705044992456465,0.03521880161821145,0.30261665388112113,2.707703786727928,-3,0,0,0,0,0,1429,1564,1500,1363,1402,1402
1747555082.2301192,0.2,0.01,0.01,0.05890486225480862,0.18216874067690814,0.6294093615004551,0.06823862280772279,0.31862735826711397,2.8059272866408604,-3,0,0,0,0,0,1429,1564,1500,1363,1402,1402
1747555082.3306596,0.2,0.01,0.01,0.05890486225480862,0.18216874067690814,0.6294093615004551,0.06823862280772279,0.31862735826711397,2.8059272866408604,-3,0,0,0,0,0,1429,1564,1500,1363,1402,1402
1747555082.4291298,0.16,-0.02,-0.01,0.10581058590215622,0.2552544031041707,0.6763150851478027,0.11277625990946528,0.3405774133152621,2.9093941769239144,-3,0,0,0,0,0,1429,1564,1500,1363,1402,1402
1747555082.5251126,0.1,-0.04,0.0,0.19744037163185854,0.3097959422289935,0.7079491778402,0.17664372322991745,0.3679343140301743,3.029346740841859,-3,0,0,0,0,0,1429,1564,1500,1363,1402,1402
1747555082.6330245,0.1,-0.04,0.0,0.19744037163185854,0.3097959422289935,0.7079491778402,0.17664372322991745,0.3679343140301743,3.029346740841859,-3,0,0,0,0,0,1429,1564,1500,1363,1402,1402
1747555082.7323315,0.08,0.0,0.0,0.2617993877991494,0.3425208657038872,0.6992225315802283,0.2554682941529209,0.3926599788241019,-3.134678128486664,-3,0,0,0,0,0,1429,1564,1500,1363,1402,1402
1747555082.8302958,0.08,0.0,0.0,0.2617993877991494,0.3425208657038872,0.6992225315802283,0.2554682941529209,0.3926599788241019,-3.134678128486664,-3,0,0,0,0,0,1429,1564,1500,1363,1402,1402
1747555082.914987,-0.03,-0.11,0.07,0.28034351110158917,0.3817907738737596,0.6839509006252779,0.3485878496955345,0.4148453996502438,-3.0049750448666384,-3,0,0,0,0,0,1429,1564,1500,1363,1402,1402
1747555083.0145488,-0.09,-0.03,0.03,0.26398104936414235,0.3839724354387525,0.6621342849753488,0.44387921308357214,0.42928898917021924,-2.87450495079452,-3,0,0,0,0,0,1429,1564,1500,1363,1402,1402
1747555083.114117,-0.09,-0.03,0.03,0.26398104936414235,0.3839724354387525,0.6621342849753488,0.44387921308357214,0.42928898917021924,-2.87450495079452,-3,0,0,0,0,0,1429,1564,1500,1363,1402,1402
1747555083.197829,0.02,-0.04,-0.05,0.2596177262341565,0.37742745074377376,0.6479534848028948,0.5371916947632079,0.43329048277386084,-2.7453318164941516,-3,0,0,0,0,0,1429,1564,1500,1363,1402,1402
1747555083.297382,0.02,-0.04,-0.05,0.2596177262341565,0.37742745074377376,0.6479534848028948,0.5371916947632079,0.43329048277386084,-2.7453318164941516,-3,0,0,0,0,0,1429,1564,1500,1363,1402,1402
1747555083.39707,-0.04,0.0,0.02,0.27379852640661045,0.37306412761378793,0.631591023065448,0.6240776587455504,0.4283591978383536,-2.6279301322255395,-3,0,0,0,0,0,1429,1564,1500,1363,1402,1402
1747555083.480387,0.0,-0.08,0.06,0.27707101875409984,0.36542831213631277,0.6185010536754906,0.7149041847036944,0.4141669791692561,-2.5067934457744347,-3,0,0,0,0,0,1429,1564,1500,1363,1402,1402
1747555083.580049,0.0,-0.08,0.06,0.27707101875409984,0.36542831213631277,0.6185010536754906,0.7149041847036944,0.4141669791692561,-2.5067934457744347,-3,0,0,0,0,0,1429,1564,1500,1363,1402,1402
1747555083.6806722,-0.24,-0.07,0.04,0.284706834231575,0.3523383427463553,0.5999569303730508,0.798041521128058,0.3921090631320044,-2.398492491978099,-3,0,0,0,0,0,1429,1564,1500,1363,1402,1402
1747555083.7801998,-0.24,-0.07,0.04,0.284706834231575,0.3523383427463553,0.5999569303730508,0.798041521128058,0.3921090631320044,-2.398492491978099,-3,0,0,0,0,0,1429,1564,1500,1363,1402,1402
1747555083.880607,-0.18,-0.1,0.11,0.2694352032766246,0.33488505022641196,0.5748678223756323,-0.7329943135871988,-1.193424498352128,2.8875977815169196,-3,0,0,0,0,0,1429,1564,1500,1363,1402,1402
1747555083.9641078,-0.17,-0.07,0.0,0.27707101875409984,0.3196134192714616,0.5519603759432067,0.953890121711192,0.32400690197058435,-2.1928937812287512,-3,0,0,0,0,0,1429,1564,1500,1363,1402,1402
1747555084.0632014,-0.17,-0.07,0.0,0.27707101875409984,0.3196134192714616,0.5519603759432067,0.953890121711192,0.32400690197058435,-2.1928937812287512,-3,0,0,0,0,0,1429,1564,1500,1363,1402,1402
1747555084.163349,-0.14,0.0,0.04,0.2694352032766246,0.30652344988150415,0.5105088062083414,1.0182454056217518,0.28633472459187986,-2.1086982230096,-3,0,0,0,0,0,1429,1564,1500,1363,1402,1402
1747555084.263386,-0.2,-0.03,0.03,0.23889194136672387,0.2923426497090502,0.48651052899341934,1.0781606345334507,0.2437049684728701,-2.0272669544292277,-3,0,0,0,0,0,1429,1564,1500,1363,1402,1402
1747555084.3640645,-0.2,-0.03,0.03,0.23889194136672387,0.2923426497090502,0.48651052899341934,1.0781606345334507,0.2437049684728701,-2.0272669544292277,-3,0,0,0,0,0,1429,1564,1500,1363,1402,1402
1747555084.4473538,0.0,0.02,-0.09,0.21380283336930536,0.28034351110158917,0.4690572364734761,1.1290653655355727,0.1988059033602996,-1.9527157118862084,-3,0,0,0,0,0,1429,1564,1500,1363,1402,1402
1747555084.5481398,0.0,0.02,-0.09,0.21380283336930536,0.28034351110158917,0.4690572364734761,1.1290653655355727,0.1988059033602996,-1.9527157118862084,-3,0,0,0,0,0,1429,1564,1500,1363,1402,1402
1747555084.6474483,-0.25,0.0,0.07,0.1832595714594046,0.28034351110158917,0.4625122517784973,1.1686318785867886,0.15525383328570197,-1.8872606847982607,-3,0,0,0,0,0,1429,1564,1500,1363,1402,1402
1747555084.7302277,-0.28,-0.14,0.06,0.15489797111449674,0.2792526803190927,0.4559672670835186,1.2029201332821562,0.10746666669746965,-1.8201503375789363,-3,0,0,0,0,0,1429,1564,1500,1363,1402,1402
1747555084.8307004,-0.28,-0.14,0.06,0.15489797111449674,0.2792526803190927,0.4559672670835186,1.2029201332821562,0.10746666669746965,-1.8201503375789363,-3,0,0,0,0,0,1429,1564,1500,1363,1402,1402
1747555084.9302564,-0.34,-0.11,0.01,0.12762720155208535,0.26725354171163174,0.4505131131710363,1.2283558521998639,0.06169238199024072,-1.7598218292771226,-3,0,0,0,0,0,1429,1564,1500,1363,1402,1402
1747555085.0298696,-0.34,-0.11,0.01,0.12762720155208535,0.26725354171163174,0.4505131131710363,1.2283558521998639,0.06169238199024072,-1.7598218292771226,-3,0,0,0,0,0,1429,1564,1500,1363,1402,1402
1747555085.1301215,-0.17,-0.03,0.01,0.10253809355466686,0.25743606466916363,0.4243331743911214,1.2480964829702563,0.011485173476907076,-1.698805911977292,-3,0,0,0,0,0,1429,1564,1500,1363,1402,1402
1747555085.213233,-0.01,0.05,-0.08,0.10581058590215622,0.2378011105842274,0.36542831213631277,1.2637023363323694,-0.03173377237111479,-1.6432195503714198,-3,0,0,0,0,0,1429,1564,1500,1363,1402,1402
1747555085.313916,-0.01,0.05,-0.08,0.10581058590215622,0.2378011105842274,0.36542831213631277,1.2637023363323694,-0.03173377237111479,-1.6432195503714198,-3,0,0,0,0,0,1429,1564,1500,1363,1402,1402
1747555085.413822,-0.04,0.02,0.02,0.10362892433716332,0.22252947962927702,0.3010692959690218,1.2774187346575498,-0.06838795637539213,-1.593833316976859,-3,0,0,0,0,0,1429,1564,1500,1363,1402,1402
1747555085.5125892,-0.09,0.02,0.03,0.0916297857297023,0.20943951023931956,0.24980024919168842,1.289211514491046,-0.09719379291876806,-1.5494886315534024,-3,0,0,0,0,0,1429,1564,1500,1363,1402,1402
1747555085.6130166,-0.09,0.02,0.03,0.0916297857297023,0.20943951023931956,0.24980024919168842,1.289211514491046,-0.09719379291876806,-1.5494886315534024,-3,0,0,0,0,0,1429,1564,1500,1363,1402,1402
1747555085.6973457,-0.12,-0.04,0.05,0.09926560120717749,0.18980455615438332,0.20289452554434081,1.2985918256364153,-0.1185759049937541,-1.5120900681708014,-3,0,0,0,0,0,1429,1564,1500,1363,1402,1402
1747555085.796906,-0.12,-0.04,0.05,0.09926560120717749,0.18980455615438332,0.20289452554434081,1.2985918256364153,-0.1185759049937541,-1.5120900681708014,-3,0,0,0,0,0,1429,1564,1500,1363,1402,1402
1747555085.8970654,-0.17,0.0,0.0,0.10799224746714914,0.17889624832941878,0.16580627893946132,1.3101034607784565,-0.13584980251794865,-1.4765197217954895,-3,0,0,0,0,0,1429,1564,1500,1363,1402,1402
1747555085.9804122,-0.1,0.0,-0.06,0.10471975511965978,0.14835298641951802,0.1341721862470641,1.3215571234754362,-0.14856375463040392,-1.4473042579461222,-3,0,0,0,0,0,1429,1564,1500,1363,1402,1402
1747555086.0795705,-0.1,0.0,-0.06,0.10471975511965978,0.14835298641951802,0.1341721862470641,1.3215571234754362,-0.14856375463040392,-1.4473042579461222,-3,0,0,0,0,0,1429,1564,1500,1363,1402,1402
1747555086.1807368,-0.19,-0.02,-0.1,0.10035643198967395,0.1308996938995747,0.09599310885968812,1.3344825691837308,-0.15841662931626097,-1.4218668595071995,-3,0,0,0,0,0,1429,1564,1500,1363,1402,1402
1747555086.280788,-0.19,-0.02,-0.1,0.10035643198967395,0.1308996938995747,0.09599310885968812,1.3344825691837308,-0.15841662931626097,-1.4218668595071995,-3,0,0,0,0,0,1429,1564,1500,1363,1402,1402
1747555086.380561,-0.11,0.0,-0.01,0.09381144729469522,0.09599310885968812,0.06981317007977318,1.3469535712228928,-0.1647405265570142,-1.4014959239204732,-3,0,0,0,0,0,1429,1564,1500,1363,1402,1402
1747555086.4634438,-0.31,0.08,-0.07,0.07963064712224129,0.06217735460229799,0.04908738521234052,1.3589112797205654,-0.1686389361968827,-1.386699868096457,0,0,0,0,0,0,1469,1524,1500,1403,1442,1442
1747555086.5640721,-0.31,0.08,-0.07,0.07963064712224129,0.06217735460229799,0.04908738521234052,1.3589112797205654,-0.1686389361968827,-1.386699868096457,3,0,0,0,0,0,1509,1484,1500,1443,1482,1482
1747555086.663431,0.24,0.13,-0.12,0.15271630954950383,0.04145156973486533,0.04581489286485115,1.3702074161396482,-0.17000091085461858,-1.3778841175204801,3,0,0,0,0,0,1549,1444,1500,1483,1522,1522
1747555086.7602663,-0.14,0.33,0.12,0.3294308963139297,0.022907446432425576,0.039269908169872414,1.4091579770480014,-0.17657494093741405,-1.37211662465518,3,0,0,0,0,0,1564,1429,1500,1523,1562,1562
1747555086.8628275,-0.14,0.33,0.12,0.3294308963139297,0.022907446432425576,0.039269908169872414,1.4091579770480014,-0.17657494093741405,-1.37211662465518,3,0,0,0,0,0,1564,1429,1500,1563,1587,1587
1747555086.9469826,-0.35000000000000003,0.01,-0.03,0.37306412761378793,-0.014180800172453928,0.07635815477475191,1.4595890484166891,-0.18158279257395557,-1.3702427771375407,3,0,0,0,0,0,1564,1429,1500,1603,1587,1587
1747555087.047495,-0.35000000000000003,0.01,-0.03,0.37306412761378793,-0.014180800172453928,0.07635815477475191,1.4595890484166891,-0.18158279257395557,-1.3702427771375407,3,0,0,0,0,0,1564,1429,1500,1620,1587,1587
1747555087.1467943,-0.8200000000000001,-0.42,0.07,0.5628686837681712,-0.01090830782496456,0.16580627893946132,1.5271958261875034,-0.1983193950976031,-1.3705017634844316,3,0,0,0,0,0,1564,1429,1500,1620,1587,1587
1747555087.2300777,-0.23,0.22,-0.01,0.8323038870447959,0.00545415391248228,0.1810779098944117,1.627492741400161,-0.22557477069412613,-1.3708849192334998,3,0,0,0,0,0,1564,1429,1500,1620,1587,1587
1747555087.3293366,-0.23,0.22,-0.01,0.8323038870447959,0.00545415391248228,0.1810779098944117,1.627492741400161,-0.22557477069412613,-1.3708849192334998,3,0,0,0,0,0,1564,1429,1500,1620,1587,1587
1747555087.4303272,-0.46,0.16,0.03,0.6174102228929941,0.06763150851478027,0.07526732399225546,1.7368615988759524,-0.24437131840055906,-1.3669263691160642,3,0,0,0,0,0,1564,1429,1500,1620,1587,1587
1747555087.5299609,-0.46,0.16,0.03,0.6174102228929941,0.06763150851478027,0.07526732399225546,1.7368615988759524,-0.24437131840055906,-1.3669263691160642,3,0,0,0,0,0,1564,1429,1500,1620,1587,1587
1747555087.6299055,-0.26,0.11,0.04,0.4276056667386107,0.10362892433716332,0.017453292519943295,1.8141390361758816,-0.2506875573270193,-1.3537846541267295,3,0,0,0,0,0,1564,1429,1500,1620,1587,1587
1747555087.7145994,-0.11,0.22,-0.1,0.23889194136672387,0.12762720155208535,-0.028361600344907856,1.858682658227128,-0.2512174021606859,-1.3346777282550992,3,0,0,0,0,0,1564,1429,1500,1620,1587,1587
1747555087.8129618,-0.11,0.22,-0.1,0.23889194136672387,0.12762720155208535,-0.028361600344907856,1.858682658227128,-0.2512174021606859,-1.3346777282550992,3,0,0,0,0,0,1564,1429,1500,1620,1587,1587
1747555087.914047,-0.24,0.02,0.03,0.12326387842209953,0.15271630954950383,-0.05672320068981571,1.879212520385377,-0.24827078789310328,-1.3108497665027576,3,0,0,0,0,0,1564,1429,1500,1620,1587,1587
1747555088.0130043,-0.34,0.03,0.01,0.07853981633974483,0.17562375598192942,-0.08072147790473774,1.8859356222728205,-0.24395923043397136,-1.2836294478547337,3,0,0,0,0,0,1564,1429,1500,1620,1587,1587
1747555088.1178827,-0.34,0.03,0.01,0.07853981633974483,0.17562375598192942,-0.08072147790473774,1.8859356222728205,-0.24395923043397136,-1.2836294478547337,3,0,0,0,0,0,1564,1429,1500,1620,1587,1587
1747555088.2129855,0.04,0.29,0.0,0.05345070834232634,0.21162117180431245,-0.09817477042468103,1.8872880931165612,-0.23836215777040384,-1.2496198466616448,3,0,0,0,0,0,1564,1429,1500,1620,1587,1587
1747555088.3131251,0.04,0.29,0.0,0.05345070834232634,0.21162117180431245,-0.09817477042468103,1.8872880931165612,-0.23836215777040384,-1.2496198466616448,3,0,0,0,0,0,1564,1429,1500,1620,1587,1587
1747555088.4140713,-0.32,0.04,0.06,0.04799655442984406,0.24652775684419906,-0.11126473981463851,1.8857117071134406,-0.2324571346919272,-1.212315397897258,3,0,0,0,0,0,1564,1429,1500,1620,1587,1587
1747555088.5132124,0.06,0.18,-0.04,0.06435901616729091,0.2748893571891069,-0.09817477042468103,1.8844264170316065,-0.22751837168324854,-1.1674391950867777,3,0,0,0,0,0,1564,1429,1500,1620,1587,1587
1747555088.613968,0.06,0.18,-0.04,0.06435901616729091,0.2748893571891069,-0.09817477042468103,1.8844264170316065,-0.22751837168324854,-1.1674391950867777,3,0,0,0,0,0,1564,1429,1500,1620,1587,1587
1747555088.6967742,-0.41000000000000003,0.01,0.06,0.09272061651219876,0.3043417883165112,-0.10362892433716332,1.8854273872072183,-0.22500763538712676,-1.1212594231817266,3,0,0,0,0,0,1564,1429,1500,1620,1587,1587
1747555088.794862,-0.26,-0.22,-0.03,0.14180800172453928,0.32288591161895097,-0.09381144729469522,1.8916746934407742,-0.2241900676370096,-1.0684662369822466,3,0,0,0,0,0,1564,1429,1500,1620,1587,1587
1747555088.8964863,-0.26,-0.22,-0.03,0.14180800172453928,0.32288591161895097,-0.09381144729469522,1.8916746934407742,-0.2241900676370096,-1.0684662369822466,3,0,0,0,0,0,1564,1429,1500,1620,1587,1587
1747555088.980047,0.07,0.04,0.05,0.19962203319685143,0.32834006553143325,-0.08726646259971647,1.906629718772732,-0.22619170473632888,-1.0142614508926817,3,0,0,0,0,0,1564,1429,1500,1620,1587,1587
1747555089.0801268,0.07,0.04,0.05,0.19962203319685143,0.32834006553143325,-0.08726646259971647,1.906629718772732,-0.22619170473632888,-1.0142614508926817,3,0,0,0,0,0,1564,1429,1500,1620,1587,1587
1747555089.180441,-0.25,-0.19,0.04,0.21380283336930536,0.33161255787892263,-0.08508480103472356,1.9259098200394238,-0.22969597620297771,-0.9593000406218536,3,0,0,0,0,0,1564,1429,1500,1620,1587,1587
1747555089.2805,0.07,0.04,0.04,0.2454369260617026,0.31852258848896514,-0.07526732399225546,1.9470316021515455,-0.23371793021552192,-0.9095325009263123,3,0,0,0,0,0,1564,1429,1500,1620,1587,1587
1747555089.380539,0.07,0.04,0.04,0.2454369260617026,0.31852258848896514,-0.07526732399225546,1.9470316021515455,-0.23371793021552192,-0.9095325009263123,3,0,0,0,0,0,1564,1429,1500,1620,1587,1587
1747555089.4639063,-0.28,-0.15,0.11,0.2825251726665821,0.30543261909900765,-0.07090400086226964,1.9755054367974587,-0.2397759340020589,-0.8594354106637659,3,0,0,0,0,0,1564,1429,1500,1620,1587,1587
1747555089.5640197,-0.28,-0.15,0.11,0.2825251726665821,0.30543261909900765,-0.07090400086226964,1.9755054367974587,-0.2397759340020589,-0.8594354106637659,3,0,0,0,0,0,1564,1429,1500,1620,1587,1587
1747555089.6628888,-0.34,0.01,0.0,0.29888763440402893,0.2825251726665821,-0.05781403147231216,2.0066419689352846,-0.24719823271169802,-0.8152718711527744,3,0,0,0,0,0,1564,1429,1500,1620,1587,1587
1747555089.7633662,0.01,0.14,0.06,0.30652344988150415,0.2617993877991494,-0.050178215994836975,2.0424773633364692,-0.25586895028562817,-0.7722258777844948,3,0,0,0,0,0,1564,1429,1500,1620,1587,1587
1747555089.8636658,0.01,0.14,0.06,0.30652344988150415,0.2617993877991494,-0.050178215994836975,2.0424773633364692,-0.25586895028562817,-0.7722258777844948,3,0,0,0,0,0,1564,1429,1500,1620,1587,1587
1747555089.9464011,-0.5,0.0,0.06,0.32070425005395803,0.24980024919168842,-0.04581489286485115,2.080547628048806,-0.26714701540698593,-0.732713547805271,3,0,0,0,0,0,1564,1429,1500,1620,1587,1587
1747555090.047096,-0.25,-0.07,0.01,0.32288591161895097,0.2301652951067522,-0.0272707695624114,2.1178689053631503,-0.27884443169581274,-0.6987273176600298,3,0,0,0,0,0,1564,1429,1500,1620,1587,1587
1747555090.146448,-0.25,-0.07,0.01,0.32288591161895097,0.2301652951067522,-0.0272707695624114,2.1178689053631503,-0.27884443169581274,-0.6987273176600298,3,0,0,0,0,0,1564,1429,1500,1620,1587,1587
1747555090.2294054,-0.05,-0.06,0.11,0.33597588100890846,0.21598449493429828,-0.004363323129985824,2.159310902885387,-0.2938904505311437,-0.6661497926487303,3,0,0,0,0,0,1564,1429,1500,1620,1587,1587
1747555090.3292274,-0.05,-0.06,0.11,0.33597588100890846,0.21598449493429828,-0.004363323129985824,2.159310902885387,-0.2938904505311437,-0.6661497926487303,3,0,0,0,0,0,1564,1429,1500,1620,1587,1587
1747555090.43005,0.05,0.12,-0.09,0.32834006553143325,0.19744037163185854,0.015271630954950384,2.2033179668551566,-0.31067127295313507,-0.6387183343078121,3,0,0,0,0,0,1564,1429,1500,1620,1587,1587
1747555090.5298605,-0.02,-0.04,0.12,0.2977968036215325,0.18544123302439752,0.019634954084936207,2.2410915160250098,-0.3283221671191136,-0.6173018085348817,3,0,0,0,0,0,1564,1429,1500,1620,1587,1587
1747555090.6301951,-0.02,-0.04,0.12,0.2977968036215325,0.18544123302439752,0.019634954084936207,2.2410915160250098,-0.3283221671191136,-0.6173018085348817,0,0,0,0,0,0,1524,1469,1500,1580,1547,1547
1747555090.7130308,-0.41000000000000003,-0.18,0.01,0.28907015736156083,0.1832595714594046,0.03490658503988659,2.2795651053295543,-0.3474322091430241,-0.5964971600942867,0,0,0,0,0,0,1500,1500,1500,1540,1507,1507
1747555090.8129294,-0.41000000000000003,-0.18,0.01,0.28907015736156083,0.1832595714594046,0.03490658503988659,2.2795651053295543,-0.3474322091430241,-0.5964971600942867,0,0,0,0,0,0,1500,1500,1500,1500,1500,1500
1747555090.9148526,-0.5700000000000001,-0.24,-0.04,0.25089107997418486,0.16580627893946132,0.02399827721492203,2.314389804712998,-0.3675145526890749,-0.5781561230367473,0,0,0,0,0,0,1500,1500,1500,1500,1500,1500
