time,ay,ax,az,gy,gx,gz,roll,pitch,yaw,cmd_fx,cmd_fy,cmd_fz,cmd_tx,cmd_ty,cmd_tz,pwm_1,pwm_2,pwm_3,pwm_4,pwm_5,pwm_6
1747554724.5905042,0.0,0.0,0.0,0.0,0.0,0.0,0.0,0.0,0.0,0,0,0,0,0,0,1500,1500,1500,1500,1500,1500
1747554724.6918643,-0.02,-0.26,0.12,-0.002181661564992912,-0.001090830782496456,-0.004363323129985824,2.063938003892613,-0.14248960325903173,-0.24023407808557962,0,0,0,0,0,0,1500,1500,1500,1500,1500,1500
1747554724.776616,-0.02,-0.26,0.12,-0.002181661564992912,-0.001090830782496456,-0.004363323129985824,2.063938003892613,-0.14248960325903173,-0.24023407808557962,0,0,0,0,0,0,1500,1500,1500,1500,1500,1500
1747554724.876743,-0.05,-0.29,0.06,-0.003272492347489368,0.001090830782496456,-0.003272492347489368,2.0640916078784053,-0.14248952046355665,-0.240250709897385,0,0,0,0,0,0,1500,1500,1500,1500,1500,1500
1747554724.9743137,-0.02,-0.28,0.07,-0.00545415391248228,-0.001090830782496456,0.001090830782496456,2.0641409890879894,-0.14247239687506802,-0.2402506294801595,0,0,0,0,0,0,1500,1500,1500,1500,1500,1500
1747554725.059663,-0.02,-0.28,0.07,-0.00545415391248228,-0.001090830782496456,0.001090830782496456,2.0641409890879894,-0.14247239687506802,-0.2402506294801595,0,0,0,0,0,0,1500,1500,1500,1500,1500,1500
1747554725.1601849,0.0,-0.04,0.02,-0.003272492347489368,-0.001090830782496456,-0.001090830782496456,2.0641409890879894,-0.14247239687506802,-0.2402506294801595,0,0,0,0,0,0,1500,1500,1500,1500,1500,1500
1747554725.2427278,0.0,-0.04,0.02,-0.003272492347489368,-0.001090830782496456,-0.001090830782496456,2.0641409890879894,-0.14247239687506802,-0.2402506294801595,0,0,0,0,0,0,1500,1500,1500,1500,1500,1500
1747554725.3436134,-0.02,-0.02,-0.03,-0.001090830782496456,0.003272492347489368,-0.002181661564992912,2.0641409890879894,-0.14247239687506802,-0.2402506294801595,0,0,0,0,0,0,1500,1500,1500,1500,1500,1500
1747554725.4439237,0.01,-0.03,0.02,-0.00545415391248228,0.001090830782496456,-0.003272492347489368,2.0641409890879894,-0.14247239687506802,-0.2402506294801595,0,0,0,0,0,0,1500,1500,1500,1500,1500,1500
1747554725.5276713,0.01,-0.03,0.02,-0.00545415391248228,0.001090830782496456,-0.003272492347489368,2.0641409890879894,-0.14247239687506802,-0.2402506294801595,0,0,0,0,0,0,1500,1500,1500,1500,1500,1500
1747554725.6273324,-0.02,-0.04,-0.04,-0.002181661564992912,-0.007635815477475192,-0.001090830782496456,2.0641409890879894,-0.14247239687506802,-0.2402506294801595,0,0,0,0,0,0,1500,1500,1500,1500,1500,1500
1747554725.7266731,-0.02,-0.04,-0.04,-0.002181661564992912,-0.007635815477475192,-0.001090830782496456,2.0641409890879894,-0.14247239687506802,-0.2402506294801595,0,0,0,0,0,0,1500,1500,1500,1500,1500,1500
1747554725.8281233,0.02,-0.02,0.0,0.001090830782496456,0.002181661564992912,0.002181661564992912,2.0641409890879894,-0.14247239687506802,-0.2402506294801595,0,0,0,0,0,0,1500,1500,1500,1500,1500,1500
1747554725.925562,-0.01,-0.03,0.02,0.002181661564992912,0.003272492347489368,0.003272492347489368,2.0641409890879894,-0.14247239687506802,-0.2402506294801595,0,0,0,0,0,0,1500,1500,1500,1500,1500,1500
1747554726.010178,-0.01,-0.03,0.02,0.002181661564992912,0.003272492347489368,0.003272492347489368,2.0641409890879894,-0.14247239687506802,-0.2402506294801595,0,0,0,0,0,0,1500,1500,1500,1500,1500,1500
1747554726.1102808,-0.01,-0.03,-0.02,0.0,-0.003272492347489368,-0.001090830782496456,2.0641409890879894,-0.14247239687506802,-0.2402506294801595,0,0,0,0,0,0,1500,1500,1500,1500,1500,1500
1747554726.2112074,-0.01,-0.03,-0.02,0.0,-0.003272492347489368,-0.001090830782496456,2.0641409890879894,-0.14247239687506802,-0.2402506294801595,0,0,0,0,0,0,1500,1500,1500,1500,1500,1500
1747554726.3107986,0.03,-0.01,0.03,0.0,0.003272492347489368,0.0,2.0641409890879894,-0.14247239687506802,-0.2402506294801595,0,0,0,0,0,0,1500,1500,1500,1500,1500,1500
1747554726.4070966,-0.03,-0.03,-0.03,-0.001090830782496456,0.001090830782496456,0.002181661564992912,2.0641409890879894,-0.14247239687506802,-0.2402506294801595,0,0,0,0,0,0,1500,1500,1500,1500,1500,1500
1747554726.4936125,-0.03,-0.03,-0.03,-0.001090830782496456,0.001090830782496456,0.002181661564992912,2.0641409890879894,-0.14247239687506802,-0.2402506294801595,0,0,0,0,0,0,1500,1500,1500,1500,1500,1500
1747554726.5941198,0.03,-0.02,0.03,-0.001090830782496456,0.003272492347489368,-0.00545415391248228,2.0641409890879894,-0.14247239687506802,-0.2402506294801595,0,0,0,0,0,0,1500,1500,1500,1500,1500,1500
1747554726.6937165,0.03,-0.02,0.03,-0.001090830782496456,0.003272492347489368,-0.00545415391248228,2.0641409890879894,-0.14247239687506802,-0.2402506294801595,0,0,0,0,0,0,1500,1500,1500,1500,1500,1500
1747554726.7777371,0.0,-0.03,0.0,0.0,0.002181661564992912,-0.006544984694978736,2.0641409890879894,-0.14247239687506802,-0.2402506294801595,0,0,0,0,0,0,1500,1500,1500,1500,1500,1500
1747554726.8776088,0.0,-0.03,0.0,0.0,0.002181661564992912,-0.006544984694978736,2.0641409890879894,-0.14247239687506802,-0.2402506294801595,0,0,0,0,0,0,1500,1500,1500,1500,1500,1500
1747554726.9773712,0.0,-0.04,-0.01,-0.001090830782496456,-0.004363323129985824,-0.007635815477475192,2.0641409890879894,-0.14247239687506802,-0.2402506294801595,0,0,0,0,0,0,1500,1500,1500,1500,1500,1500
1747554727.0770535,0.03,0.0,0.04,-0.001090830782496456,-0.001090830782496456,-0.002181661564992912,2.0641409890879894,-0.14247239687506802,-0.2402506294801595,0,0,0,0,0,0,1500,1500,1500,1500,1500,1500
1747554727.1765885,0.03,0.0,0.04,-0.001090830782496456,-0.001090830782496456,-0.002181661564992912,2.0641409890879894,-0.14247239687506802,-0.2402506294801595,0,0,0,0,0,0,1500,1500,1500,1500,1500,1500
1747554727.2602232,0.0,-0.04,0.01,-0.001090830782496456,0.0,0.002181661564992912,2.0641409890879894,-0.14247239687506802,-0.2402506294801595,0,0,0,0,0,0,1500,1500,1500,1500,1500,1500
1747554727.3535802,0.03,0.0,0.02,0.0,0.001090830782496456,-0.001090830782496456,2.0641409890879894,-0.14247239687506802,-0.2402506294801595,0,0,0,0,0,0,1500,1500,1500,1500,1500,1500
1747554727.4614437,0.03,0.0,0.02,0.0,0.001090830782496456,-0.001090830782496456,2.0641409890879894,-0.14247239687506802,-0.2402506294801595,0,0,0,0,0,0,1500,1500,1500,1500,1500,1500
1747554727.5605748,0.0,0.0,0.03,-0.001090830782496456,0.001090830782496456,0.0,2.0641409890879894,-0.14247239687506802,-0.2402506294801595,0,0,0,0,0,0,1500,1500,1500,1500,1500,1500
1747554727.661363,0.0,0.0,0.03,-0.001090830782496456,0.001090830782496456,0.0,2.0641409890879894,-0.14247239687506802,-0.2402506294801595,0,0,0,0,0,0,1500,1500,1500,1500,1500,1500
1747554727.7437909,0.01,-0.03,0.0,0.003272492347489368,-0.001090830782496456,0.002181661564992912,2.0641409890879894,-0.14247239687506802,-0.2402506294801595,0,0,0,0,0,0,1500,1500,1500,1500,1500,1500
1747554727.8436704,0.02,-0.01,0.04,0.002181661564992912,0.002181661564992912,0.001090830782496456,2.0641409890879894,-0.14247239687506802,-0.2402506294801595,0,0,0,0,0,0,1500,1500,1500,1500,1500,1500
1747554727.944409,0.02,-0.01,0.04,0.002181661564992912,0.002181661564992912,0.001090830782496456,2.0641409890879894,-0.14247239687506802,-0.2402506294801595,0,0,0,0,0,0,1500,1500,1500,1500,1500,1500
1747554728.0272968,-0.01,-0.02,0.01,0.00545415391248228,-0.001090830782496456,0.002181661564992912,2.0641409890879894,-0.14247239687506802,-0.2402506294801595,0,0,0,0,0,0,1500,1500,1500,1500,1500,1500
1747554728.1262808,-0.01,-0.02,0.01,0.00545415391248228,-0.001090830782496456,0.002181661564992912,2.0641409890879894,-0.14247239687506802,-0.2402506294801595,0,0,0,0,0,0,1500,1500,1500,1500,1500,1500
1747554728.2277207,0.04,0.0,0.04,-0.002181661564992912,-0.00545415391248228,0.001090830782496456,2.0641409890879894,-0.14247239687506802,-0.2402506294801595,0,0,0,0,0,0,1500,1500,1500,1500,1500,1500
1747554728.3273437,0.0,-0.05,0.0,0.001090830782496456,-0.004363323129985824,-0.004363323129985824,2.0641409890879894,-0.14247239687506802,-0.2402506294801595,0,0,0,0,0,0,1500,1500,1500,1500,1500,1500
1747554728.426808,0.0,-0.05,0.0,0.001090830782496456,-0.004363323129985824,-0.004363323129985824,2.0641409890879894,-0.14247239687506802,-0.2402506294801595,0,0,0,0,0,0,1500,1500,1500,1500,1500,1500
1747554728.5103726,0.01,-0.02,-0.02,0.003272492347489368,-0.00545415391248228,-0.003272492347489368,2.0641409890879894,-0.14247239687506802,-0.2402506294801595,0,0,0,0,0,0,1500,1500,1500,1500,1500,1500
1747554728.6098175,0.01,-0.02,-0.02,0.003272492347489368,-0.00545415391248228,-0.003272492347489368,2.0641409890879894,-0.14247239687506802,-0.2402506294801595,0,0,0,0,0,0,1500,1500,1500,1500,1500,1500
1747554728.7103426,0.01,-0.01,0.03,-0.001090830782496456,0.003272492347489368,0.002181661564992912,2.0641409890879894,-0.14247239687506802,-0.2402506294801595,0,0,0,0,0,0,1500,1500,1500,1500,1500,1500
1747554728.8113587,-0.02,-0.03,0.01,-0.001090830782496456,-0.001090830782496456,0.0,2.0641409890879894,-0.14247239687506802,-0.2402506294801595,0,0,0,0,0,0,1500,1500,1500,1500,1500,1500
1747554728.9102662,-0.02,-0.03,0.01,-0.001090830782496456,-0.001090830782496456,0.0,2.0641409890879894,-0.14247239687506802,-0.2402506294801595,0,0,0,0,0,0,1500,1500,1500,1500,1500,1500
1747554728.993572,0.0,-0.02,0.0,-0.001090830782496456,-0.002181661564992912,0.003272492347489368,2.0641409890879894,-0.14247239687506802,-0.2402506294801595,0,0,0,0,0,0,1500,1500,1500,1500,1500,1500
1747554729.0914736,-0.01,-0.04,-0.02,0.004363323129985824,-0.001090830782496456,-0.001090830782496456,2.0641409890879894,-0.14247239687506802,-0.2402506294801595,0,0,0,0,0,0,1500,1500,1500,1500,1500,1500
1747554729.1935773,-0.01,-0.04,-0.02,0.004363323129985824,-0.001090830782496456,-0.001090830782496456,2.0641409890879894,-0.14247239687506802,-0.2402506294801595,3,0,0,0,0,0,1540,1460,1500,1540,1540,1540
1747554729.2954795,0.0,-0.03,-0.02,0.001090830782496456,-0.004363323129985824,0.0,2.0641409890879894,-0.14247239687506802,-0.2402506294801595,3,0,0,0,0,0,1550,1445,1500,1580,1566,1566
1747554729.394254,0.0,-0.03,-0.02,0.001090830782496456,-0.004363323129985824,0.0,2.0641409890879894,-0.14247239687506802,-0.2402506294801595,3,0,0,0,0,0,1550,1445,1500,1587,1566,1566
1747554729.4951131,0.02,-0.02,0.04,0.001090830782496456,0.0,0.003272492347489368,2.0641409890879894,-0.14247239687506802,-0.2402506294801595,3,0,0,0,0,0,1550,1445,1500,1587,1566,1566
1747554729.59401,-0.14,-0.12,0.0,0.09926560120717749,0.006544984694978736,0.019634954084936207,2.0693991297941325,-0.14342401296682136,-0.24040719461072932,3,0,0,0,0,0,1550,1445,1500,1587,1566,1566
1747554729.6940734,-0.14,-0.12,0.0,0.09926560120717749,0.006544984694978736,0.019634954084936207,2.0693991297941325,-0.14342401296682136,-0.24040719461072932,3,0,0,0,0,0,1550,1445,1500,1587,1566,1566
1747554729.7937536,0.01,0.07,0.05,0.09381144729469522,0.013089969389957472,-0.013089969389957472,2.0861375162216507,-0.14572638394608742,-0.24095808646263403,0,0,0,0,0,0,1510,1485,1500,1547,1526,1526
1747554729.8900867,0.01,-0.01,0.05,0.07090400086226964,0.028361600344907856,-0.04581489286485115,2.0985242527286303,-0.14304183334988718,-0.23637910929146322,0,0,0,0,0,0,1500,1500,1500,1507,1500,1500
1747554729.977621,0.01,-0.01,0.05,0.07090400086226964,0.028361600344907856,-0.04581489286485115,2.0985242527286303,-0.14304183334988718,-0.23637910929146322,-3,0,0,0,0,0,1460,1540,1500,1467,1460,1460
1747554730.0778246,0.08,-0.1,0.04,0.008726646259971648,0.039269908169872414,-0.031634092692397225,2.1024430216495507,-0.1408836230903817,-0.2283430436516267,-3,0,0,0,0,0,1445,1550,1500,1427,1426,1426
1747554730.1768687,0.08,-0.1,0.04,0.008726646259971648,0.039269908169872414,-0.031634092692397225,2.1024430216495507,-0.1408836230903817,-0.2283430436516267,-3,0,0,0,0,0,1445,1550,1500,1402,1426,1426
1747554730.2610304,-0.14,-0.01,0.08,-0.032724923474893676,0.039269908169872414,0.0,2.100083905040916,-0.1419758611886922,-0.22129551866212466,-3,0,0,0,0,0,1445,1550,1500,1402,1426,1426
1747554730.3560061,-0.09,0.1,0.14,-0.20180369476184434,0.04690572364734761,-0.04363323129985824,1.9099209173565719,1.5707963267948966,-2.830758127201927,-3,0,0,0,0,0,1445,1550,1500,1402,1426,1426
1747554730.4607584,-0.09,0.1,0.14,-0.20180369476184434,0.04690572364734761,-0.04363323129985824,1.9099209173565719,1.5707963267948966,-2.830758127201927,-3,0,0,0,0,0,1445,1550,1500,1402,1426,1426
1747554730.5612905,0.0,-0.18,-0.07,-0.15271630954950383,0.03599741582238305,-0.002181661564992912,2.052656699390261,-0.14013571670900363,-0.2052092289169742,-3,0,0,0,0,0,1445,1550,1500,1402,1426,1426
1747554730.6606722,0.0,-0.18,-0.07,-0.15271630954950383,0.03599741582238305,-0.002181661564992912,2.052656699390261,-0.14013571670900363,-0.2052092289169742,-3,0,0,0,0,0,1445,1550,1500,1402,1426,1426
1747554730.7442758,0.22,-0.11,0.04,-0.07526732399225546,0.016362461737446838,0.03381575425739013,2.036469704985035,-0.14435417449846982,-0.20309776810781469,-3,0,0,0,0,0,1445,1550,1500,1402,1426,1426
1747554730.8437643,0.01,-0.11,0.06,-0.05999569303730508,0.004363323129985824,0.03381575425739013,2.0265828943302115,-0.1498226871052652,-0.2039908510982339,-3,0,0,0,0,0,1445,1550,1500,1402,1426,1426
1747554730.9473617,0.01,-0.11,0.06,-0.05999569303730508,0.004363323129985824,0.03381575425739013,2.0265828943302115,-0.1498226871052652,-0.2039908510982339,-3,0,0,0,0,0,1445,1550,1500,1402,1426,1426
1747554731.0461109,0.0,-0.11,-0.12,-0.04799655442984406,-0.025089107997418487,0.02399827721492203,2.0198491437331683,-0.1530316428958605,-0.20747066058516242,-3,0,0,0,0,0,1445,1550,1500,1402,1426,1426
1747554731.1435661,-0.05,0.02,0.0,-0.022907446432425576,-0.04908738521234052,0.009817477042468103,2.0161522798141234,-0.1526021784236491,-0.2141275498567664,-3,0,0,0,0,0,1445,1550,1500,1402,1426,1426
1747554731.2296214,-0.05,0.02,0.0,-0.022907446432425576,-0.04908738521234052,0.009817477042468103,2.0161522798141234,-0.1526021784236491,-0.2141275498567664,-3,0,0,0,0,0,1445,1550,1500,1402,1426,1426
1747554731.3285558,0.0,-0.02,-0.03,-0.004363323129985824,-0.07417649320975901,0.0,2.016379503560878,-0.14848731951532798,-0.22343480321255196,-3,0,0,0,0,0,1445,1550,1500,1402,1426,1426
1747554731.4274592,0.0,-0.02,-0.03,-0.004363323129985824,-0.07417649320975901,0.0,2.016379503560878,-0.14848731951532798,-0.22343480321255196,-3,0,0,0,0,0,1445,1550,1500,1402,1426,1426
1747554731.5110435,0.05,-0.04,-0.12,-0.008726646259971648,-0.09053895494720585,0.0,2.0183003017595986,-0.14280708598221498,-0.23548708499222834,-3,0,0,0,0,0,1445,1550,1500,1402,1426,1426
1747554731.6088488,0.05,-0.05,-0.01,-0.007635815477475192,-0.10035643198967395,0.011999138607461015,2.01954255590818,-0.13720613616082442,-0.24847265014037523,-3,0,0,0,0,0,1445,1550,1500,1402,1426,1426
1747554731.711205,0.05,-0.05,-0.01,-0.007635815477475192,-0.10035643198967395,0.011999138607461015,2.01954255590818,-0.13720613616082442,-0.24847265014037523,-3,0,0,0,0,0,1445,1550,1500,1402,1426,1426
1747554731.811202,0.06,-0.01,-0.11,-0.02181661564992912,-0.1090830782496456,0.016362461737446838,2.0196081308565517,-0.1321984354548102,-0.26435211726313756,-3,0,0,0,0,0,1445,1550,1500,1402,1426,1426
1747554731.911364,0.06,-0.01,-0.11,-0.02181661564992912,-0.1090830782496456,0.016362461737446838,2.0196081308565517,-0.1321984354548102,-0.26435211726313756,-3,0,0,0,0,0,1445,1550,1500,1402,1426,1426
1747554731.994456,-0.05,-0.05,-0.05,-0.032724923474893676,-0.11344640137963143,0.030543261909900768,2.017465072527994,-0.12822033785254092,-0.2803619824294711,-3,0,0,0,0,0,1445,1550,1500,1402,1426,1426
1747554732.0943809,0.07,0.0,-0.13,-0.04908738521234052,-0.11453723216212788,0.032724923474893676,2.013616017689682,-0.12508422739269018,-0.2987482786797616,-3,0,0,0,0,0,1445,1550,1500,1402,1426,1426
1747554732.193741,0.07,0.0,-0.13,-0.04908738521234052,-0.11453723216212788,0.032724923474893676,2.013616017689682,-0.12508422739269018,-0.2987482786797616,-3,0,0,0,0,0,1445,1550,1500,1402,1426,1426
1747554732.2770982,0.0,-0.07,0.0,-0.0719948316447661,-0.12871803233458182,0.03490658503988659,2.006294194894116,-0.12164123922872669,-0.3180028508222595,-3,0,0,0,0,0,1445,1550,1500,1402,1426,1426
1747554732.377691,0.0,-0.07,0.0,-0.0719948316447661,-0.12871803233458182,0.03490658503988659,2.006294194894116,-0.12164123922872669,-0.3180028508222595,-3,0,0,0,0,0,1445,1550,1500,1402,1426,1426
1747554732.4773445,0.0,-0.05,-0.07,-0.08399397025222712,-0.1265363707695889,0.04254240051736178,1.9965761234598909,-0.11864875453616937,-0.3385906137899327,-3,0,0,0,0,0,1445,1550,1500,1402,1426,1426
1747554732.5776765,0.1,-0.05,-0.03,-0.09490227807719166,-0.1308996938995747,0.050178215994836975,1.985855897439548,-0.11713708864764392,-0.3586278706165481,-3,0,0,0,0,0,1445,1550,1500,1402,1426,1426
1747554732.6777399,0.1,-0.05,-0.03,-0.09490227807719166,-0.1308996938995747,0.050178215994836975,1.985855897439548,-0.11713708864764392,-0.3586278706165481,-3,0,0,0,0,0,1445,1550,1500,1402,1426,1426
1747554732.7607608,0.02,-0.15,-0.07,-0.09490227807719166,-0.136353847812057,0.06763150851478027,1.97346400690536,-0.11747175899733853,-0.3816958273217926,-3,0,0,0,0,0,1445,1550,1500,1402,1426,1426
1747554732.8612099,0.02,-0.15,-0.07,-0.09490227807719166,-0.136353847812057,0.06763150851478027,1.97346400690536,-0.11747175899733853,-0.3816958273217926,-3,0,0,0,0,0,1445,1550,1500,1402,1426,1426
1747554732.9609458,0.08,-0.08,0.02,-0.10253809355466686,-0.13962634015954636,0.07744898555724837,1.9607318282623036,-0.11959628404418489,-0.40600800696690853,-3,0,0,0,0,0,1445,1550,1500,1402,1426,1426
1747554733.0617638,0.11,-0.09,0.03,-0.10581058590215622,-0.13853550937704992,0.0818123086872342,1.9480738379337437,-0.12309882568981552,-0.4290718100991038,-3,0,0,0,0,0,1445,1550,1500,1402,1426,1426
1747554733.1600394,0.11,-0.09,0.03,-0.10581058590215622,-0.13853550937704992,0.0818123086872342,1.9480738379337437,-0.12309882568981552,-0.4290718100991038,-3,0,0,0,0,0,1445,1550,1500,1402,1426,1426
1747554733.2444644,-0.01,-0.21,-0.06,-0.11453723216212788,-0.14944381720201447,0.08835729338221293,1.9339816957739648,-0.12766838749761963,-0.45441910597306356,-3,0,0,0,0,0,1445,1550,1500,1402,1426,1426
1747554733.3446226,-0.01,-0.21,-0.06,-0.11453723216212788,-0.14944381720201447,0.08835729338221293,1.9339816957739648,-0.12766838749761963,-0.45441910597306356,-3,0,0,0,0,0,1445,1550,1500,1402,1426,1426
1747554733.4437163,0.24,-0.08,-0.04,-0.11999138607461016,-0.14289883250703572,0.08726646259971647,1.9188152836455188,-0.13262444109478028,-0.4804171253736277,-3,0,0,0,0,0,1445,1550,1500,1402,1426,1426
1747554733.53741,0.24,-0.08,-0.04,-0.11999138607461016,-0.14289883250703572,0.08726646259971647,1.9188152836455188,-0.13262444109478028,-0.4804171253736277,-3,0,0,0,0,0,1445,1550,1500,1402,1426,1426
1747554733.6461308,0.14,-0.16,-0.12,-0.11999138607461016,-0.15707963267948966,0.08726646259971647,1.9033603009016955,-0.13757801212466117,-0.5071784422174583,-3,0,0,0,0,0,1445,1550,1500,1402,1426,1426
1747554733.7278993,0.23,-0.11,-0.05,-0.1265363707695889,-0.15817046346198613,0.08944812416470939,1.8888401956636542,-0.1425677550993167,-0.5332109116482477,-3,0,0,0,0,0,1445,1550,1500,1402,1426,1426
1747554733.827297,0.16,-0.11,-0.15,-0.13526301702956053,-0.16471544815696484,0.08399397025222712,1.873084972861493,-0.1479956801333753,-0.5620813948726217,-3,0,0,0,0,0,1445,1550,1500,1402,1426,1426
1747554733.9284482,0.16,-0.11,-0.15,-0.13526301702956053,-0.16471544815696484,0.08399397025222712,1.873084972861493,-0.1479956801333753,-0.5620813948726217,-3,0,0,0,0,0,1445,1550,1500,1402,1426,1426
1747554734.0105805,0.17,-0.1,-0.02,-0.13744467859455345,-0.17562375598192942,0.07744898555724837,1.8581911533246578,-0.15302837864761004,-0.5901946623483936,-3,0,0,0,0,0,1445,1550,1500,1402,1426,1426
1747554734.1099215,0.17,-0.1,-0.02,-0.13744467859455345,-0.17562375598192942,0.07744898555724837,1.8581911533246578,-0.15302837864761004,-0.5901946623483936,-3,0,0,0,0,0,1445,1550,1500,1402,1426,1426
1747554734.2063918,0.05,-0.13,-0.01,-0.136353847812057,-0.18435040224190105,0.0719948316447661,1.8426147203027117,-0.15774383491958002,-0.6205621813145852,-3,0,0,0,0,0,1445,1550,1500,1402,1426,1426
1747554734.2940495,0.22,-0.2,-0.1,-0.14180800172453928,-0.18216874067690814,0.06654067773228381,1.8281173230954577,-0.16138206835179003,-0.6496872057206005,-3,0,0,0,0,0,1445,1550,1500,1402,1426,1426
1747554734.3942475,0.22,-0.2,-0.1,-0.14180800172453928,-0.18216874067690814,0.06654067773228381,1.8281173230954577,-0.16138206835179003,-0.6496872057206005,-3,0,0,0,0,0,1445,1550,1500,1402,1426,1426
1747554734.4777403,0.02,-0.12,0.0,-0.13526301702956053,-0.18544123302439752,0.05999569303730508,1.8127409496553566,-0.1649807418450664,-0.6808928878260123,-3,0,0,0,0,0,1445,1550,1500,1402,1426,1426
1747554734.5775042,0.02,-0.12,0.0,-0.13526301702956053,-0.18544123302439752,0.05999569303730508,1.8127409496553566,-0.1649807418450664,-0.6808928878260123,-3,0,0,0,0,0,1445,1550,1500,1402,1426,1426
1747554734.6775265,0.13,-0.17,-0.11,-0.136353847812057,-0.18544123302439752,0.06544984694978735,1.7973796751499458,-0.16885797272664407,-0.7117101680510729,-3,0,0,0,0,0,1445,1550,1500,1402,1426,1426
1747554734.761134,0.13,-0.13,-0.16,-0.13526301702956053,-0.17780541754692233,0.06544984694978735,1.781718052064866,-0.17317895043360962,-0.7416348303137139,-3,0,0,0,0,0,1445,1550,1500,1402,1426,1426
1747554734.8630195,0.13,-0.13,-0.16,-0.13526301702956053,-0.17780541754692233,0.06544984694978735,1.781718052064866,-0.17317895043360962,-0.7416348303137139,-3,0,0,0,0,0,1445,1550,1500,1402,1426,1426
1747554734.9609208,0.11,-0.21,-0.09,-0.14180800172453928,-0.17998707911191522,0.06326818538479445,1.7672334647902515,-0.1779079156093706,-0.7697626514625427,-3,0,0,0,0,0,1445,1550,1500,1402,1426,1426
1747554735.0611107,0.11,-0.21,-0.09,-0.14180800172453928,-0.17998707911191522,0.06326818538479445,1.7672334647902515,-0.1779079156093706,-0.7697626514625427,-3,0,0,0,0,0,1445,1550,1500,1402,1426,1426
1747554735.1604207,0.09,-0.23,0.0,-0.13199052468207118,-0.18216874067690814,0.06763150851478027,1.7522269594587805,-0.18396645754603358,-0.7997816994144352,-3,0,0,0,0,0,1445,1550,1500,1402,1426,1426
1747554735.2446978,0.01,-0.23,-0.01,-0.12871803233458182,-0.1810779098944117,0.07744898555724837,1.739471149920028,-0.1912338133951481,-0.8283015051233922,-3,0,0,0,0,0,1445,1550,1500,1402,1426,1426
1747554735.3440046,0.01,-0.23,-0.01,-0.12871803233458182,-0.1810779098944117,0.07744898555724837,1.739471149920028,-0.1912338133951481,-0.8283015051233922,-3,0,0,0,0,0,1445,1550,1500,1402,1426,1426
1747554735.444725,-0.01,-0.25,0.03,-0.136353847812057,-0.18653206380689397,0.08072147790473774,1.7256202959113118,-0.19994718683712567,-0.859180018213506,-3,0,0,0,0,0,1445,1550,1500,1402,1426,1426
1747554735.5437984,-0.03,-0.21,-0.07,-0.14180800172453928,-0.19416787928436915,0.08072147790473774,1.7123073195877632,-0.20870029908318427,-0.889346511155626,-3,0,0,0,0,0,1445,1550,1500,1402,1426,1426
1747554735.6439145,-0.03,-0.21,-0.07,-0.14180800172453928,-0.19416787928436915,0.08072147790473774,1.7123073195877632,-0.20870029908318427,-0.889346511155626,-3,0,0,0,0,0,1445,1550,1500,1402,1426,1426
1747554735.7270174,0.11,-0.17,-0.12,-0.13744467859455345,-0.19962203319685143,0.0719948316447661,1.6985989267716268,-0.21789616877833543,-0.9224743562593635,-3,0,0,0,0,0,1445,1550,1500,1402,1426,1426
1747554735.8273914,0.11,-0.17,-0.12,-0.13744467859455345,-0.19962203319685143,0.0719948316447661,1.6985989267716268,-0.21789616877833543,-0.9224743562593635,-3,0,0,0,0,0,1445,1550,1500,1402,1426,1426
1747554735.9272826,-0.12,-0.29,-0.03,-0.1308996938995747,-0.210530341021816,0.06872233929727672,1.6863285687082121,-0.2271502057110025,-0.9567284343762579,-3,0,0,0,0,0,1445,1550,1500,1402,1426,1426
1747554736.0119944,0.02,-0.15,-0.05,-0.12871803233458182,-0.21707532571679475,0.061086523819801536,1.6752545692195961,-0.23557970989819318,-0.9928189031695728,-3,0,0,0,0,0,1445,1550,1500,1402,1426,1426
1747554736.110715,0.02,-0.15,-0.05,-0.12871803233458182,-0.21707532571679475,0.061086523819801536,1.6752545692195961,-0.23557970989819318,-0.9928189031695728,-3,0,0,0,0,0,1445,1550,1500,1402,1426,1426
1747554736.2106063,-0.04,-0.24,-0.03,-0.11999138607461016,-0.22252947962927702,0.05126904677733343,1.6661382827445732,-0.24202532472121033,-1.0272147494200978,-3,0,0,0,0,0,1445,1550,1500,1402,1426,1426
1747554736.3084638,0.04,-0.24,-0.07,-0.11235557059713497,-0.23234695667174513,0.04690572364734761,1.657632216189561,-0.24772687711241526,-1.064369726964084,-3,0,0,0,0,0,1445,1550,1500,1402,1426,1426
1747554736.4108057,0.04,-0.24,-0.07,-0.11235557059713497,-0.23234695667174513,0.04690572364734761,1.657632216189561,-0.24772687711241526,-1.064369726964084,0,0,0,0,0,0,1485,1510,1500,1442,1466,1466
1747554736.4937904,0.14,-0.27,-0.14,-0.10799224746714914,-0.2301652951067522,0.04036073895236887,1.6510639125979651,-0.2524664498127516,-1.0997882615818575,0,0,0,0,0,0,1500,1500,1500,1482,1500,1500
1747554736.5942528,0.14,-0.27,-0.14,-0.10799224746714914,-0.2301652951067522,0.04036073895236887,1.6510639125979651,-0.2524664498127516,-1.0997882615818575,0,0,0,0,0,0,1500,1500,1500,1500,1500,1500
1747554736.6939366,0.15,-0.05,0.0,-0.06763150851478027,-0.21925698728178766,0.03381575425739013,1.6460738309774232,-0.2575188421927487,-1.1371132507763115,0,0,0,0,0,0,1500,1500,1500,1500,1500,1500
1747554736.7763915,0.15,-0.05,0.0,-0.06763150851478027,-0.21925698728178766,0.03381575425739013,1.6460738309774232,-0.2575188421927487,-1.1371132507763115,0,0,0,0,0,0,1500,1500,1500,1500,1500,1500
1747554736.8772128,0.13,-0.13,-0.09,0.001090830782496456,-0.210530341021816,0.025089107997418487,1.650415973067443,-0.2605457896369249,-1.1692271458359609,0,12.5,0,0,0,0,1540,1540,1540,1500,1500,1500
1747554736.976213,0.07,-0.15,-0.1,0.0545415391248228,-0.20180369476184434,0.02399827721492203,1.6643501485576933,-0.2631413445280352,-1.203006627238884,0,12.5,0,0,0,0,1580,1580,1580,1500,1500,1500
1747554737.0764956,0.07,-0.15,-0.1,0.0545415391248228,-0.20180369476184434,0.02399827721492203,1.6643501485576933,-0.2631413445280352,-1.203006627238884,0,12.5,0,0,0,0,1610,1607,1593,1500,1500,1500
1747554737.1770644,0.11,-0.17,-0.08,0.09817477042468103,-0.19634954084936207,0.02399827721492203,1.6856216582934012,-0.26522989605548325,-1.2354627032550876,0,12.5,0,0,0,0,1610,1607,1593,1500,1500,1500
1747554737.2604897,0.05,0.19,0.03,0.15489797111449674,-0.1810779098944117,0.017453292519943295,1.7141649861232753,-0.2663489749175949,-1.2664362835505705,0,12.5,0,0,0,0,1610,1607,1593,1500,1500,1500
1747554737.3615162,0.05,0.19,0.03,0.15489797111449674,-0.1810779098944117,0.017453292519943295,1.7141649861232753,-0.2663489749175949,-1.2664362835505705,0,12.5,0,0,0,0,1610,1607,1593,1500,1500,1500
1747554737.461605,0.4,-0.03,-0.05,0.22580197197676638,-0.1930770485018727,0.025089107997418487,1.7506449358601257,-0.26714815092152827,-1.294369018357656,0,12.5,0,0,0,0,1610,1607,1593,1500,1500,1500
1747554737.5605276,0.29,-0.05,-0.07,0.25416357232167425,-0.20289452554434081,0.07308566242726255,1.7980656564352009,-0.27773077382588646,-1.3272028120601107,0,12.5,0,0,0,0,1610,1607,1593,1500,1500,1500
1747554737.660682,0.29,-0.05,-0.07,0.25416357232167425,-0.20289452554434081,0.07308566242726255,1.7980656564352009,-0.27773077382588646,-1.3272028120601107,0,12.5,0,0,0,0,1610,1607,1593,1500,1500,1500
1747554737.7445176,0.22,0.03,0.04,0.31525009614147576,-0.2399827721492203,0.09381144729469522,1.849482166936276,-0.28505970907451067,-1.3628468976759474,0,12.5,0,0,0,0,1610,1607,1593,1500,1500,1500
1747554737.8438313,0.22,0.03,0.04,0.31525009614147576,-0.2399827721492203,0.09381144729469522,1.849482166936276,-0.28505970907451067,-1.3628468976759474,0,12.5,0,0,0,0,1610,1607,1593,1500,1500,1500
1747554737.9440506,0.16,-0.06,0.18,0.3108867730114899,-0.2519819107566813,0.09381144729469522,1.9093778436754227,-0.2894021449868911,-1.404871859151804,0,12.5,0,0,0,0,1610,1607,1593,1500,1500,1500
1747554738.0273774,0.16,-0.06,0.18,0.3108867730114899,-0.2519819107566813,0.09381144729469522,1.9093778436754227,-0.2894021449868911,-1.404871859151804,0,12.5,0,0,0,0,1610,1607,1593,1500,1500,1500
1747554738.1278925,0.04,0.0,0.12,0.2912518189265537,-0.2378011105842274,0.08072147790473774,1.9631826393192253,-0.2901433088318935,-1.4439359420872018,0,12.5,0,0,0,0,1610,1607,1593,1500,1500,1500
1747554738.228348,0.15,0.11,-0.01,0.2825251726665821,-0.2301652951067522,0.0719948316447661,2.01777757052186,-0.2868877426307996,-1.483593264098196,0,12.5,0,0,0,0,1610,1607,1593,1500,1500,1500
1747554738.3275704,0.15,0.11,-0.01,0.2825251726665821,-0.2301652951067522,0.0719948316447661,2.01777757052186,-0.2868877426307996,-1.483593264098196,0,12.5,0,0,0,0,1610,1607,1593,1500,1500,1500
1747554738.4269674,0.06,0.1,-0.06,0.25743606466916363,-0.22143864884678055,0.050178215994836975,2.0685029939299024,-0.28001389816207284,-1.520331149731577,0,12.5,0,0,0,0,1610,1607,1593,1500,1500,1500
1747554738.5116074,0.1,0.02,0.08,0.24870941840919197,-0.22143864884678055,0.031634092692397225,2.113404311703662,-0.269446817926306,-1.5521557896081395,0,12.5,0,0,0,0,1610,1607,1593,1500,1500,1500
1747554738.6107135,0.1,0.02,0.08,0.24870941840919197,-0.22143864884678055,0.031634092692397225,2.113404311703662,-0.269446817926306,-1.5521557896081395,0,0,0,0,0,0,1570,1567,1553,1500,1500,1500
1747554738.710295,0.02,-0.07,0.04,0.2454369260617026,-0.20507618710933373,0.014180800172453928,2.1592077119678197,-0.25534888561903984,-1.5826630575516174,0,0,0,0,0,0,1530,1527,1513,1500,1500,1500
1747554738.809809,-0.62,0.01,0.04,0.20180369476184434,-0.20398535632683726,0.0,2.19884667570949,-0.23942055950514088,-1.6077173530390678,0,0,0,0,0,0,1500,1500,1500,1500,1500,1500
1747554738.910364,-0.62,0.01,0.04,0.20180369476184434,-0.20398535632683726,0.0,2.19884667570949,-0.23942055950514088,-1.6077173530390678,0,0,0,0,0,0,1500,1500,1500,1500,1500,1500
1747554738.99391,-0.18,0.07,0.03,0.10035643198967395,-0.18762289458939044,-0.04145156973486533,2.2258866256996925,-0.2149564921788804,-1.6310429143637746,0,0,0,0,0,0,1500,1500,1500,1500,1500,1500
1747554739.096097,-0.18,0.07,0.03,0.10035643198967395,-0.18762289458939044,-0.04145156973486533,2.2258866256996925,-0.2149564921788804,-1.6310429143637746,0,0,0,0,0,0,1500,1500,1500,1500,1500,1500
1747554739.1804063,-0.07,0.06,-0.07,0.04690572364734761,-0.17235126363444003,-0.0818123086872342,2.2390335168109887,-0.19038976634131766,-1.6466490043589246,0,0,0,0,0,0,1500,1500,1500,1500,1500,1500
1747554739.2784317,-0.07,0.06,-0.07,0.04690572364734761,-0.17235126363444003,-0.0818123086872342,2.2390335168109887,-0.19038976634131766,-1.6466490043589246,0,0,0,0,0,0,1500,1500,1500,1500,1500,1500
1747554739.3781085,-0.05,0.04,0.02,0.01090830782496456,-0.15707963267948966,-0.11671889372712078,2.2449388289277854,-0.16177480785753567,-1.657044203228754,0,0,0,0,0,0,1500,1500,1500,1500,1500,1500
1747554739.472098,-0.03,0.01,-0.03,-0.030543261909900768,-0.1439896632895322,-0.15271630954950383,2.243295925453079,-0.1308649379675613,-1.6621435043329296,0,0,0,0,0,0,1500,1500,1500,1500,1500,1500
1747554739.562073,-0.03,0.01,-0.03,-0.030543261909900768,-0.1439896632895322,-0.15271630954950383,2.243295925453079,-0.1308649379675613,-1.6621435043329296,0,0,0,0,0,0,1500,1500,1500,1500,1500,1500
1747554739.6615796,0.03,0.04,-0.02,-0.06981317007977318,-0.12871803233458182,-0.17671458676442586,2.235605468640452,-0.09992271405967808,-1.662900342097906,0,0,0,0,0,0,1500,1500,1500,1500,1500,1500
1747554739.7449114,0.03,0.04,-0.02,-0.06981317007977318,-0.12871803233458182,-0.17671458676442586,2.235605468640452,-0.09992271405967808,-1.662900342097906,0,0,0,0,0,0,1500,1500,1500,1500,1500,1500
1747554739.84416,0.01,0.02,0.0,-0.09272061651219876,-0.11235557059713497,-0.19198621771937624,2.2223951421407193,-0.06568732737660117,-1.6604379087644576,0,0,0,0,0,0,1500,1500,1500,1500,1500,1500
1747554739.9447598,0.03,0.0,-0.06,-0.11235557059713497,-0.10471975511965978,-0.20616701789183017,2.205946393815525,-0.030759222617483654,-1.6551704547847454,0,0,0,0,0,0,1500,1500,1500,1500,1500,1500
1747554740.043505,0.03,0.0,-0.06,-0.11235557059713497,-0.10471975511965978,-0.20616701789183017,2.205946393815525,-0.030759222617483654,-1.6551704547847454,0,0,0,-0.337665,0.022218,0,1460,1460,1540,1500,1500,1500
1747554740.1440902,0.03,0.0,-0.01,-0.1265363707695889,-0.08944812416470939,-0.21707532571679475,2.187250022778536,0.0047484218701931815,-1.648119040291579,0,0,0,-0.7,0.052612,0,1422,1422,1580,1500,1500,1500
1747554740.2274952,0.02,0.0,-0.06,-0.136353847812057,-0.08617563181722002,-0.22252947962927702,2.1683772593782624,0.03820198068067329,-1.6402274318368035,0,0,0,-0.7,0.052612,0,1422,1422,1597,1500,1500,1500
1747554740.3291821,0.02,0.0,-0.06,-0.136353847812057,-0.08617563181722002,-0.22252947962927702,2.1683772593782624,0.03820198068067329,-1.6402274318368035,0,0,0,-0.7,0.052612,0,1422,1422,1597,1500,1500,1500
1747554740.4267383,0.14,0.09,0.0,-0.18216874067690814,0.006544984694978736,-0.22252947962927702,2.145695493549729,0.07134881503189026,-1.6282185494980248,0,0,0,-0.7,0.052612,0,1422,1422,1597,1500,1500,1500
1747554740.5099351,0.14,0.09,0.0,-0.18216874067690814,0.006544984694978736,-0.22252947962927702,2.145695493549729,0.07134881503189026,-1.6282185494980248,0,0,0,-0.7,0.052612,0,1422,1422,1597,1500,1500,1500
1747554740.6118922,0.21,-0.04,-0.1,-0.20943951023931956,0.2476185876266955,-0.22471114119426994,2.1186804440924965,0.08903906798240663,-1.5958079664377764,0,0,0,-0.7,0.052612,0,1422,1422,1597,1500,1500,1500
1747554740.6982749,0.07,0.0,0.07,-0.1930770485018727,0.42542400517361784,-0.21925698728178766,2.0930471211044526,0.0911650803870801,-1.530628868535731,0,0,0,-0.7,0.052612,0,1422,1422,1597,1500,1500,1500
1747554740.793931,0.07,0.0,0.07,-0.1930770485018727,0.42542400517361784,-0.21925698728178766,2.0930471211044526,0.0911650803870801,-1.530628868535731,0,0,0,-0.7,0.052612,0,1422,1422,1597,1500,1500,1500
1747554740.8940034,0.01,-0.04,0.0,-0.1407171709420428,0.5170537909033202,-0.21271200258680892,2.074629386533426,0.08422205785023107,-1.4490389214663049,0,0,0,-0.7,0.030196,0,1422,1422,1597,1500,1500,1500
1747554740.9762185,0.01,-0.04,0.0,-0.1407171709420428,0.5170537909033202,-0.21271200258680892,2.074629386533426,0.08422205785023107,-1.4490389214663049,0,0,0,-0.7,0.030196,0,1422,1422,1597,1500,1500,1500
1747554741.077547,0.03,0.0,0.0,-0.10581058590215622,0.5781403147231217,-0.1930770485018727,2.0630743158710696,0.07048007686168421,-1.3587066816333075,0,0,0,-0.7,0.030196,0,1422,1422,1597,1500,1500,1500
1747554741.1770234,-0.02,-0.02,-0.06,-0.0818123086872342,0.6348635154129374,-0.17016960206944712,2.055306166249788,0.052120647291200334,-1.2671245213371474,0,0,0,-0.7,0.030196,0,1422,1422,1597,1500,1500,1500
1747554741.2604954,-0.02,-0.02,-0.06,-0.0818123086872342,0.6348635154129374,-0.17016960206944712,2.055306166249788,0.052120647291200334,-1.2671245213371474,0,0,0,-0.7,0.018688,0,1422,1422,1597,1500,1500,1500
1747554741.3604927,0.03,-0.08,0.01,-0.07308566242726255,0.6752242543653062,-0.16580627893946132,2.048287982297091,0.02805970002854344,-1.1636338549944507,0,0,0,-0.7,0.001938,0,1422,1422,1597,1500,1500,1500
1747554741.461594,0.03,-0.08,0.01,-0.07308566242726255,0.6752242543653062,-0.16580627893946132,2.048287982297091,0.02805970002854344,-1.1636338549944507,0,0,0,0,-0.04709,0,1462,1462,1557,1500,1500,1500
1747554741.5617702,-0.02,-0.1,0.01,-0.05781403147231216,0.7046766854927106,-0.15817046346198613,2.040553711912251,0.0034318931712948864,-1.0631065783442317,0,0,0,-0.202366,-0.044446,0,1453,1453,1555,1500,1500,1500
1747554741.6613715,0.07,-0.07,-0.24,-0.008726646259971648,0.6141377305455047,-0.1308996938995747,2.0334361871195563,-0.024385030204641382,-0.9574591737379107,0,0,0,-0.7,-0.081202,0,1422,1422,1595,1500,1460,1460
1747554741.7440233,0.07,-0.07,-0.24,-0.008726646259971648,0.6141377305455047,-0.1308996938995747,2.0334361871195563,-0.024385030204641382,-0.9574591737379107,0,0,0,-0.353911,-0.245048,0,1442,1442,1570,1500,1444,1444
1747554741.8439572,0.07,0.02,0.03,-0.014180800172453928,0.5497787143782138,-0.10144726277217041,2.0316796416161322,-0.044167676672159546,-0.8785055834922612,0,0,0,0,-0.56,0,1482,1482,1530,1500,1419,1419
1747554741.9439926,-0.21,0.14,-0.15,-0.10799224746714914,0.6174102228929941,-0.08508480103472356,2.020266677190176,-0.07245508213075103,-0.7850529973356905,0,0,0,0,-0.56,0,1500,1500,1500,1500,1419,1419
1747554742.0267649,-0.21,0.14,-0.15,-0.10799224746714914,0.6174102228929941,-0.08508480103472356,2.020266677190176,-0.07245508213075103,-0.7850529973356905,0,0,0,0,-0.012538,-0.150289,1460,1540,1500,1500,1459,1459
1747554742.1275666,-0.23,0.09,-0.05,-0.44178646691106466,0.4046982203061852,-0.0719948316447661,1.9757969553164016,-0.09232705746943252,-0.7108147538404188,0,0,0,0,0,-0.7,1420,1580,1500,1500,1499,1499
1747554742.2262566,-0.23,0.09,-0.05,-0.44178646691106466,0.4046982203061852,-0.0719948316447661,1.9757969553164016,-0.09232705746943252,-0.7108147538404188,0,0,0,0,0,-0.7,1409,1580,1500,1500,1500,1500
1747554742.327352,-0.38,0.09,-0.76,-0.28034351110158917,0.31852258848896514,-0.1090830782496456,1.9121634326817014,-0.09879811240211891,-0.654791668067722,0,0,0,0,0,-0.7,1409,1580,1500,1500,1500,1500
1747554742.4228907,-0.28,0.14,0.04,-0.1832595714594046,0.2628902185816459,-0.32288591161895097,1.8765728900500114,-0.08446043715749756,-0.606008071773007,0,0,0,0,0,-0.7,1409,1580,1500,1500,1500,1500
1747554742.5101478,-0.28,0.14,0.04,-0.1832595714594046,0.2628902185816459,-0.32288591161895097,1.8765728900500114,-0.08446043715749756,-0.606008071773007,0,0,0,0,0,-0.7,1409,1580,1500,1500,1500,1500
1747554742.6098258,-0.04,0.05,-0.09,-0.17671458676442586,0.24325526449670967,-0.5530512067257032,1.8456746010742882,-0.02890270260881786,-0.5484799092109789,0,0,0,0,0,-0.7,1409,1580,1500,1500,1500,1500
1747554742.7098827,-0.04,0.05,-0.09,-0.17671458676442586,0.24325526449670967,-0.5530512067257032,1.8456746010742882,-0.02890270260881786,-0.5484799092109789,0,-4.432054,0,0,0,-0.248195,1409,1540,1460,1500,1500,1500
1747554742.8105147,-0.06,-0.08,-0.01,-0.1810779098944117,0.2279836335417593,-0.6904958853202566,1.8204274729227163,0.050794282638490486,-0.4920023306614725,0,-12.5,0,0,0,0,1375,1500,1420,1500,1500,1500
1747554742.9100208,-0.14,-0.21,0.08,-0.1810779098944117,0.2530727415391778,-0.6992225315802283,1.798191364962372,0.14985199074962352,-0.4301809185617954,0,-12.5,0,0,0,0,1375,1460,1395,1500,1500,1500
1747554742.994806,-0.14,-0.21,0.08,-0.1810779098944117,0.2530727415391778,-0.6992225315802283,1.798191364962372,0.14985199074962352,-0.4301809185617954,0,-12.5,0,0,0,0,1375,1420,1395,1500,1500,1500
1747554743.0945852,-0.17,-0.13,0.02,-0.19634954084936207,0.30870511144649704,-0.681769239060285,1.782168869649991,0.24375311401390903,-0.36178474854239323,0,-12.5,0,0,0,0,1375,1380,1395,1500,1500,1500
1747554743.1941974,-0.17,-0.13,0.02,-0.19634954084936207,0.30870511144649704,-0.681769239060285,1.782168869649991,0.24375311401390903,-0.36178474854239323,0,-12.5,0,0,0,0,1375,1377,1395,1500,1500,1500
1747554743.294432,-0.17,-0.23,0.0,-0.15162547876700738,0.19962203319685143,-0.6086835766330224,1.7730726418975844,0.3337315725217616,-0.2979183420465881,0,-12.5,0,0,0,0,1375,1377,1395,1500,1500,1500
1747554743.3939893,-0.07,-0.26,0.04,-0.12326387842209953,0.12108221685710661,-0.48105637508093707,1.7678349086947467,0.4123617838520341,-0.25468052110600164,0,-12.5,0,0,0,0,1375,1377,1395,1500,1500,1500
1747554743.4783163,-0.07,-0.26,0.04,-0.12326387842209953,0.12108221685710661,-0.48105637508093707,1.7678349086947467,0.4123617838520341,-0.25468052110600164,0,-12.5,0,0,0,0,1375,1377,1395,1500,1500,1500
1747554743.5765114,-0.15,-0.35000000000000003,0.1,-0.06326818538479445,0.013089969389957472,-0.3719732968312915,1.763949347348207,0.4724148415274017,-0.23079267489129074,0,-12.5,0,0,0,0,1375,1377,1395,1500,1500,1500
1747554743.6763344,0.06,-0.21,-0.01,0.002181661564992912,-0.050178215994836975,-0.25634523388666713,1.7624408148140478,0.5215589202909657,-0.22410263621904802,0,-10.332679,0,0,0,0,1387,1390,1405,1500,1500,1500
1747554743.7601523,0.06,-0.21,-0.01,0.002181661564992912,-0.050178215994836975,-0.25634523388666713,1.7624408148140478,0.5215589202909657,-0.22410263621904802,0,0,0,-0.440866,0,0,1427,1430,1445,1500,1500,1500
1747554743.8601694,0.1,-0.38,0.29,0.039269908169872414,-0.08072147790473774,-0.10799224746714914,1.7620538327529662,0.5526486082890409,-0.23120502763810627,0,0,0,-0.7,0,0,1422,1422,1485,1500,1500,1500
1747554743.962246,0.1,-0.38,0.29,0.039269908169872414,-0.08072147790473774,-0.10799224746714914,1.7620538327529662,0.5526486082890409,-0.23120502763810627,0,0,0,-0.7,0,0,1422,1422,1525,1500,1500,1500
1747554744.05986,0.4,-0.32,0.03,0.09381144729469522,-0.019634954084936207,0.12871803233458182,1.7673975177502554,0.5506393858313483,-0.24172033621831168,0,0,0,-0.7,0,0,1422,1422,1565,1500,1500,1500
1747554744.1492648,0.18,-0.22,0.08,0.11017390903214205,0.04254240051736178,0.2530727415391778,1.7819560012713564,0.5188921881126459,-0.24528813081203144,0,0,0,-0.7,0,0,1422,1422,1597,1500,1500,1500
1747554744.242839,0.18,-0.22,0.08,0.11017390903214205,0.04254240051736178,0.2530727415391778,1.7819560012713564,0.5188921881126459,-0.24528813081203144,0,0,0,-0.7,0,0,1422,1422,1597,1500,1500,1500
1747554744.343746,0.31,-0.31,0.2,0.10581058590215622,0.11671889372712078,0.32615840396644036,1.7990826799068382,0.47120338160496134,-0.24476476114893275,0,0,0,-0.7,0,0,1422,1422,1597,1500,1500,1500
1747554744.4435964,0.31,-0.31,0.2,0.10581058590215622,0.11671889372712078,0.32615840396644036,1.7990826799068382,0.47120338160496134,-0.24476476114893275,0,0,0,-0.7,0,0,1422,1422,1597,1500,1500,1500
1747554744.5273242,-0.01,-0.06,0.22,0.06763150851478027,0.2716168648416175,0.34470252726888007,1.8190808283441275,0.41219877867845695,-0.2281311216542767,0,0,0,-0.7,0,0,1422,1422,1597,1500,1500,1500
1747554744.6173437,-0.1,0.1,0.12,0.031634092692397225,0.45814892864851153,0.32506757318394386,1.8405322450617199,0.3520705521286254,-0.18524485608043234,0,0,0,-0.7,0,0,1422,1422,1597,1500,1500,1500
1747554744.726455,-0.1,0.1,0.12,0.031634092692397225,0.45814892864851153,0.32506757318394386,1.8405322450617199,0.3520705521286254,-0.18524485608043234,0,0,0,-0.7,0,0,1422,1422,1597,1500,1500,1500
1747554744.826703,-0.16,0.06,0.02,-0.016362461737446838,0.5301437602932776,0.32506757318394386,2.9536723889425214,-1.5707963267948966,-2.686525218670105,0,0,0,-0.7,0,0,1422,1422,1597,1500,1500,1500
1747554744.927577,-0.16,0.06,0.02,-0.016362461737446838,0.5301437602932776,0.32506757318394386,2.9536723889425214,-1.5707963267948966,-2.686525218670105,0,0,0,-0.7,0,0,1422,1422,1597,1500,1500,1500
1747554745.010133,-0.19,0.11,0.04,-0.05345070834232634,0.5748678223756323,0.32288591161895097,1.8714126344263988,0.21469036462173915,-0.052011180381090365,0,0,0,-0.7,0,0,1422,1422,1597,1500,1500,1500
1747554745.1097538,-0.31,0.12,-0.05,-0.08072147790473774,0.5977752688080579,0.28361600344907856,1.8719031570829097,0.1499033496738361,0.01709443802369424,0,0,0,-0.7,0,0,1422,1422,1597,1500,1500,1500
1747554745.2104733,-0.31,0.12,-0.05,-0.08072147790473774,0.5977752688080579,0.28361600344907856,1.8719031570829097,0.1499033496738361,0.01709443802369424,0,0,0,-0.7,0,0,1422,1422,1597,1500,1500,1500
1747554745.3099391,-0.13,0.12,-0.08,-0.10799224746714914,0.631591023065448,0.19962203319685143,1.8663382081189621,0.08794154248385867,0.09855324465496539,0,0,0,-0.7,0,0,1422,1422,1597,1500,1500,1500
1747554745.4091153,-0.22,0.21,-0.05,-0.11780972450961724,0.6283185307179586,0.10471975511965978,1.8546910125031058,0.042607218699815076,0.18546521478777667,0,0,0,-0.7,0,0,1422,1422,1597,1500,1500,1500
1747554745.4951246,-0.22,0.21,-0.05,-0.11780972450961724,0.6283185307179586,0.10471975511965978,1.8546910125031058,0.042607218699815076,0.18546521478777667,0,0,0,-0.7,0,0,1422,1422,1597,1500,1500,1500
1747554745.5936687,-0.29,0.1,0.0,-0.12871803233458182,0.6130468997630083,0.020725784867432664,1.837578509159893,0.01198014961867876,0.27593942577107505,0,0,0,-0.7,0,0,1422,1422,1597,1500,1500,1500
1747554745.6942866,-0.29,0.1,0.0,-0.12871803233458182,0.6130468997630083,0.020725784867432664,1.837578509159893,0.01198014961867876,0.27593942577107505,0,0,0,-0.7,0,0,1422,1422,1597,1500,1500,1500
1747554745.793908,-0.2,0.09,0.01,-0.12980886311707826,0.5890486225480862,-0.05345070834232634,1.8189179941662164,-0.0034977492485032445,0.36086008097990135,0,0,0,-0.7,0,0,1422,1422,1597,1500,1500,1500
1747554745.8940413,-0.25,0.02,0.0,-0.13526301702956053,0.5683228376806536,-0.10362892433716332,1.7975162511292357,-0.008302411450194107,0.45108096029819683,0,0,0,-0.7,0,0,1422,1422,1597,1500,1500,1500
1747554745.978452,-0.25,0.02,0.0,-0.13526301702956053,0.5683228376806536,-0.10362892433716332,1.7975162511292357,-0.008302411450194107,0.45108096029819683,0,0,0,-0.7,0,0,1422,1422,1597,1500,1500,1500
1747554746.0796638,-0.1,0.14,-0.06,-0.12326387842209953,0.5737769915931359,-0.12217304763960307,1.7781229689487366,-0.0071545853644302375,0.5356466998295825,0,0,0,-0.7,0,0,1422,1422,1597,1500,1500,1500
1747554746.1767673,-0.1,0.14,-0.06,-0.12326387842209953,0.5737769915931359,-0.12217304763960307,1.7781229689487366,-0.0071545853644302375,0.5356466998295825,0,0,0,-0.7,0,0,1422,1422,1597,1500,1500,1500
1747554746.2600887,-0.14,0.08,-0.06,-0.11780972450961724,0.5803219762881145,-0.12544553998709243,1.7589154488162604,-0.0035274996003654795,0.6268719577595123,0,0,0,-0.7,0,0,1422,1422,1597,1500,1500,1500
1747554746.3603513,-0.2,0.09,0.01,-0.10253809355466686,0.5792311455056182,-0.136353847812057,1.7421551033039129,0.0023897536493371935,0.7187896391018447,0,0,0,-0.7,0,0,1422,1422,1597,1500,1500,1500
1747554746.460759,-0.2,0.09,0.01,-0.10253809355466686,0.5792311455056182,-0.136353847812057,1.7421551033039129,0.0023897536493371935,0.7187896391018447,0,-0.043231,0,-0.7,0,0,1422,1422,1597,1500,1500,1500
1747554746.5604558,-0.19,-0.02,0.03,-0.06435901616729091,0.5825036378531074,-0.14835298641951802,1.730985269322336,0.0107149445904358,0.8060317599501335,0,-12.5,0,0,0,0,1382,1382,1557,1500,1500,1500
1747554746.661597,-0.8200000000000001,-0.02,0.14,-0.04908738521234052,0.5988660995905544,-0.13962634015954636,1.7244093340787892,0.021083076512765926,0.9003559757810575,0,-12.5,0,0,0,0,1375,1377,1517,1500,1500,1500
1747554746.7444036,-0.8200000000000001,-0.02,0.14,-0.04908738521234052,0.5988660995905544,-0.13962634015954636,1.7244093340787892,0.021083076512765926,0.9003559757810575,0,-12.5,0,0,0,0,1375,1377,1477,1500,1500,1500
1747554746.8444138,-0.67,0.11,0.08,-0.09053895494720585,0.5715953300281429,-0.14508049407202864,1.714562335510764,0.0382344591264019,0.9942915702915609,0,-12.5,0,0,0,0,1375,1377,1437,1500,1500,1500
1747554746.94433,-0.67,0.11,0.08,-0.09053895494720585,0.5715953300281429,-0.14508049407202864,1.714562335510764,0.0382344591264019,0.9942915702915609,0,-12.5,0,0,0,0,1375,1377,1397,1500,1500,1500
1747554747.043723,-0.26,0.02,0.16,-0.12762720155208535,0.5366887449882564,-0.12326387842209953,1.701866116830236,0.057149236200265144,1.0816022625344102,0,-7.230915,0,0,0,0,1406,1408,1420,1500,1500,1500
1747554747.1390676,-0.05,0.04,0.01,-0.16907877128695067,0.4756022211684548,-0.07417649320975901,1.6839009271088825,0.06706956337756759,1.1576532104112025,0,0,0,0,0,0,1446,1448,1460,1500,1500,1500
1747554747.2321057,-0.05,0.04,0.01,-0.16907877128695067,0.4756022211684548,-0.07417649320975901,1.6839009271088825,0.06706956337756759,1.1576532104112025,0,0,-4.342105,0,0,0,1486,1488,1500,1500,1540,1460
1747554747.328317,0.29,-0.15,-0.1,-0.11562806294462433,0.2977968036215325,0.013089969389957472,1.6651902689744738,0.06608455267352649,1.2164151493648747,0,0,-7.5,0,0,0,1500,1500,1538,1500,1580,1420
1747554747.4282494,0.29,-0.15,-0.1,-0.11562806294462433,0.2977968036215325,0.013089969389957472,1.6651902689744738,0.06608455267352649,1.2164151493648747,0,0,-7.5,0,0,0,1500,1500,1538,1500,1599,1390
1747554747.5123732,0.43,-0.12,0.0,-0.05235987755982989,0.21707532571679475,0.07308566242726255,1.654724422364516,0.05455612258212855,1.2526122979752978,0,0,0,0,0,0,1500,1500,1500,1500,1559,1430
1747554747.6123893,0.1,-0.08,0.0,-0.05890486225480862,0.17562375598192942,0.08399397025222712,1.6466224870292165,0.03909587600678626,1.2824814480902862,0,0,0,0,0,0,1500,1500,1500,1500,1519,1470
1747554747.7113187,0.1,-0.08,0.0,-0.05890486225480862,0.17562375598192942,0.08399397025222712,1.6466224870292165,0.03909587600678626,1.2824814480902862,-3,0,0,0,0,0,1460,1540,1500,1460,1479,1430
1747554747.8143575,0.04,-0.04,0.12,-0.011999138607461015,0.10035643198967395,0.09272061651219876,1.6429624980550837,0.023725090354265756,1.3026679594039952,-3,0,0,0,0,0,1445,1550,1500,1420,1439,1426
1747554747.9103005,0.04,-0.04,0.12,-0.011999138607461015,0.10035643198967395,0.09272061651219876,1.6429624980550837,0.023725090354265756,1.3026679594039952,-3,0,0,0,0,0,1445,1550,1500,1402,1426,1426
1747554747.995063,0.12,0.1,-0.16,-0.02181661564992912,0.05345070834232634,0.11562806294462433,1.6427054655366107,0.006965917060006278,1.313386478963388,-3,0,0,0,0,0,1445,1550,1500,1402,1426,1426
1747554748.0942488,0.01,-0.07,0.23,-0.07526732399225546,0.002181661564992912,0.07963064712224129,1.636670629037833,-0.00811550733822856,1.3157623596400212,-3,0,0,0,0,0,1445,1550,1500,1402,1426,1426
1747554748.1949832,0.01,-0.07,0.23,-0.07526732399225546,0.002181661564992912,0.07963064712224129,1.636670629037833,-0.00811550733822856,1.3157623596400212,-3,0,0,0,0,0,1445,1550,1500,1402,1426,1426
1747554748.2949286,-0.02,-0.13,0.13,-0.04690572364734761,-0.02945243112740431,0.08508480103472356,1.6189462178284175,-0.018947557833232518,1.3135924064449678,-3,0,0,0,0,0,1445,1550,1500,1402,1426,1426
1747554748.3897426,-0.03,-0.16,0.04,0.001090830782496456,-0.05345070834232634,0.10471975511965978,1.6165644134102486,-0.03274572204623649,1.3075272703956686,-3,0,0,0,0,0,1445,1550,1500,1402,1426,1426
1747554748.4774668,-0.03,-0.16,0.04,0.001090830782496456,-0.05345070834232634,0.10471975511965978,1.6165644134102486,-0.03274572204623649,1.3075272703956686,-3,0,0,0,0,0,1445,1550,1500,1402,1426,1426
1747554748.5772877,-0.11,-0.12,-0.02,0.044724062082354694,-0.05999569303730508,0.11671889372712078,1.6193407186613573,-0.04918565951386059,1.2983656795268153,-3,0,0,0,0,0,1445,1550,1500,1402,1426,1426
1747554748.6773021,-0.11,-0.12,-0.02,0.044724062082354694,-0.05999569303730508,0.11671889372712078,1.6193407186613573,-0.04918565951386059,1.2983656795268153,-3,0,0,0,0,0,1445,1550,1500,1402,1426,1426
1747554748.760438,0.02,-0.05,-0.03,0.08617563181722002,-0.07308566242726255,0.12871803233458182,1.6304640840856874,-0.06792375799720297,1.2870283252782586,-3,0,0,0,0,0,1445,1550,1500,1402,1426,1426
1747554748.8616903,0.02,-0.05,-0.03,0.08617563181722002,-0.07308566242726255,0.12871803233458182,1.6304640840856874,-0.06792375799720297,1.2870283252782586,-3,0,0,0,0,0,1445,1550,1500,1402,1426,1426
1747554748.9602392,-0.01,-0.05,-0.05,0.10035643198967395,-0.09926560120717749,0.11671889372712078,1.6452136660910253,-0.08517238111698751,1.2733710038391193,-3,0,0,0,0,0,1445,1550,1500,1402,1426,1426
1747554749.0615962,0.08,-0.1,-0.12,0.11235557059713497,-0.10253809355466686,0.10144726277217041,1.6637220701327218,-0.1011340806112106,1.2564070524057862,-3,0,0,0,0,0,1445,1550,1500,1402,1426,1426
1747554749.1607282,0.08,-0.1,-0.12,0.11235557059713497,-0.10253809355466686,0.10144726277217041,1.6637220701327218,-0.1011340806112106,1.2564070524057862,-3,0,0,0,0,0,1445,1550,1500,1402,1426,1426
1747554749.2454236,-0.01,-0.05,-0.1,0.08399397025222712,-0.11453723216212788,0.0916297857297023,1.6811074280395986,-0.11443002598552002,1.2376772307801869,-3,0,0,0,0,0,1445,1550,1500,1402,1426,1426
1747554749.3452103,0.07,-0.04,-0.08,0.06435901616729091,-0.11453723216212788,0.0916297857297023,-1.6488917195187243,-1.5707963267948966,-1.1358223551583286,-3,0,0,0,0,0,1445,1550,1500,1402,1426,1426
1747554749.4443414,0.07,-0.04,-0.08,0.06435901616729091,-0.11453723216212788,0.0916297857297023,-1.6488917195187243,-1.5707963267948966,-1.1358223551583286,-3,0,0,0,0,0,1445,1550,1500,1402,1426,1426
1747554749.5443347,0.06,-0.03,-0.06,0.031634092692397225,-0.11780972450961724,0.09926560120717749,1.7049291233941686,-0.13822589617636655,1.198547688331376,-3,0,0,0,0,0,1445,1550,1500,1402,1426,1426
1747554749.6348357,0.04,-0.03,0.03,0.0,-0.12980886311707826,0.10144726277217041,1.7095662949545154,-0.14980675061871715,1.178327520363475,-3,0,0,0,0,0,1445,1550,1500,1402,1426,1426
1747554749.728265,0.04,-0.03,0.03,0.0,-0.12980886311707826,0.10144726277217041,1.7095662949545154,-0.14980675061871715,1.178327520363475,-3,0,0,0,0,0,1445,1550,1500,1402,1426,1426
1747554749.827709,-0.04,-0.09,-0.05,-0.006544984694978736,-0.1308996938995747,0.10799224746714914,1.7129960544336549,-0.16307826988252616,1.1560338283392417,-3,0,0,0,0,0,1445,1550,1500,1402,1426,1426
1747554749.9286723,-0.04,-0.09,-0.05,-0.006544984694978736,-0.1308996938995747,0.10799224746714914,1.7129960544336549,-0.16307826988252616,1.1560338283392417,-3,0,0,0,0,0,1445,1550,1500,1402,1426,1426
1747554750.0110703,-0.16,-0.12,0.0,-0.009817477042468103,-0.13526301702956053,0.10690141668465268,1.7169105571366567,-0.176770046474146,1.1331574274681309,-3,0,0,0,0,0,1445,1550,1500,1402,1426,1426
1747554750.111444,-0.16,-0.12,0.0,-0.009817477042468103,-0.13526301702956053,0.10690141668465268,1.7169105571366567,-0.176770046474146,1.1331574274681309,-3,0,0,0,0,0,1445,1550,1500,1402,1426,1426
1747554750.211331,-0.15,-0.13,-0.06,-0.02399827721492203,-0.1341721862470641,0.10581058590215622,1.7186741628594369,-0.18943684035000116,1.1113324302647343,-3,0,0,0,0,0,1445,1550,1500,1402,1426,1426
1747554750.310955,-0.12,-0.17,-0.1,-0.03381575425739013,-0.13853550937704992,0.10799224746714914,1.7186046203773846,-0.20292452198775138,1.0875513444015972,-3,0,0,0,0,0,1445,1550,1500,1402,1426,1426
1747554750.4110188,-0.12,-0.17,-0.1,-0.03381575425739013,-0.13853550937704992,0.10799224746714914,1.7186046203773846,-0.20292452198775138,1.0875513444015972,-3,0,0,0,0,0,1445,1550,1500,1402,1426,1426
1747554750.4951494,-0.03,-0.15,0.08,-0.04363323129985824,-0.1407171709420428,0.11235557059713497,1.717691906806188,-0.21670889196160123,1.0633430916367783,-3,0,0,0,0,0,1445,1550,1500,1402,1426,1426
1747554750.5949428,-0.05,-0.11,-0.13,-0.05345070834232634,-0.1407171709420428,0.11017390903214205,1.7155210953793507,-0.22953526620577971,1.0398243175973787,-3,0,0,0,0,0,1445,1550,1500,1402,1426,1426
1747554750.6948905,-0.05,-0.11,-0.13,-0.05345070834232634,-0.1407171709420428,0.11017390903214205,1.7155210953793507,-0.22953526620577971,1.0398243175973787,-3,0,0,0,0,0,1445,1550,1500,1402,1426,1426
1747554750.7944088,-0.08,-0.19,-0.08,-0.07308566242726255,-0.1505346479845109,0.10035643198967395,1.7115563949282648,-0.2426985659286423,1.0143288116001685,-3,0,0,0,0,0,1445,1550,1500,1402,1426,1426
1747554750.8897483,0.06,-0.14,-0.2,-0.08508480103472356,-0.15926129424448257,0.09381144729469522,1.7061615907003154,-0.25352448069649414,0.9894174235479016,-3,0,0,0,0,0,1445,1550,1500,1402,1426,1426
1747554750.9772918,0.06,-0.14,-0.2,-0.08508480103472356,-0.15926129424448257,0.09381144729469522,1.7061615907003154,-0.25352448069649414,0.9894174235479016,-3,0,0,0,0,0,1445,1550,1500,1402,1426,1426
1747554751.076957,-0.08,-0.16,-0.11,-0.08508480103472356,-0.17562375598192942,0.08835729338221293,1.7001842548895925,-0.26428494456702173,0.9611653891692163,-3,0,0,0,0,0,1445,1550,1500,1402,1426,1426
1747554751.17666,-0.08,-0.16,-0.11,-0.08508480103472356,-0.17562375598192942,0.08835729338221293,1.7001842548895925,-0.26428494456702173,0.9611653891692163,-3,0,0,0,0,0,1445,1550,1500,1402,1426,1426
1747554751.2612493,0.0,-0.18,-0.3,-0.08726646259971647,-0.18435040224190105,0.08726646259971647,1.695905838106475,-0.27459601205009315,0.9305583896083928,-3,0,0,0,0,0,1445,1550,1500,1402,1426,1426
1747554751.3600833,0.0,-0.18,-0.3,-0.08726646259971647,-0.18435040224190105,0.08726646259971647,1.695905838106475,-0.27459601205009315,0.9305583896083928,-3,0,0,0,0,0,1445,1550,1500,1402,1426,1426
1747554751.4601219,-0.09,-0.16,-0.11,-0.08944812416470939,-0.19416787928436915,0.08508480103472356,1.6935703489156015,-0.28472299785117144,0.8975585658392305,-3,0,0,0,0,0,1445,1550,1500,1402,1426,1426
1747554751.5609496,-0.2,-0.25,-0.09,-0.08944812416470939,-0.20725784867432664,0.07526732399225546,1.6922095704509834,-0.2936809572049032,0.8625939890102993,-3,0,0,0,0,0,1445,1550,1500,1402,1426,1426
1747554751.6611006,-0.2,-0.25,-0.09,-0.08944812416470939,-0.20725784867432664,0.07526732399225546,1.6922095704509834,-0.2936809572049032,0.8625939890102993,-3,0,0,0,0,0,1445,1550,1500,1402,1426,1426
1747554751.7438836,0.0,-0.19,-0.17,-0.08726646259971647,-0.22580197197676638,0.06654067773228381,1.6919052477414058,-0.30049986504225756,0.8276797375468363,-3,0,0,0,0,0,1445,1550,1500,1402,1426,1426
1747554751.839656,-0.1,-0.19,-0.26,-0.08726646259971647,-0.2378011105842274,0.05999569303730508,1.6924768813266182,-0.30641711706856,0.7884971420614251,-3,0,0,0,0,0,1445,1550,1500,1402,1426,1426
1747554751.9449072,-0.1,-0.19,-0.26,-0.08726646259971647,-0.2378011105842274,0.05999569303730508,1.6924768813266182,-0.30641711706856,0.7884971420614251,-3,0,0,0,0,0,1445,1550,1500,1402,1426,1426
1747554752.044399,0.01,-0.16,-0.15,-0.0916297857297023,-0.2454369260617026,0.044724062082354694,1.6931379205143593,-0.31053309893181474,0.7504281521208273,-3,0,0,0,0,0,1445,1550,1500,1402,1426,1426
1747554752.144817,0.01,-0.16,-0.15,-0.0916297857297023,-0.2454369260617026,0.044724062082354694,1.6931379205143593,-0.31053309893181474,0.7504281521208273,-3,0,0,0,0,0,1445,1550,1500,1402,1426,1426
1747554752.2438216,0.02,-0.1,-0.1,-0.08617563181722002,-0.2585268954516601,0.03490658503988659,1.694695477862409,-0.31251222290602143,0.7076891343779925,-3,0,0,0,0,0,1445,1550,1500,1402,1426,1426
1747554752.3447797,0.03,-0.21,-0.24,-0.09053895494720585,-0.26616271092913524,0.030543261909900768,1.6968781833427085,-0.3129926825877728,0.6665871692914586,-3,0,0,0,0,0,1445,1550,1500,1402,1426,1426
1747554752.4444351,0.03,-0.21,-0.24,-0.09053895494720585,-0.26616271092913524,0.030543261909900768,1.6968781833427085,-0.3129926825877728,0.6665871692914586,-3,0,0,0,0,0,1445,1550,1500,1402,1426,1426
1747554752.5395386,0.06,-0.17,-0.21,-0.07963064712224129,-0.2683443724941282,0.02399827721492203,1.6994542133508637,-0.31236792260411644,0.6219960760965193,-3,0,0,0,0,0,1445,1550,1500,1402,1426,1426
1747554752.6440487,0.0,-0.22,-0.12,-0.07635815477475191,-0.2814343418840856,0.020725784867432664,1.821100374587178,1.5707963267948966,-2.776538365788544,-3,0,0,0,0,0,1445,1550,1500,1402,1426,1426
1747554752.7452328,0.0,-0.22,-0.12,-0.07635815477475191,-0.2814343418840856,0.020725784867432664,1.821100374587178,1.5707963267948966,-2.776538365788544,-3,0,0,0,0,0,1445,1550,1500,1402,1426,1426
1747554752.844468,-0.03,-0.25,-0.26,-0.07744898555724837,-0.2945243112740431,0.017453292519943295,1.7078049483489905,-0.30828207090691817,0.5281383883535415,-3,0,0,0,0,0,1445,1550,1500,1402,1426,1426
1747554752.9440937,0.12,-0.16,-0.19,-0.08290313946973066,-0.3043417883165112,0.018544123302439753,1.7123182912336599,-0.3055780908864933,0.48163031770259485,-3,0,0,0,0,0,1445,1550,1500,1402,1426,1426
1747554753.0264988,0.12,-0.16,-0.19,-0.08290313946973066,-0.3043417883165112,0.018544123302439753,1.7123182912336599,-0.3055780908864933,0.48163031770259485,-3,0,0,0,0,0,1445,1550,1500,1402,1426,1426
1747554753.1270363,0.01,-0.16,-0.2,-0.07853981633974483,-0.3174317577064687,0.020725784867432664,1.7176928723336293,-0.3022877184341305,0.4305551796411209,-3,0,0,0,0,0,1445,1550,1500,1402,1426,1426
1747554753.2273636,0.01,-0.16,-0.2,-0.07853981633974483,-0.3174317577064687,0.020725784867432664,1.7176928723336293,-0.3022877184341305,0.4305551796411209,-3,0,0,0,0,0,1445,1550,1500,1402,1426,1426
1747554753.327595,0.07,-0.17,-0.15,-0.07635815477475191,-0.32179508083645453,0.019634954084936207,1.7237075760740184,-0.29932090565839337,0.38104481017248476,-3,0,0,0,0,0,1445,1550,1500,1402,1426,1426
1747554753.4268253,0.12,-0.19,-0.24,-0.07417649320975901,-0.34033920413889424,0.017453292519943295,1.7303463547717928,-0.29471409762718986,0.3267278315057275,-3,0,0,0,0,0,1445,1550,1500,1402,1426,1426
