time,ay,ax,az,gy,gx,gz,roll,pitch,yaw,cmd_fx,cmd_fy,cmd_fz,cmd_tx,cmd_ty,cmd_tz,pwm_1,pwm_2,pwm_3,pwm_4,pwm_5,pwm_6
1747550050.2418199,0.0,0.0,0.0,0.0,0.0,0.0,0.0,0.0,0.0,0,0,0,0,0,0,1500,1500,1500,1500,1500,1500
1747550050.336087,0.04,-0.01,-0.37,-0.002181661564992912,0.0,-0.001090830782496456,-0.007107986464408636,0.10197470960875626,-0.0003627158135866105,0,0,0,0,0,0,1500,1500,1500,1500,1500,1500
1747550050.4371,0.04,-0.01,-0.37,-0.002181661564992912,0.0,-0.001090830782496456,-0.007107986464408636,0.10197470960875626,-0.0003627158135866105,0,0,0,0,0,0,1500,1500,1500,1500,1500,1500
1747550050.5372121,0.01,0.0,-0.3,0.004363323129985824,0.002181661564992912,-0.002181661564992912,-0.007107986464408636,0.10197470960875626,-0.0003627158135866105,0,0,0,0,0,0,1500,1500,1500,1500,1500,1500
1747550050.6200454,0.01,0.0,-0.3,0.004363323129985824,0.002181661564992912,-0.002181661564992912,-0.007107986464408636,0.10197470960875626,-0.0003627158135866105,0,0,0,0,0,0,1500,1500,1500,1500,1500,1500
1747550050.7200458,0.04,-0.01,-0.35000000000000003,-0.001090830782496456,0.001090830782496456,0.002181661564992912,-0.007107986464408636,0.10197470960875626,-0.0003627158135866105,0,0,0,0,0,0,1500,1500,1500,1500,1500,1500
1747550050.820273,0.02,-0.02,-0.33,0.001090830782496456,-0.003272492347489368,-0.001090830782496456,-0.007107986464408636,0.10197470960875626,-0.0003627158135866105,0,0,0,0,0,0,1500,1500,1500,1500,1500,1500
1747550050.9211464,0.02,-0.02,-0.33,0.001090830782496456,-0.003272492347489368,-0.001090830782496456,-0.007107986464408636,0.10197470960875626,-0.0003627158135866105,0,0,0,0,0,0,1500,1500,1500,1500,1500,1500
1747550051.0204268,0.03,-0.02,-0.28,0.003272492347489368,0.002181661564992912,-0.001090830782496456,-0.007107986464408636,0.10197470960875626,-0.0003627158135866105,0,0,0,0,0,0,1500,1500,1500,1500,1500,1500
1747550051.1036613,0.04,0.0,-0.34,-0.002181661564992912,-0.00545415391248228,0.002181661564992912,-0.007107986464408636,0.10197470960875626,-0.0003627158135866105,0,0,0,0,0,0,1500,1500,1500,1500,1500,1500
1747550051.2036214,0.04,0.0,-0.34,-0.002181661564992912,-0.00545415391248228,0.002181661564992912,-0.007107986464408636,0.10197470960875626,-0.0003627158135866105,0,0,0,0,0,0,1500,1500,1500,1500,1500,1500
1747550051.303894,0.03,0.0,-0.29,0.0,0.006544984694978736,0.002181661564992912,-0.007107986464408636,0.10197470960875626,-0.0003627158135866105,0,0,0,0,0,0,1500,1500,1500,1500,1500,1500
1747550051.3870556,0.03,0.0,-0.29,0.0,0.006544984694978736,0.002181661564992912,-0.007107986464408636,0.10197470960875626,-0.0003627158135866105,0,0,0,0,0,0,1500,1500,1500,1500,1500,1500
1747550051.4872267,0.04,0.0,-0.36,0.001090830782496456,-0.002181661564992912,-0.002181661564992912,-0.007107986464408636,0.10197470960875626,-0.0003627158135866105,0,0,0,0,0,0,1500,1500,1500,1500,1500,1500
1747550051.5871558,0.04,0.0,-0.32,-0.003272492347489368,0.00545415391248228,-0.001090830782496456,-0.007107986464408636,0.10197470960875626,-0.0003627158135866105,0,0,0,0,0,0,1500,1500,1500,1500,1500,1500
1747550051.687072,0.04,0.0,-0.32,-0.003272492347489368,0.00545415391248228,-0.001090830782496456,-0.007107986464408636,0.10197470960875626,-0.0003627158135866105,0,0,0,0,0,0,1500,1500,1500,1500,1500,1500
1747550051.7870376,0.04,0.0,-0.35000000000000003,-0.001090830782496456,0.0,0.001090830782496456,-0.007107986464408636,0.10197470960875626,-0.0003627158135866105,0,0,0,0,0,0,1500,1500,1500,1500,1500,1500
1747550051.8700361,0.04,0.0,-0.35000000000000003,-0.001090830782496456,0.0,0.001090830782496456,-0.007107986464408636,0.10197470960875626,-0.0003627158135866105,0,0,0,0,0,0,1500,1500,1500,1500,1500,1500
1747550051.9692478,0.04,-0.02,-0.37,0.0,0.0,0.0,-0.007107986464408636,0.10197470960875626,-0.0003627158135866105,0,0,0,0,0,0,1500,1500,1500,1500,1500,1500
1747550052.0704134,0.04,0.0,-0.31,0.0,-0.002181661564992912,0.001090830782496456,-0.007107986464408636,0.10197470960875626,-0.0003627158135866105,0,0,0,0,0,0,1500,1500,1500,1500,1500,1500
1747550052.1700466,0.04,0.0,-0.31,0.0,-0.002181661564992912,0.001090830782496456,-0.007107986464408636,0.10197470960875626,-0.0003627158135866105,0,0,0,0,0,0,1500,1500,1500,1500,1500,1500
1747550052.2695477,0.04,0.0,-0.32,0.003272492347489368,-0.003272492347489368,0.002181661564992912,-0.007107986464408636,0.10197470960875626,-0.0003627158135866105,0,0,0,0,0,0,1500,1500,1500,1500,1500,1500
1747550052.3535948,0.04,0.0,-0.32,0.003272492347489368,-0.003272492347489368,0.002181661564992912,-0.007107986464408636,0.10197470960875626,-0.0003627158135866105,0,0,0,0,0,0,1500,1500,1500,1500,1500,1500
1747550052.4537723,0.03,0.02,-0.27,0.0,0.004363323129985824,0.001090830782496456,-0.007107986464408636,0.10197470960875626,-0.0003627158135866105,0,0,0,0,0,0,1500,1500,1500,1500,1500,1500
1747550052.5539427,0.05,-0.01,-0.35000000000000003,0.0,0.002181661564992912,0.001090830782496456,-0.007107986464408636,0.10197470960875626,-0.0003627158135866105,0,0,0,0,0,0,1500,1500,1500,1500,1500,1500
1747550052.6357768,0.05,-0.01,-0.35000000000000003,0.0,0.002181661564992912,0.001090830782496456,-0.007107986464408636,0.10197470960875626,-0.0003627158135866105,0,0,0,0,0,0,1500,1500,1500,1500,1500,1500
1747550052.7371235,0.03,0.0,-0.3,-0.003272492347489368,0.002181661564992912,0.001090830782496456,-0.007107986464408636,0.10197470960875626,-0.0003627158135866105,0,0,0,0,0,0,1500,1500,1500,1500,1500,1500
1747550052.8253827,0.04,-0.01,-0.36,0.0,0.0,-0.003272492347489368,-0.007107986464408636,0.10197470960875626,-0.0003627158135866105,0,0,0,0,0,0,1500,1500,1500,1500,1500,1500
1747550052.9198165,0.04,-0.01,-0.36,0.0,0.0,-0.003272492347489368,-0.007107986464408636,0.10197470960875626,-0.0003627158135866105,0,0,0,0,0,0,1500,1500,1500,1500,1500,1500
1747550053.0203905,0.03,0.0,-0.36,-0.001090830782496456,0.003272492347489368,0.0,-0.007107986464408636,0.10197470960875626,-0.0003627158135866105,0,0,0,0,0,0,1500,1500,1500,1500,1500,1500
1747550053.104126,0.03,0.0,-0.36,-0.001090830782496456,0.003272492347489368,0.0,-0.007107986464408636,0.10197470960875626,-0.0003627158135866105,0,0,0,0,0,0,1500,1500,1500,1500,1500,1500
1747550053.203858,0.03,-0.01,-0.31,0.004363323129985824,-0.001090830782496456,0.0,-0.007107986464408636,0.10197470960875626,-0.0003627158135866105,0,0,0,0,0,0,1500,1500,1500,1500,1500,1500
1747550053.2935512,0.02,-0.01,-0.26,-0.002181661564992912,-0.001090830782496456,-0.001090830782496456,-0.007107986464408636,0.10197470960875626,-0.0003627158135866105,0,0,0,0,0,0,1500,1500,1500,1500,1500,1500
1747550053.3871777,0.02,-0.01,-0.26,-0.002181661564992912,-0.001090830782496456,-0.001090830782496456,-0.007107986464408636,0.10197470960875626,-0.0003627158135866105,0,0,0,0,0,0,1500,1500,1500,1500,1500,1500
1747550053.4873605,0.06,-0.02,-0.29,-0.001090830782496456,0.001090830782496456,-0.001090830782496456,-0.007107986464408636,0.10197470960875626,-0.0003627158135866105,0,-0.221491,0,0,0,0,1500,1500,1500,1500,1500,1500
1747550053.5863578,0.06,-0.02,-0.29,-0.001090830782496456,0.001090830782496456,-0.001090830782496456,-0.007107986464408636,0.10197470960875626,-0.0003627158135866105,0,-12.5,0,0,0,0,1540,1540,1540,1500,1500,1500
1747550053.687432,0.03,-0.01,-0.37,0.0,0.0,0.0,-0.007107986464408636,0.10197470960875626,-0.0003627158135866105,0,-12.5,0,0,0,-0.000811,1577,1576,1567,1500,1500,1500
1747550053.7872815,0.04,0.0,-0.29,-0.003272492347489368,0.004363323129985824,0.001090830782496456,-0.007107986464408636,0.10197470960875626,-0.0003627158135866105,0,-12.5,0,0,0,-0.001789,1577,1576,1567,1500,1500,1500
1747550053.8708785,0.04,0.0,-0.29,-0.003272492347489368,0.004363323129985824,0.001090830782496456,-0.007107986464408636,0.10197470960875626,-0.0003627158135866105,0,-12.5,0,0,0,-0.002421,1577,1576,1567,1500,1500,1500
1747550053.9709182,0.07,0.2,-0.42,0.002181661564992912,-0.00545415391248228,0.001090830782496456,-0.0072367936128877215,0.10197426772898241,-0.0004915199818147453,0,-12.5,0,0,0,-0.003971,1577,1576,1567,1500,1500,1500
1747550054.0704622,0.07,0.2,-0.42,0.002181661564992912,-0.00545415391248228,0.001090830782496456,-0.0072367936128877215,0.10197426772898241,-0.0004915199818147453,0,-12.5,0,0,0,-0.003971,1577,1576,1567,1500,1500,1500
1747550054.1707973,0.02,-0.02,-0.26,0.002181661564992912,-0.001090830782496456,-0.001090830782496456,-0.0072367936128877215,0.10197426772898241,-0.0004915199818147453,0,-12.5,0,0,0,-0.003971,1577,1576,1567,1500,1500,1500
1747550054.269952,0.0,-0.04,-0.31,-0.004363323129985824,0.0,-0.001090830782496456,-0.0072367936128877215,0.10197426772898241,-0.0004915199818147453,0,-12.5,0,0,0,-0.003971,1577,1576,1567,1500,1500,1500
1747550054.3684833,0.0,-0.04,-0.31,-0.004363323129985824,0.0,-0.001090830782496456,-0.0072367936128877215,0.10197426772898241,-0.0004915199818147453,0,-12.5,0,0,0,-0.003971,1577,1576,1567,1500,1500,1500
1747550054.4700613,0.05,-0.01,-0.36,0.002181661564992912,0.0,-0.002181661564992912,-0.0072367936128877215,0.10197426772898241,-0.0004915199818147453,0,-12.5,0,0,0,-0.003971,1577,1576,1567,1500,1500,1500
1747550054.5595315,0.01,0.02,-0.33,-0.003272492347489368,-0.004363323129985824,-0.001090830782496456,-0.0072367936128877215,0.10197426772898241,-0.0004915199818147453,0,-12.5,0,0,0,-0.003971,1577,1576,1567,1500,1500,1500
1747550054.653873,0.01,0.02,-0.33,-0.003272492347489368,-0.004363323129985824,-0.001090830782496456,-0.0072367936128877215,0.10197426772898241,-0.0004915199818147453,0,-0.417013,0,0,0,0,1537,1536,1527,1500,1500,1500
1747550054.7544217,0.06,-0.04,-0.31,-0.003272492347489368,0.002181661564992912,0.003272492347489368,-0.0072367936128877215,0.10197426772898241,-0.0004915199818147453,0,0,0,0,0,0,1500,1500,1500,1500,1500,1500
1747550054.8370078,0.06,-0.04,-0.31,-0.003272492347489368,0.002181661564992912,0.003272492347489368,-0.0072367936128877215,0.10197426772898241,-0.0004915199818147453,0,0,0,0,0,0,1500,1500,1500,1500,1500,1500
1747550054.9377308,0.18,-0.24,-0.3,0.002181661564992912,0.0,-0.006544984694978736,-0.007120493588896058,0.10197384082820292,-0.0006078167069003972,0,0,0,0,0,0,1500,1500,1500,1500,1500,1500
1747550055.0372894,0.18,-0.24,-0.3,0.002181661564992912,0.0,-0.006544984694978736,-0.007120493588896058,0.10197384082820292,-0.0006078167069003972,0,0,0,0,0,0,1500,1500,1500,1500,1500,1500
1747550055.1208944,-0.04,0.05,-0.36,0.001090830782496456,-0.002181661564992912,0.001090830782496456,-0.007120493588896058,0.10197384082820292,-0.0006078167069003972,0,0,0,0,0,0,1500,1500,1500,1500,1500,1500
1747550055.2223487,0.01,-0.03,-0.29,0.001090830782496456,0.0,0.001090830782496456,-0.007120493588896058,0.10197384082820292,-0.0006078167069003972,0,12.5,0,0,0,0.009522,1460,1460,1460,1500,1500,1500
1747550055.3212814,0.01,-0.03,-0.29,0.001090830782496456,0.0,0.001090830782496456,-0.007120493588896058,0.10197384082820292,-0.0006078167069003972,0,12.5,0,0,0,0.010917,1420,1420,1425,1500,1500,1500
1747550055.4204497,0.02,-0.01,-0.35000000000000003,0.0,0.0,-0.001090830782496456,-0.007120493588896058,0.10197384082820292,-0.0006078167069003972,0,12.5,0,0,0,0.010917,1413,1415,1425,1500,1500,1500
1747550055.508968,0.12,0.06,-0.3,0.003272492347489368,-0.003272492347489368,0.002181661564992912,-0.007120493588896058,0.10197384082820292,-0.0006078167069003972,0,12.5,0,0,0,0.010917,1413,1415,1425,1500,1500,1500
1747550055.6039793,0.12,0.06,-0.3,0.003272492347489368,-0.003272492347489368,0.002181661564992912,-0.007120493588896058,0.10197384082820292,-0.0006078167069003972,0,12.5,0,0,0,0.010917,1413,1415,1425,1500,1500,1500
1747550055.703882,0.04,0.13,-0.37,0.003272492347489368,-0.003272492347489368,0.0,-0.007120493588896058,0.10197384082820292,-0.0006078167069003972,0,12.5,0,0,0,0.010917,1413,1415,1425,1500,1500,1500
1747550055.8037617,0.04,0.13,-0.37,0.003272492347489368,-0.003272492347489368,0.0,-0.007120493588896058,0.10197384082820292,-0.0006078167069003972,0,12.5,0,0,0,0.010917,1413,1415,1425,1500,1500,1500
1747550055.8873503,0.04,-0.03,-0.3,0.001090830782496456,0.001090830782496456,0.0,-0.007120493588896058,0.10197384082820292,-0.0006078167069003972,0,12.5,0,0,0,0.010917,1413,1415,1425,1500,1500,1500
1747550055.9823828,0.09,0.03,-0.3,0.002181661564992912,0.003272492347489368,0.0,-0.007120493588896058,0.10197384082820292,-0.0006078167069003972,0,12.5,0,0,0,0.010917,1413,1415,1425,1500,1500,1500
1747550056.069776,0.09,0.03,-0.3,0.002181661564992912,0.003272492347489368,0.0,-0.007120493588896058,0.10197384082820292,-0.0006078167069003972,0,0,0,0,0,0,1453,1455,1465,1500,1500,1500
1747550056.1697698,0.07,-0.12,-0.31,-0.002181661564992912,-0.006544984694978736,0.0,-0.007120493588896058,0.10197384082820292,-0.0006078167069003972,0,0,0,0,0,0,1493,1495,1500,1500,1500,1500
1747550056.2695632,0.07,-0.12,-0.31,-0.002181661564992912,-0.006544984694978736,0.0,-0.007120493588896058,0.10197384082820292,-0.0006078167069003972,0,0,0,0,0,0,1500,1500,1500,1500,1500,1500
1747550056.3531082,0.14,-0.09,-0.26,0.004363323129985824,-0.003272492347489368,-0.001090830782496456,-0.0069979401141746275,0.10197385580717733,-0.0006015629878015815,0,0,0,0,0,0,1500,1500,1500,1500,1500,1500
1747550056.4522238,0.11,-0.09,-0.33,-0.003272492347489368,-0.003272492347489368,0.001090830782496456,-0.0069979401141746275,0.10197385580717733,-0.0006015629878015815,0,0,0,0,0,0,1500,1500,1500,1500,1500,1500
1747550056.5534787,0.11,-0.09,-0.33,-0.003272492347489368,-0.003272492347489368,0.001090830782496456,-0.0069979401141746275,0.10197385580717733,-0.0006015629878015815,0,0,0,0,0,0,1500,1500,1500,1500,1500,1500
1747550056.6357882,0.06,-0.06,-0.33,-0.002181661564992912,0.002181661564992912,-0.001090830782496456,-0.0069979401141746275,0.10197385580717733,-0.0006015629878015815,0,0,0,0,0,0,1500,1500,1500,1500,1500,1500
1747550056.7370458,0.06,-0.06,-0.33,-0.002181661564992912,0.002181661564992912,-0.001090830782496456,-0.0069979401141746275,0.10197385580717733,-0.0006015629878015815,0,0,0,0,0,0,1500,1500,1500,1500,1500,1500
1747550056.8359482,0.03,0.02,-0.38,0.003272492347489368,-0.003272492347489368,0.0,-0.0069979401141746275,0.10197385580717733,-0.0006015629878015815,0,0,0,0,0,0,1500,1500,1500,1500,1500,1500
1747550056.9329455,0.04,-0.01,-0.33,0.003272492347489368,0.001090830782496456,0.002181661564992912,-0.0069979401141746275,0.10197385580717733,-0.0006015629878015815,0,0,0,0,0,0,1500,1500,1500,1500,1500,1500
1747550057.035778,0.04,-0.01,-0.33,0.003272492347489368,0.001090830782496456,0.002181661564992912,-0.0069979401141746275,0.10197385580717733,-0.0006015629878015815,0,0,0,0,0,0,1500,1500,1500,1500,1500,1500
1747550057.1205082,0.02,-0.02,-0.38,-0.003272492347489368,-0.004363323129985824,-0.001090830782496456,-0.0069979401141746275,0.10197385580717733,-0.0006015629878015815,0,0,0,0,0,0,1500,1500,1500,1500,1500,1500
1747550057.2198918,0.02,-0.02,-0.38,-0.003272492347489368,-0.004363323129985824,-0.001090830782496456,-0.0069979401141746275,0.10197385580717733,-0.0006015629878015815,0,0,0,0,0,0,1500,1500,1500,1500,1500,1500
1747550057.3204877,0.02,0.0,-0.31,0.006544984694978736,-0.001090830782496456,0.001090830782496456,-0.0069979401141746275,0.10197385580717733,-0.0006015629878015815,0,0,0,0,0,0,1500,1500,1500,1500,1500,1500
1747550057.420095,0.04,0.0,-0.36,0.0,-0.002181661564992912,-0.001090830782496456,-0.0069979401141746275,0.10197385580717733,-0.0006015629878015815,0,0,0,0,0,0,1500,1500,1500,1500,1500,1500
1747550057.5204234,0.04,0.0,-0.36,0.0,-0.002181661564992912,-0.001090830782496456,-0.0069979401141746275,0.10197385580717733,-0.0006015629878015815,0,0,0,0,0,0,1500,1500,1500,1500,1500,1500
1747550057.6034484,0.03,-0.01,-0.33,0.002181661564992912,-0.001090830782496456,0.0,-0.0069979401141746275,0.10197385580717733,-0.0006015629878015815,0,-0.125224,0,0,0,0,1500,1500,1500,1500,1500,1500
1747550057.7029924,0.03,-0.01,-0.33,0.002181661564992912,-0.001090830782496456,0.0,-0.0069979401141746275,0.10197385580717733,-0.0006015629878015815,0,-12.5,0,0,0,-0.032561,1540,1540,1540,1500,1500,1500
1747550057.8037248,0.04,0.0,-0.35000000000000003,0.0,-0.002181661564992912,0.001090830782496456,-0.0069979401141746275,0.10197385580717733,-0.0006015629878015815,0,-12.5,0,0,0,-0.032561,1580,1580,1580,1500,1500,1500
1747550057.88748,0.04,0.0,-0.34,-0.002181661564992912,-0.001090830782496456,-0.001090830782496456,-0.0069979401141746275,0.10197385580717733,-0.0006015629878015815,0,-12.5,0,0,0,-0.032561,1614,1611,1596,1500,1500,1500
1747550057.985617,0.04,0.0,-0.34,-0.002181661564992912,-0.001090830782496456,-0.001090830782496456,-0.0069979401141746275,0.10197385580717733,-0.0006015629878015815,0,-12.5,0,0,0,-0.032561,1614,1611,1596,1500,1500,1500
1747550058.08757,0.2,0.0,-0.47000000000000003,0.019634954084936207,0.001090830782496456,-0.00545415391248228,-0.006630280306026072,0.10197390074410068,-0.000582801830224772,0,-12.5,0,0,0,-0.032561,1614,1611,1596,1500,1500,1500
1747550058.1871831,0.2,0.0,-0.47000000000000003,0.019634954084936207,0.001090830782496456,-0.00545415391248228,-0.006630280306026072,0.10197390074410068,-0.000582801830224772,0,-12.5,0,0,0,-0.032561,1614,1611,1596,1500,1500,1500
1747550058.2874594,0.06,-0.11,-0.4,-0.003272492347489368,-0.004363323129985824,-0.004363323129985824,-0.00687538674333962,0.10197387078615175,-0.0005953092686557125,0,-12.5,0,0,0,-0.032561,1614,1611,1596,1500,1500,1500
1747550058.3707252,0.05,-0.01,-0.28,-0.00545415391248228,-0.001090830782496456,0.0,-0.006630280306026072,0.10197390074410068,-0.000582801830224772,0,-12.5,0,0,0,-0.032561,1614,1611,1596,1500,1500,1500
1747550058.4699988,0.05,-0.01,-0.28,-0.00545415391248228,-0.001090830782496456,0.0,-0.006630280306026072,0.10197390074410068,-0.000582801830224772,0,-12.5,0,0,0,-0.032561,1614,1611,1596,1500,1500,1500
1747550058.5702534,0.03,-0.02,-0.37,0.003272492347489368,0.0,0.0,-0.006752833474565337,0.1019738857651262,-0.0005890555494632797,0,-12.5,0,0,0,-0.032561,1614,1611,1596,1500,1500,1500
1747550058.6697242,0.11,-0.05,-0.24,-0.001090830782496456,0.00545415391248228,0.0,-0.006752833474565337,0.1019738857651262,-0.0005890555494632797,0,-12.5,0,0,0,-0.032561,1614,1611,1596,1500,1500,1500
1747550058.7697027,0.11,-0.05,-0.24,-0.001090830782496456,0.00545415391248228,0.0,-0.006752833474565337,0.1019738857651262,-0.0005890555494632797,0,-12.5,0,0,0,-0.032561,1614,1611,1596,1500,1500,1500
1747550058.8535593,0.06,-0.02,-0.31,-0.002181661564992912,-0.003272492347489368,0.0,-0.006752833474565337,0.1019738857651262,-0.0005890555494632797,0,-0.992096,0,0,0,0,1574,1571,1556,1500,1500,1500
1747550058.953572,0.06,-0.02,-0.31,-0.002181661564992912,-0.003272492347489368,0.0,-0.006752833474565337,0.1019738857651262,-0.0005890555494632797,0,0,0,0,0,0,1534,1531,1516,1500,1500,1500
1747550059.053068,0.05,-0.34,-0.35000000000000003,0.004363323129985824,-0.002181661564992912,-0.00545415391248228,-0.00687538674333962,0.10197387078615175,-0.0005953092686557125,0,0,0,0,0,0,1500,1500,1500,1500,1500,1500
1747550059.1359358,0.05,-0.34,-0.35000000000000003,0.004363323129985824,-0.002181661564992912,-0.00545415391248228,-0.00687538674333962,0.10197387078615175,-0.0005953092686557125,0,0,0,0,0,0,1500,1500,1500,1500,1500,1500
1747550059.235857,0.12,-0.25,-0.23,-0.004363323129985824,0.001090830782496456,-0.00545415391248228,-0.006746671819398435,0.10209684894038686,-0.00046692286775181093,0,0,0,0,0,0,1500,1500,1500,1500,1500,1500
1747550059.3358805,0.02,0.11,-0.34,0.00545415391248228,0.00545415391248228,-0.003272492347489368,-0.006746671819398435,0.10209684894038686,-0.00046692286775181093,0,8.037256,0,0,0,0,1460,1460,1460,1500,1500,1500
1747550059.4358294,0.02,0.11,-0.34,0.00545415391248228,0.00545415391248228,-0.003272492347489368,-0.006746671819398435,0.10209684894038686,-0.00046692286775181093,0,12.5,0,0,0,0.000216,1420,1420,1420,1500,1500,1500
1747550059.5372179,0.07,-0.05,-0.29,0.003272492347489368,-0.001090830782496456,-0.001090830782496456,-0.006746671819398435,0.10209684894038686,-0.00046692286775181093,0,12.5,0,0,0,0.000216,1380,1380,1391,1500,1500,1500
1747550059.6202028,0.12,0.11,-0.49,0.003272492347489368,0.002181661564992912,0.006544984694978736,-0.006746671819398435,0.10209684894038686,-0.00046692286775181093,0,12.5,0,0,0,0.000216,1369,1372,1391,1500,1500,1500
1747550059.7199872,0.12,0.11,-0.49,0.003272492347489368,0.002181661564992912,0.006544984694978736,-0.006746671819398435,0.10209684894038686,-0.00046692286775181093,0,12.5,0,0,0,0.000216,1369,1372,1391,1500,1500,1500
1747550059.8200746,-0.21,0.23,-0.35000000000000003,-0.009817477042468103,-0.002181661564992912,0.01090830782496456,-0.006611594808849769,0.10209766530480732,-0.00021555760590975738,0,12.5,0,0,0,0.000216,1369,1372,1391,1500,1500,1500
1747550059.9199927,-0.21,0.23,-0.35000000000000003,-0.009817477042468103,-0.002181661564992912,0.01090830782496456,-0.006611594808849769,0.10209766530480732,-0.00021555760590975738,0,12.5,0,0,0,0.000216,1369,1372,1391,1500,1500,1500
1747550060.0196636,0.11,0.06,-0.31,0.003272492347489368,0.004363323129985824,-0.001090830782496456,-0.006617855960678979,0.10209726086737947,-0.00033810959550440974,0,12.5,0,0,0,0.000216,1369,1372,1391,1500,1500,1500
1747550060.1040986,0.03,0.0,-0.34,0.0,0.002181661564992912,0.0,-0.006617855960678979,0.10209726086737947,-0.00033810959550440974,0,12.5,0,0,0,0.000216,1369,1372,1391,1500,1500,1500
1747550060.2037575,0.03,0.0,-0.34,0.0,0.002181661564992912,0.0,-0.006617855960678979,0.10209726086737947,-0.00033810959550440974,0,12.5,0,0,0,0.000216,1369,1372,1391,1500,1500,1500
1747550060.303267,0.04,-0.02,-0.33,-0.001090830782496456,-0.001090830782496456,0.0,-0.006617855960678979,0.10209726086737947,-0.00033810959550440974,0,12.5,0,0,0,0.000216,1369,1372,1391,1500,1500,1500
1747550060.3865144,0.04,-0.02,-0.33,-0.001090830782496456,-0.001090830782496456,0.0,-0.006617855960678979,0.10209726086737947,-0.00033810959550440974,0,1.658957,0,0,0,0,1409,1412,1431,1500,1500,1500
1747550060.4863186,0.02,-0.14,-0.28,-0.001090830782496456,0.0,0.001090830782496456,-0.006617855960678979,0.10209726086737947,-0.00033810959550440974,0,0,0,0,0,0,1449,1452,1471,1500,1500,1500
1747550060.5863836,0.04,0.01,-0.35000000000000003,0.00545415391248228,0.003272492347489368,-0.00545415391248228,-0.006617855960678979,0.10209726086737947,-0.00033810959550440974,0,0,0,0,0,0,1489,1492,1500,1500,1500,1500
1747550060.68583,0.04,0.01,-0.35000000000000003,0.00545415391248228,0.003272492347489368,-0.00545415391248228,-0.006617855960678979,0.10209726086737947,-0.00033810959550440974,0,0,0,0,0,0,1500,1500,1500,1500,1500,1500
1747550060.7873533,-0.16,0.2,-0.33,-0.001090830782496456,0.003272492347489368,0.007635815477475192,-0.006624117111989313,0.10209685642996838,-0.00046066158000753024,0,0,0,0,0,0,1500,1500,1500,1500,1500,1500
1747550060.8701613,-0.16,0.2,-0.33,-0.001090830782496456,0.003272492347489368,0.007635815477475192,-0.006624117111989313,0.10209685642996838,-0.00046066158000753024,0,0,0,0,0,0,1500,1500,1500,1500,1500,1500
1747550060.9706354,0.0,0.07,-0.35000000000000003,0.003272492347489368,0.001090830782496456,-0.001090830782496456,-0.006624117111989313,0.10209685642996838,-0.00046066158000753024,0,0,0,0,0,0,1500,1500,1500,1500,1500,1500
1747550061.0697558,0.02,-0.03,-0.37,0.0,-0.001090830782496456,-0.001090830782496456,-0.006624117111989313,0.10209685642996838,-0.00046066158000753024,0,0,0,0,0,0,1500,1500,1500,1500,1500,1500
1747550061.170336,0.02,-0.03,-0.37,0.0,-0.001090830782496456,-0.001090830782496456,-0.006624117111989313,0.10209685642996838,-0.00046066158000753024,0,0,0,0,0,0,1500,1500,1500,1500,1500,1500
1747550061.2705445,0.04,-0.02,-0.3,-0.003272492347489368,-0.003272492347489368,0.0,-0.006624117111989313,0.10209685642996838,-0.00046066158000753024,0,0,0,0,0,0,1500,1500,1500,1500,1500,1500
1747550061.3533857,0.04,-0.02,-0.3,-0.003272492347489368,-0.003272492347489368,0.0,-0.006624117111989313,0.10209685642996838,-0.00046066158000753024,0,0,0,0,0,0,1500,1500,1500,1500,1500,1500
1747550061.4541101,0.04,0.0,-0.34,0.003272492347489368,0.002181661564992912,0.001090830782496456,-0.006624117111989313,0.10209685642996838,-0.00046066158000753024,0,0,0,0,0,0,1500,1500,1500,1500,1500,1500
1747550061.5535078,0.04,-0.02,-0.29,0.002181661564992912,-0.001090830782496456,0.001090830782496456,-0.006624117111989313,0.10209685642996838,-0.00046066158000753024,0,0,0,0,0,0,1500,1500,1500,1500,1500,1500
1747550061.637118,0.04,-0.02,-0.29,0.002181661564992912,-0.001090830782496456,0.001090830782496456,-0.006624117111989313,0.10209685642996838,-0.00046066158000753024,0,0,0,0,0,0,1500,1500,1500,1500,1500,1500
1747550061.7363966,0.05,-0.02,-0.38,-0.001090830782496456,0.004363323129985824,0.0,-0.006624117111989313,0.10209685642996838,-0.00046066158000753024,0,0,0,0,0,0,1500,1500,1500,1500,1500,1500
1747550061.8262315,0.06,-0.01,-0.32,-0.001090830782496456,0.003272492347489368,0.002181661564992912,-0.006624117111989313,0.10209685642996838,-0.00046066158000753024,0,0,0,0,0,0,1500,1500,1500,1500,1500,1500
1747550061.919882,0.06,-0.01,-0.32,-0.001090830782496456,0.003272492347489368,0.002181661564992912,-0.006624117111989313,0.10209685642996838,-0.00046066158000753024,0,0,0,0,0,0,1500,1500,1500,1500,1500,1500
1747550062.0198946,0.04,-0.01,-0.32,-0.002181661564992912,0.001090830782496456,-0.001090830782496456,-0.006624117111989313,0.10209685642996838,-0.00046066158000753024,0,0,0,0,0,0,1500,1500,1500,1500,1500,1500
1747550062.1035607,0.04,-0.01,-0.32,-0.002181661564992912,0.001090830782496456,-0.001090830782496456,-0.006624117111989313,0.10209685642996838,-0.00046066158000753024,0,0,0,0,0,0,1500,1500,1500,1500,1500,1500
1747550062.203432,0.02,0.0,-0.34,0.001090830782496456,-0.002181661564992912,0.001090830782496456,-0.006624117111989313,0.10209685642996838,-0.00046066158000753024,0,0,0,0,0,0,1500,1500,1500,1500,1500,1500
1747550062.3000836,0.03,-0.02,-0.32,0.001090830782496456,0.004363323129985824,-0.001090830782496456,-0.006624117111989313,0.10209685642996838,-0.00046066158000753024,0,0,0,0,0,0,1500,1500,1500,1500,1500,1500
1747550062.3871183,0.03,-0.02,-0.32,0.001090830782496456,0.004363323129985824,-0.001090830782496456,-0.006624117111989313,0.10209685642996838,-0.00046066158000753024,0,0,0,0,0,0,1500,1500,1500,1500,1500,1500
1747550062.486136,0.02,-0.02,-0.33,0.0,-0.001090830782496456,0.0,-0.006624117111989313,0.10209685642996838,-0.00046066158000753024,0,0,0,0,0,0,1500,1500,1500,1500,1500,1500
1747550062.5856588,0.02,-0.02,-0.33,0.0,-0.001090830782496456,0.0,-0.006624117111989313,0.10209685642996838,-0.00046066158000753024,0,0,0,0,0,0,1500,1500,1500,1500,1500,1500
1747550062.6871777,0.01,0.0,-0.3,0.002181661564992912,0.0,-0.001090830782496456,-0.006624117111989313,0.10209685642996838,-0.00046066158000753024,0,0,0,0,0,0,1500,1500,1500,1500,1500,1500
1747550062.7872093,0.06,0.0,-0.37,0.002181661564992912,0.0,0.0,-0.006624117111989313,0.10209685642996838,-0.00046066158000753024,0,0,0,0,0,0,1500,1500,1500,1500,1500,1500
1747550062.8699512,0.06,0.0,-0.37,0.002181661564992912,0.0,0.0,-0.006624117111989313,0.10209685642996838,-0.00046066158000753024,0,0,0,0,0,0,1500,1500,1500,1500,1500,1500
1747550062.972269,0.02,-0.01,-0.33,0.0,-0.001090830782496456,-0.001090830782496456,-0.006624117111989313,0.10209685642996838,-0.00046066158000753024,0,-0.169949,0,0,0,0,1500,1500,1500,1500,1500,1500
1747550063.0764885,0.02,-0.01,-0.33,0.0,-0.001090830782496456,-0.001090830782496456,-0.006624117111989313,0.10209685642996838,-0.00046066158000753024,0,-0.194868,0,0,0,0,1500,1500,1500,1500,1500,1500
1747550063.1708848,0.04,0.0,-0.39,0.002181661564992912,-0.002181661564992912,-0.002181661564992912,-0.006624117111989313,0.10209685642996838,-0.00046066158000753024,0,-0.345023,0,0,0,0,1500,1500,1500,1500,1500,1500
1747550063.2716887,0.01,0.0,-0.28,0.001090830782496456,0.001090830782496456,0.0,-0.006624117111989313,0.10209685642996838,-0.00046066158000753024,0,-0.380166,0,0,0,0,1500,1500,1500,1500,1500,1500
1747550063.35493,0.01,0.0,-0.28,0.001090830782496456,0.001090830782496456,0.0,-0.006624117111989313,0.10209685642996838,-0.00046066158000753024,0,-1.511811,0,0,0,0,1540,1540,1540,1500,1500,1500
1747550063.4534047,0.01,0.0,-0.33,0.001090830782496456,0.0,-0.001090830782496456,-0.006624117111989313,0.10209685642996838,-0.00046066158000753024,0,-1.892014,0,0,0,0,1548,1548,1544,1500,1500,1500
1747550063.5537193,0.01,0.0,-0.33,0.001090830782496456,0.0,-0.001090830782496456,-0.006624117111989313,0.10209685642996838,-0.00046066158000753024,0,-1.892014,0,0,0,0,1548,1548,1544,1500,1500,1500
1747550063.6371412,0.05,-0.02,-0.36,0.001090830782496456,-0.001090830782496456,0.003272492347489368,-0.006624117111989313,0.10209685642996838,-0.00046066158000753024,0,-1.892014,0,0,0,0,1548,1548,1544,1500,1500,1500
1747550063.7369475,0.18,-0.23,-0.36,-0.003272492347489368,-0.00545415391248228,-0.002181661564992912,-0.006746671819398435,0.10209684894038686,-0.00046692286775181093,0,-1.892014,0,0,0,0,1548,1548,1544,1500,1500,1500
1747550063.8369935,0.18,-0.23,-0.36,-0.003272492347489368,-0.00545415391248228,-0.002181661564992912,-0.006746671819398435,0.10209684894038686,-0.00046692286775181093,0,-1.892014,0,0,0,0,1548,1548,1544,1500,1500,1500
1747550063.9357607,0.07,-0.02,-0.33,0.001090830782496456,0.002181661564992912,0.0,-0.006624117111989313,0.10209685642996838,-0.00046066158000753024,0,-1.892014,0,0,0,0,1548,1548,1544,1500,1500,1500
1747550064.0356836,0.07,-0.02,-0.33,0.001090830782496456,0.002181661564992912,0.0,-0.006624117111989313,0.10209685642996838,-0.00046066158000753024,0,-1.304137,0,0,0,0,1543,1542,1504,1500,1500,1500
1747550064.1204875,0.03,0.0,-0.32,0.006544984694978736,0.001090830782496456,-0.001090830782496456,-0.006624117111989313,0.10209685642996838,-0.00046066158000753024,0,-1.304137,0,0,0,0,1543,1542,1500,1500,1500,1500
1747550064.220433,0.0,-0.11,-0.35000000000000003,-0.002181661564992912,0.0,0.001090830782496456,-0.006624117111989313,0.10209685642996838,-0.00046066158000753024,0,-1.304137,0,0,0,0,1543,1542,1500,1500,1500,1500
1747550064.3200438,0.0,-0.11,-0.35000000000000003,-0.002181661564992912,0.0,0.001090830782496456,-0.006624117111989313,0.10209685642996838,-0.00046066158000753024,0,-1.174209,0,0,0,0,1542,1541,1500,1500,1500,1500
1747550064.4206853,0.0,0.0,-0.29,0.001090830782496456,0.003272492347489368,0.001090830782496456,-0.006624117111989313,0.10209685642996838,-0.00046066158000753024,0,-0.49582,0,0,0,0,1502,1501,1500,1500,1500,1500
1747550064.519339,0.0,0.03,-0.38,0.0,0.001090830782496456,0.0,-0.006624117111989313,0.10209685642996838,-0.00046066158000753024,0,-0.49582,0,0,0,0,1500,1500,1500,1500,1500,1500
1747550064.604111,0.0,0.03,-0.38,0.0,0.001090830782496456,0.0,-0.006624117111989313,0.10209685642996838,-0.00046066158000753024,0,-0.49582,0,0,0,0,1500,1500,1500,1500,1500,1500
1747550064.7039714,0.05,-0.02,-0.36,0.004363323129985824,-0.002181661564992912,-0.002181661564992912,-0.006624117111989313,0.10209685642996838,-0.00046066158000753024,0,-0.49582,0,0,0,0,1500,1500,1500,1500,1500,1500
1747550064.8034325,0.05,-0.02,-0.36,0.004363323129985824,-0.002181661564992912,-0.002181661564992912,-0.006624117111989313,0.10209685642996838,-0.00046066158000753024,0,-0.49582,0,0,0,0,1500,1500,1500,1500,1500,1500
1747550064.8873339,0.03,-0.04,-0.33,-0.003272492347489368,-0.001090830782496456,0.0,-0.006624117111989313,0.10209685642996838,-0.00046066158000753024,0,-0.49582,0,0,0,0,1500,1500,1500,1500,1500,1500
1747550064.9813375,0.04,-0.01,-0.35000000000000003,0.0,0.004363323129985824,0.0,-0.006624117111989313,0.10209685642996838,-0.00046066158000753024,0,-0.49582,0,0,0,0,1500,1500,1500,1500,1500,1500
1747550065.0856292,0.04,-0.01,-0.35000000000000003,0.0,0.004363323129985824,0.0,-0.006624117111989313,0.10209685642996838,-0.00046066158000753024,0,-0.49582,0,0,0,0,1500,1500,1500,1500,1500,1500
1747550065.1870427,0.05,0.0,-0.34,0.002181661564992912,-0.001090830782496456,0.001090830782496456,-0.006624117111989313,0.10209685642996838,-0.00046066158000753024,0,-0.934801,0,0,0,0,1500,1500,1500,1500,1500,1500
1747550065.287279,0.05,0.0,-0.34,0.002181661564992912,-0.001090830782496456,0.001090830782496456,-0.006624117111989313,0.10209685642996838,-0.00046066158000753024,0,-1.238321,0,0,0,0,1540,1540,1500,1500,1500,1500
1747550065.357363,0.06,0.0,-0.36,-0.001090830782496456,-0.001090830782496456,0.0,-0.006624117111989313,0.10209685642996838,-0.00046066158000753024,0,-1.304137,0,0,0,0,1543,1542,1500,1500,1500,1500
1747550065.3695612,0.06,0.0,-0.36,-0.001090830782496456,-0.001090830782496456,0.0,-0.006624117111989313,0.10209685642996838,-0.00046066158000753024,0,-1.304137,0,0,0,0,1543,1542,1500,1500,1500,1500
1747550065.453185,0.03,-0.01,-0.28,0.003272492347489368,0.002181661564992912,-0.001090830782496456,-0.006624117111989313,0.10209685642996838,-0.00046066158000753024,0,-1.304137,0,0,0,0,1543,1542,1500,1500,1500,1500
1747550065.4707832,0.03,-0.01,-0.28,0.003272492347489368,0.002181661564992912,-0.001090830782496456,-0.006624117111989313,0.10209685642996838,-0.00046066158000753024,0,-1.304137,0,0,0,0,1543,1542,1500,1500,1500,1500
1747550065.5537293,0.0,-0.06,-0.35000000000000003,-0.002181661564992912,-0.003272492347489368,0.001090830782496456,-0.006624117111989313,0.10209685642996838,-0.00046066158000753024,0,-1.371658,0,0,0,0,1544,1543,1500,1500,1500,1500
1747550065.5701215,0.0,-0.06,-0.35000000000000003,-0.002181661564992912,-0.003272492347489368,0.001090830782496456,-0.006624117111989313,0.10209685642996838,-0.00046066158000753024,0,-1.371658,0,0,0,0,1544,1543,1500,1500,1500,1500
1747550065.6373332,0.17,-0.05,-0.31,0.002181661564992912,0.0,-0.003272492347489368,-0.006624117111989313,0.10209685642996838,-0.00046066158000753024,0,-1.371658,0,0,0,0,1544,1543,1500,1500,1500,1500
1747550065.6705363,0.17,-0.05,-0.31,0.002181661564992912,0.0,-0.003272492347489368,-0.006624117111989313,0.10209685642996838,-0.00046066158000753024,0,-1.371658,0,0,0,0,1544,1543,1500,1500,1500,1500
1747550065.7346811,0.08,0.03,-0.33,-0.001090830782496456,0.0,0.001090830782496456,-0.006624117111989313,0.10209685642996838,-0.00046066158000753024,0,-1.371658,0,0,0,0,1544,1543,1500,1500,1500,1500
1747550065.7703314,0.08,0.03,-0.33,-0.001090830782496456,0.0,0.001090830782496456,-0.006624117111989313,0.10209685642996838,-0.00046066158000753024,0,-1.371658,0,0,0,0,1544,1543,1500,1500,1500,1500
1747550065.8359406,0.08,0.03,-0.33,-0.001090830782496456,0.0,0.001090830782496456,-0.006624117111989313,0.10209685642996838,-0.00046066158000753024,0,-1.371658,0,0,0,0,1544,1543,1500,1500,1500,1500
1747550065.8534129,0.03,-0.03,-0.31,0.001090830782496456,0.0,-0.001090830782496456,-0.006624117111989313,0.10209685642996838,-0.00046066158000753024,0,-1.371658,0,0,0,0,1544,1543,1500,1500,1500,1500
1747550065.935783,0.04,-0.01,-0.34,0.001090830782496456,-0.002181661564992912,0.001090830782496456,-0.006624117111989313,0.10209685642996838,-0.00046066158000753024,0,-1.371658,0,0,0,0,1544,1543,1500,1500,1500,1500
1747550065.9527657,0.04,-0.01,-0.34,0.001090830782496456,-0.002181661564992912,0.001090830782496456,-0.006624117111989313,0.10209685642996838,-0.00046066158000753024,0,-1.371658,0,0,0,0,1544,1543,1500,1500,1500,1500
1747550066.0360174,0.01,-0.03,-0.29,0.0,-0.001090830782496456,0.001090830782496456,-0.006624117111989313,0.10209685642996838,-0.00046066158000753024,0,-1.371658,0,0,0,0,1544,1543,1500,1500,1500,1500
1747550066.0531836,0.01,-0.03,-0.29,0.0,-0.001090830782496456,0.001090830782496456,-0.006624117111989313,0.10209685642996838,-0.00046066158000753024,0,-1.371658,0,0,0,0,1544,1543,1500,1500,1500,1500
1747550066.1204467,0.03,-0.01,-0.27,-0.001090830782496456,0.003272492347489368,-0.001090830782496456,-0.006624117111989313,0.10209685642996838,-0.00046066158000753024,0,-1.371658,0,0,0,0,1544,1543,1500,1500,1500,1500
1747550066.135701,0.03,-0.01,-0.27,-0.001090830782496456,0.003272492347489368,-0.001090830782496456,-0.006624117111989313,0.10209685642996838,-0.00046066158000753024,0,-1.371658,0,0,0,0,1544,1543,1500,1500,1500,1500
1747550066.2201662,0.05,0.0,-0.37,0.002181661564992912,0.0,-0.003272492347489368,-0.006624117111989313,0.10209685642996838,-0.00046066158000753024,0,-1.371658,0,0,0,0,1544,1543,1500,1500,1500,1500
1747550066.2372737,0.05,0.0,-0.37,0.002181661564992912,0.0,-0.003272492347489368,-0.006624117111989313,0.10209685642996838,-0.00046066158000753024,0,-1.371658,0,0,0,0,1544,1543,1500,1500,1500,1500
1747550066.3198302,0.05,0.0,-0.37,0.002181661564992912,0.0,-0.003272492347489368,-0.006624117111989313,0.10209685642996838,-0.00046066158000753024,0,-1.371658,0,0,0,0,1544,1543,1500,1500,1500,1500
1747550066.320832,0.05,0.0,-0.37,0.002181661564992912,0.0,-0.003272492347489368,-0.006624117111989313,0.10209685642996838,-0.00046066158000753024,0,-1.371658,0,0,0,0,1544,1543,1500,1500,1500,1500
1747550066.420411,0.02,-0.02,-0.31,-0.001090830782496456,-0.001090830782496456,-0.001090830782496456,-0.006624117111989313,0.10209685642996838,-0.00046066158000753024,0,-1.440882,0,0,0,0,1544,1544,1540,1500,1500,1500
1747550066.420411,0.02,-0.02,-0.31,-0.001090830782496456,-0.001090830782496456,-0.001090830782496456,-0.006624117111989313,0.10209685642996838,-0.00046066158000753024,0,-1.440882,0,0,0,0,1544,1544,1540,1500,1500,1500
1747550066.5209436,0.03,-0.01,-0.39,0.002181661564992912,0.002181661564992912,-0.001090830782496456,-0.006624117111989313,0.10209685642996838,-0.00046066158000753024,0,-1.511811,0,0,0,0,1545,1545,1541,1500,1500,1500
1747550066.5209436,0.03,-0.01,-0.39,0.002181661564992912,0.002181661564992912,-0.001090830782496456,-0.006624117111989313,0.10209685642996838,-0.00046066158000753024,0,-1.511811,0,0,0,0,1545,1545,1541,1500,1500,1500
1747550066.6035845,0.01,0.0,-0.36,-0.001090830782496456,0.001090830782496456,0.002181661564992912,-0.006624117111989313,0.10209685642996838,-0.00046066158000753024,0,-1.511811,0,0,0,0,1545,1545,1541,1500,1500,1500
1747550066.604581,0.01,0.0,-0.36,-0.001090830782496456,0.001090830782496456,0.002181661564992912,-0.006624117111989313,0.10209685642996838,-0.00046066158000753024,0,-1.511811,0,0,0,0,1545,1545,1541,1500,1500,1500
1747550066.703736,-0.18,-0.09,-0.29,0.003272492347489368,-0.002181661564992912,-0.00545415391248228,-0.006624117111989313,0.10209685642996838,-0.00046066158000753024,0,-0.146734,0,0,0,0,1505,1505,1501,1500,1500,1500
1747550066.7049532,-0.18,-0.09,-0.29,0.003272492347489368,-0.002181661564992912,-0.00545415391248228,-0.006624117111989313,0.10209685642996838,-0.00046066158000753024,0,-0.146734,0,0,0,0,1500,1500,1500,1500,1500,1500
1747550066.8037477,-0.18,-0.09,-0.29,0.003272492347489368,-0.002181661564992912,-0.00545415391248228,-0.006624117111989313,0.10209685642996838,-0.00046066158000753024,0,-0.146734,0,0,0,0,1500,1500,1500,1500,1500,1500
1747550066.8048532,-0.18,-0.09,-0.29,0.003272492347489368,-0.002181661564992912,-0.00545415391248228,-0.006624117111989313,0.10209685642996838,-0.00046066158000753024,0,-0.146734,0,0,0,0,1500,1500,1500,1500,1500,1500
1747550066.8871005,0.07,-0.1,-0.28,-0.002181661564992912,-0.007635815477475192,-0.001090830782496456,-0.006624117111989313,0.10209685642996838,-0.00046066158000753024,0,0,0,0,0,0,1500,1500,1500,1500,1500,1500
1747550066.9034069,0.07,-0.1,-0.28,-0.002181661564992912,-0.007635815477475192,-0.001090830782496456,-0.006624117111989313,0.10209685642996838,-0.00046066158000753024,0,0,0,0,0,0,1500,1500,1500,1500,1500,1500
1747550066.9872,0.07,-0.02,-0.3,-0.002181661564992912,0.002181661564992912,0.0,-0.006624117111989313,0.10209685642996838,-0.00046066158000753024,0,0,0,0,0,0,1500,1500,1500,1500,1500,1500
1747550067.003734,0.07,-0.02,-0.3,-0.002181661564992912,0.002181661564992912,0.0,-0.006624117111989313,0.10209685642996838,-0.00046066158000753024,0,0,0,0,0,0,1500,1500,1500,1500,1500,1500
1747550067.0855167,0.06,0.01,-0.33,-0.003272492347489368,0.0,0.0,-0.006624117111989313,0.10209685642996838,-0.00046066158000753024,0,0,0,0,0,0,1500,1500,1500,1500,1500,1500
1747550067.087025,0.06,0.01,-0.33,-0.003272492347489368,0.0,0.0,-0.006624117111989313,0.10209685642996838,-0.00046066158000753024,0,0,0,0,0,0,1500,1500,1500,1500,1500,1500
1747550067.185751,0.05,-0.03,-0.36,0.0,0.004363323129985824,0.002181661564992912,-0.006624117111989313,0.10209685642996838,-0.00046066158000753024,0,0,0,0,0,0,1500,1500,1500,1500,1500,1500
1747550067.187253,0.05,-0.03,-0.36,0.0,0.004363323129985824,0.002181661564992912,-0.006624117111989313,0.10209685642996838,-0.00046066158000753024,0,0,0,0,0,0,1500,1500,1500,1500,1500,1500
1747550067.2826784,0.04,-0.02,-0.31,-0.001090830782496456,0.001090830782496456,-0.001090830782496456,-0.006624117111989313,0.10209685642996838,-0.00046066158000753024,0,0,0,0,0,0,1500,1500,1500,1500,1500,1500
1747550067.2836752,0.04,-0.02,-0.31,-0.001090830782496456,0.001090830782496456,-0.001090830782496456,-0.006624117111989313,0.10209685642996838,-0.00046066158000753024,0,0,0,0,0,0,1500,1500,1500,1500,1500,1500
1747550067.370054,0.05,0.0,-0.33,0.0,-0.003272492347489368,-0.002181661564992912,-0.006624117111989313,0.10209685642996838,-0.00046066158000753024,0,0,0,0,0,0,1500,1500,1500,1500,1500,1500
1747550067.370054,0.05,0.0,-0.33,0.0,-0.003272492347489368,-0.002181661564992912,-0.006624117111989313,0.10209685642996838,-0.00046066158000753024,0,0,0,0,0,0,1500,1500,1500,1500,1500,1500
1747550067.4696517,0.05,0.0,-0.37,-0.001090830782496456,-0.003272492347489368,0.002181661564992912,-0.006624117111989313,0.10209685642996838,-0.00046066158000753024,0,0,0,0,0,0,1500,1500,1500,1500,1500,1500
1747550067.4709322,0.05,0.0,-0.37,-0.001090830782496456,-0.003272492347489368,0.002181661564992912,-0.006624117111989313,0.10209685642996838,-0.00046066158000753024,0,0,0,0,0,0,1500,1500,1500,1500,1500,1500
1747550067.570017,0.04,0.02,-0.35000000000000003,0.002181661564992912,-0.001090830782496456,0.001090830782496456,-0.006624117111989313,0.10209685642996838,-0.00046066158000753024,0,0,0,0,0,0,1500,1500,1500,1500,1500,1500
1747550067.5712688,0.04,0.02,-0.35000000000000003,0.002181661564992912,-0.001090830782496456,0.001090830782496456,-0.006624117111989313,0.10209685642996838,-0.00046066158000753024,0,0,0,0,0,0,1500,1500,1500,1500,1500,1500
1747550067.669419,0.05,-0.01,-0.32,0.001090830782496456,-0.004363323129985824,-0.002181661564992912,-0.006624117111989313,0.10209685642996838,-0.00046066158000753024,0,0,0,0,0,0,1500,1500,1500,1500,1500,1500
1747550067.670788,0.05,-0.01,-0.32,0.001090830782496456,-0.004363323129985824,-0.002181661564992912,-0.006624117111989313,0.10209685642996838,-0.00046066158000753024,0,0,0,0,0,0,1500,1500,1500,1500,1500,1500
1747550067.7613585,0.05,-0.01,-0.34,-0.002181661564992912,0.001090830782496456,-0.002181661564992912,-0.006624117111989313,0.10209685642996838,-0.00046066158000753024,0,0,0,0,0,0,1500,1500,1500,1500,1500,1500
1747550067.7645154,0.05,-0.01,-0.34,-0.002181661564992912,0.001090830782496456,-0.002181661564992912,-0.006624117111989313,0.10209685642996838,-0.00046066158000753024,0,0,0,0,0,0,1500,1500,1500,1500,1500,1500
1747550067.8532367,0.04,-0.01,-0.37,0.0,-0.001090830782496456,0.002181661564992912,-0.006624117111989313,0.10209685642996838,-0.00046066158000753024,0,0,0,0,0,0,1500,1500,1500,1500,1500,1500
1747550067.8546102,0.04,-0.01,-0.37,0.0,-0.001090830782496456,0.002181661564992912,-0.006624117111989313,0.10209685642996838,-0.00046066158000753024,0,0,0,0,0,0,1500,1500,1500,1500,1500,1500
1747550067.9542747,0.01,0.0,-0.34,0.001090830782496456,-0.003272492347489368,0.0,-0.006624117111989313,0.10209685642996838,-0.00046066158000753024,0,0,0,0,0,0,1500,1500,1500,1500,1500,1500
1747550067.9552834,0.01,0.0,-0.34,0.001090830782496456,-0.003272492347489368,0.0,-0.006624117111989313,0.10209685642996838,-0.00046066158000753024,0,0,0,0,0,0,1500,1500,1500,1500,1500,1500
1747550068.0533257,0.04,0.0,-0.32,-0.002181661564992912,0.001090830782496456,-0.001090830782496456,-0.006624117111989313,0.10209685642996838,-0.00046066158000753024,0,0,0,0,0,0,1500,1500,1500,1500,1500,1500
1747550068.0543568,0.04,0.0,-0.32,-0.002181661564992912,0.001090830782496456,-0.001090830782496456,-0.006624117111989313,0.10209685642996838,-0.00046066158000753024,0,0,0,0,0,0,1500,1500,1500,1500,1500,1500
1747550068.137408,0.04,-0.01,-0.29,-0.003272492347489368,-0.001090830782496456,0.001090830782496456,-0.006624117111989313,0.10209685642996838,-0.00046066158000753024,0,0,0,0,0,0,1500,1500,1500,1500,1500,1500
1747550068.153512,0.04,0.01,-0.38,-0.001090830782496456,0.004363323129985824,0.0,-0.006624117111989313,0.10209685642996838,-0.00046066158000753024,0,0,0,0,0,0,1500,1500,1500,1500,1500,1500
1747550068.2335548,0.02,0.0,-0.34,-0.001090830782496456,0.002181661564992912,0.0,-0.006624117111989313,0.10209685642996838,-0.00046066158000753024,0,0,0,0,0,0,1500,1500,1500,1500,1500,1500
1747550068.2535813,0.02,0.0,-0.34,-0.001090830782496456,0.002181661564992912,0.0,-0.006624117111989313,0.10209685642996838,-0.00046066158000753024,0,0,0,0,0,0,1500,1500,1500,1500,1500,1500
1747550068.3370688,0.04,-0.01,-0.29,0.0,-0.00545415391248228,0.002181661564992912,-0.006624117111989313,0.10209685642996838,-0.00046066158000753024,0,0,0,0,0,0,1500,1500,1500,1500,1500,1500
1747550068.3381138,0.04,-0.01,-0.29,0.0,-0.00545415391248228,0.002181661564992912,-0.006624117111989313,0.10209685642996838,-0.00046066158000753024,0,0,0,0,0,0,1500,1500,1500,1500,1500,1500
1747550068.4370105,0.0,0.0,-0.34,-0.002181661564992912,-0.001090830782496456,0.0,-0.006624117111989313,0.10209685642996838,-0.00046066158000753024,0,0,0,0,0,0,1500,1500,1500,1500,1500,1500
1747550068.438144,0.0,0.0,-0.34,-0.002181661564992912,-0.001090830782496456,0.0,-0.006624117111989313,0.10209685642996838,-0.00046066158000753024,0,0,0,0,0,0,1500,1500,1500,1500,1500,1500
1747550068.5374265,0.04,-0.03,-0.36,0.0,0.004363323129985824,0.0,-0.006624117111989313,0.10209685642996838,-0.00046066158000753024,0,0,0,0,0,0,1500,1500,1500,1500,1500,1500
1747550068.5379295,0.04,-0.03,-0.36,0.0,0.004363323129985824,0.0,-0.006624117111989313,0.10209685642996838,-0.00046066158000753024,0,0,0,0,0,0,1500,1500,1500,1500,1500,1500
1747550068.6212237,0.03,0.0,-0.3,0.0,0.001090830782496456,0.0,-0.006624117111989313,0.10209685642996838,-0.00046066158000753024,0,0,0,0,0,0,1500,1500,1500,1500,1500,1500
1747550068.6222436,0.03,0.0,-0.3,0.0,0.001090830782496456,0.0,-0.006624117111989313,0.10209685642996838,-0.00046066158000753024,0,0,0,0,0,0,1500,1500,1500,1500,1500,1500
1747550068.7199872,0.04,-0.02,-0.28,-0.004363323129985824,-0.004363323129985824,0.001090830782496456,-0.006624117111989313,0.10209685642996838,-0.00046066158000753024,0,0,0,0,0,0,1500,1500,1500,1500,1500,1500
1747550068.7211852,0.04,-0.02,-0.28,-0.004363323129985824,-0.004363323129985824,0.001090830782496456,-0.006624117111989313,0.10209685642996838,-0.00046066158000753024,0,0,0,0,0,0,1500,1500,1500,1500,1500,1500
1747550068.820078,0.04,-0.02,-0.32,0.001090830782496456,0.0,0.0,-0.006624117111989313,0.10209685642996838,-0.00046066158000753024,0,0,0,0,0,0,1500,1500,1500,1500,1500,1500
1747550068.8212247,0.04,-0.02,-0.32,0.001090830782496456,0.0,0.0,-0.006624117111989313,0.10209685642996838,-0.00046066158000753024,0,0,0,0,0,0,1500,1500,1500,1500,1500,1500
1747550068.9199853,0.05,-0.02,-0.36,0.0,-0.001090830782496456,0.002181661564992912,-0.006624117111989313,0.10209685642996838,-0.00046066158000753024,0,0,0,0,0,0,1500,1500,1500,1500,1500,1500
1747550068.9211617,0.05,-0.02,-0.36,0.0,-0.001090830782496456,0.002181661564992912,-0.006624117111989313,0.10209685642996838,-0.00046066158000753024,0,0,0,0,0,0,1500,1500,1500,1500,1500,1500
1747550069.019343,0.04,-0.01,-0.35000000000000003,-0.001090830782496456,-0.001090830782496456,0.001090830782496456,-0.006624117111989313,0.10209685642996838,-0.00046066158000753024,0,0,0,0,0,0,1500,1500,1500,1500,1500,1500
1747550069.0208395,0.04,-0.01,-0.35000000000000003,-0.001090830782496456,-0.001090830782496456,0.001090830782496456,-0.006624117111989313,0.10209685642996838,-0.00046066158000753024,0,0,0,0,0,0,1500,1500,1500,1500,1500,1500
1747550069.103187,0.02,-0.03,-0.36,0.004363323129985824,0.003272492347489368,0.002181661564992912,-0.006624117111989313,0.10209685642996838,-0.00046066158000753024,0,0,0,0,0,0,1500,1500,1500,1500,1500,1500
1747550069.1045587,0.02,-0.03,-0.36,0.004363323129985824,0.003272492347489368,0.002181661564992912,-0.006624117111989313,0.10209685642996838,-0.00046066158000753024,0,0,0,0,0,0,1500,1500,1500,1500,1500,1500
1747550069.2038114,0.05,-0.02,-0.37,-0.003272492347489368,0.0,-0.002181661564992912,-0.006624117111989313,0.10209685642996838,-0.00046066158000753024,0,0,0,0,0,0,1500,1500,1500,1500,1500,1500
1747550069.2038114,0.05,-0.02,-0.37,-0.003272492347489368,0.0,-0.002181661564992912,-0.006624117111989313,0.10209685642996838,-0.00046066158000753024,0,0,0,0,0,0,1500,1500,1500,1500,1500,1500
1747550069.303725,0.02,0.0,-0.33,0.0,0.00545415391248228,0.001090830782496456,-0.006624117111989313,0.10209685642996838,-0.00046066158000753024,0,0,0,0,0,0,1500,1500,1500,1500,1500,1500
1747550069.303725,0.02,0.0,-0.33,0.0,0.00545415391248228,0.001090830782496456,-0.006624117111989313,0.10209685642996838,-0.00046066158000753024,0,0,0,0,0,0,1500,1500,1500,1500,1500,1500
1747550069.3860545,0.05,0.01,-0.31,0.003272492347489368,-0.004363323129985824,0.0,-0.006624117111989313,0.10209685642996838,-0.00046066158000753024,0,0,0,0,0,0,1500,1500,1500,1500,1500,1500
1747550069.387051,0.05,0.01,-0.31,0.003272492347489368,-0.004363323129985824,0.0,-0.006624117111989313,0.10209685642996838,-0.00046066158000753024,0,0,0,0,0,0,1500,1500,1500,1500,1500,1500
1747550069.4863746,0.05,-0.02,-0.33,0.002181661564992912,0.002181661564992912,0.0,-0.006624117111989313,0.10209685642996838,-0.00046066158000753024,0,0,0,0,0,0,1500,1500,1500,1500,1500,1500
1747550069.4873724,0.05,-0.02,-0.33,0.002181661564992912,0.002181661564992912,0.0,-0.006624117111989313,0.10209685642996838,-0.00046066158000753024,0,0,0,0,0,0,1500,1500,1500,1500,1500,1500
1747550069.5858786,0.05,-0.03,-0.36,0.003272492347489368,0.0,0.001090830782496456,-0.006624117111989313,0.10209685642996838,-0.00046066158000753024,0,0,0,0,0,0,1500,1500,1500,1500,1500,1500
1747550069.5873806,0.05,-0.03,-0.36,0.003272492347489368,0.0,0.001090830782496456,-0.006624117111989313,0.10209685642996838,-0.00046066158000753024,0,0,0,0,0,0,1500,1500,1500,1500,1500,1500
1747550069.6873107,0.05,-0.01,-0.33,0.003272492347489368,0.001090830782496456,-0.002181661564992912,-0.006624117111989313,0.10209685642996838,-0.00046066158000753024,0,2.315006,0,0,0,0,1460,1460,1460,1500,1500,1500
1747550069.6883202,0.05,-0.01,-0.33,0.003272492347489368,0.001090830782496456,-0.002181661564992912,-0.006624117111989313,0.10209685642996838,-0.00046066158000753024,0,2.315006,0,0,0,0,1443,1444,1449,1500,1500,1500
1747550069.7979298,0.03,-0.01,-0.3,0.0,-0.001090830782496456,-0.001090830782496456,-0.006624117111989313,0.10209685642996838,-0.00046066158000753024,0,12.5,0,0,0,0,1403,1404,1409,1500,1500,1500
1747550069.8039167,0.03,-0.01,-0.3,0.0,-0.001090830782496456,-0.001090830782496456,-0.006624117111989313,0.10209685642996838,-0.00046066158000753024,0,12.5,0,0,0,0,1369,1372,1391,1500,1500,1500
1747550069.887392,0.02,0.0,-0.38,0.001090830782496456,0.001090830782496456,-0.002181661564992912,-0.006624117111989313,0.10209685642996838,-0.00046066158000753024,0,12.5,0,0,0,0,1369,1372,1391,1500,1500,1500
1747550069.8884351,0.02,0.0,-0.38,0.001090830782496456,0.001090830782496456,-0.002181661564992912,-0.006624117111989313,0.10209685642996838,-0.00046066158000753024,0,12.5,0,0,0,0,1369,1372,1391,1500,1500,1500
1747550069.9815965,0.0,-0.09,-0.35000000000000003,0.003272492347489368,0.0,-0.001090830782496456,-3.1406492707323848,-1.5707963267948966,3.1396997634361323,0,12.5,0,0,0,0,1369,1372,1391,1500,1500,1500
1747550069.9837255,0.0,-0.09,-0.35000000000000003,0.003272492347489368,0.0,-0.001090830782496456,-3.1406492707323848,-1.5707963267948966,3.1396997634361323,0,12.5,0,0,0,0,1369,1372,1391,1500,1500,1500
1747550070.0856338,0.19,-0.29,-0.25,0.003272492347489368,0.001090830782496456,-0.006544984694978736,-0.006501562503083539,0.10209686391954992,-0.0004544002922271303,0,12.5,0,0,0,0,1369,1372,1391,1500,1500,1500
1747550070.0871375,0.19,-0.29,-0.25,0.003272492347489368,0.001090830782496456,-0.006544984694978736,-0.006501562503083539,0.10209686391954992,-0.0004544002922271303,0,12.5,0,0,0,0,1369,1372,1391,1500,1500,1500
1747550070.1864681,-0.13,-0.01,-0.48,0.006544984694978736,0.002181661564992912,-0.01090830782496456,-0.006746671819398435,0.10209684894038686,-0.00046692286775181093,0,12.5,0,0,0,0,1369,1372,1391,1500,1500,1500
1747550070.1874747,-0.13,-0.01,-0.48,0.006544984694978736,0.002181661564992912,-0.01090830782496456,-0.006746671819398435,0.10209684894038686,-0.00046692286775181093,0,12.5,0,0,0,0,1369,1372,1391,1500,1500,1500
1747550070.2857244,0.05,-0.08,-0.32,0.009817477042468103,-0.002181661564992912,-0.009817477042468103,-0.006501343563372942,0.10233569461985408,-0.0004551981121342789,0,12.5,0,0,0,0,1369,1372,1391,1500,1500,1500
1747550070.2872334,0.05,-0.08,-0.32,0.009817477042468103,-0.002181661564992912,-0.009817477042468103,-0.006501343563372942,0.10233569461985408,-0.0004551981121342789,0,12.5,0,0,0,0,1369,1372,1391,1500,1500,1500
1747550070.3697307,0.05,-0.19,-0.33,-0.003272492347489368,-0.002181661564992912,-0.001090830782496456,-0.006501343563372942,0.10233569461985408,-0.0004551981121342789,0,12.5,0,0,0,0,1369,1372,1391,1500,1500,1500
1747550070.3712296,0.05,-0.19,-0.33,-0.003272492347489368,-0.002181661564992912,-0.001090830782496456,-0.006501343563372942,0.10233569461985408,-0.0004551981121342789,0,12.5,0,0,0,0,1369,1372,1391,1500,1500,1500
1747550070.4702926,0.12,-0.07,-0.32,0.0,-0.001090830782496456,-0.001090830782496456,-0.006623893756065039,0.10233568713008906,-0.0004614745364494781,0,12.5,0,0,0,0,1369,1372,1391,1500,1500,1500
1747550070.4702926,0.12,-0.07,-0.32,0.0,-0.001090830782496456,-0.001090830782496456,-0.006623893756065039,0.10233568713008906,-0.0004614745364494781,0,12.5,0,0,0,0,1369,1372,1391,1500,1500,1500
1747550070.5694892,0.06,0.04,-0.33,0.0,-0.001090830782496456,0.001090830782496456,-0.0066238031690732104,0.10221314036577459,-0.00046106430484277024,0,12.5,0,0,0,0,1369,1372,1391,1500,1500,1500
1747550070.5708804,0.06,0.04,-0.33,0.0,-0.001090830782496456,0.001090830782496456,-0.0066238031690732104,0.10221314036577459,-0.00046106430484277024,0,12.5,0,0,0,0,1369,1372,1391,1500,1500,1500
1747550070.6535015,0.03,-0.03,-0.31,-0.001090830782496456,-0.001090830782496456,0.0,-0.006746763845564911,0.10221940173258377,-0.0004673406503849793,0,12.5,0,0,0,0,1369,1372,1391,1500,1500,1500
1747550070.6675112,-0.01,0.0,-0.32,0.002181661564992912,-0.003272492347489368,0.0,-0.006746763845564911,0.10221940173258377,-0.0004673406503849793,0,12.5,0,0,0,0,1369,1372,1391,1500,1500,1500
1747550070.7539883,-0.01,0.0,-0.32,0.002181661564992912,-0.003272492347489368,0.0,-0.006746763845564911,0.10221940173258377,-0.0004673406503849793,0,0,0,0,0,0,1409,1412,1431,1500,1500,1500
1747550070.769728,0.0,-0.04,-0.35000000000000003,-0.002181661564992912,0.003272492347489368,-0.001090830782496456,-0.006746763845564911,0.10221940173258377,-0.0004673406503849793,0,0,0,0,0,0,1449,1452,1471,1500,1500,1500
1747550070.837306,0.01,0.05,-0.27,0.0,0.001090830782496456,0.002181661564992912,-0.006746763845564911,0.10221940173258377,-0.0004673406503849793,0,0,0,0,0,0,1489,1492,1500,1500,1500,1500
1747550070.8532073,0.01,0.05,-0.27,0.0,0.001090830782496456,0.002181661564992912,-0.006746763845564911,0.10221940173258377,-0.0004673406503849793,0,0,0,0,0,0,1500,1500,1500,1500,1500,1500
1747550070.937144,0.03,-0.68,-0.23,0.015271630954950384,-0.004363323129985824,-0.019634954084936207,-0.006385364139013441,0.10221903473848522,-0.0005710876007699649,0,0,0,0,0,0,1500,1500,1500,1500,1500,1500
1747550070.9532712,0.03,-0.68,-0.23,0.015271630954950384,-0.004363323129985824,-0.019634954084936207,-0.006385364139013441,0.10221903473848522,-0.0005710876007699649,0,0,0,0,0,0,1500,1500,1500,1500,1500,1500
1747550071.036011,0.29,-0.22,-0.28,0.013089969389957472,-0.002181661564992912,-0.016362461737446838,-0.0063789206692204175,0.10197432015539522,-0.0004477439427617504,0,0,0,0,0,0,1500,1500,1500,1500,1500,1500
1747550071.053113,0.29,-0.22,-0.28,0.013089969389957472,-0.002181661564992912,-0.016362461737446838,-0.0063789206692204175,0.10197432015539522,-0.0004477439427617504,0,0,0,0,0,0,1500,1500,1500,1500,1500,1500
1747550071.1213005,-0.06,-0.08,-0.33,0.0,-0.001090830782496456,-0.002181661564992912,-0.006740157917027931,0.10172961170016323,-0.0003431222360377375,0,0,0,0,0,0,1500,1500,1500,1500,1500,1500
1747550071.1383812,-0.06,-0.08,-0.33,0.0,-0.001090830782496456,-0.002181661564992912,-0.006740157917027931,0.10172961170016323,-0.0003431222360377375,0,0,0,0,0,0,1500,1500,1500,1500,1500,1500
1747550071.2203124,0.1,-0.1,-0.35000000000000003,-0.006544984694978736,0.004363323129985824,0.001090830782496456,-0.006617607800041366,0.10172961170016323,-0.0003368836504043448,0,0,0,0,0,0,1500,1500,1500,1500,1500,1500
1747550071.237376,0.1,-0.1,-0.35000000000000003,-0.006544984694978736,0.004363323129985824,0.001090830782496456,-0.006617607800041366,0.10172961170016323,-0.0003368836504043448,0,0,0,0,0,0,1500,1500,1500,1500,1500,1500
1747550071.3207886,0.03,-0.01,-0.29,-0.001090830782496456,0.002181661564992912,-0.001090830782496456,-0.006617607800041366,0.10172961170016323,-0.0003368836504043448,0,0,0,0,0,0,1500,1500,1500,1500,1500,1500
1747550071.3227956,0.03,-0.01,-0.29,-0.001090830782496456,0.002181661564992912,-0.001090830782496456,-0.006617607800041366,0.10172961170016323,-0.0003368836504043448,0,0,0,0,0,0,1500,1500,1500,1500,1500,1500
1747550071.42347,0.03,-0.01,-0.34,0.00545415391248228,-0.004363323129985824,-0.002181661564992912,-0.006740157917027931,0.10172961170016323,-0.0003431222360377375,0,0,0,0,0,0,1500,1500,1500,1500,1500,1500
1747550071.4246538,0.03,-0.01,-0.34,0.00545415391248228,-0.004363323129985824,-0.002181661564992912,-0.006740157917027931,0.10172961170016323,-0.0003431222360377375,0,0,0,0,0,0,1500,1500,1500,1500,1500,1500
1747550071.5218437,0.04,0.01,-0.26,0.0,0.00545415391248228,-0.001090830782496456,-0.006740157917027931,0.10172961170016323,-0.0003431222360377375,0,0,0,0,0,0,1500,1500,1500,1500,1500,1500
1747550071.5229297,0.04,0.01,-0.26,0.0,0.00545415391248228,-0.001090830782496456,-0.006740157917027931,0.10172961170016323,-0.0003431222360377375,0,0,0,0,0,0,1500,1500,1500,1500,1500,1500
1747550071.6052177,0.03,-0.03,-0.32,-0.00545415391248228,0.002181661564992912,0.002181661564992912,-0.006740157917027931,0.10172961170016323,-0.0003431222360377375,0,0,0,0,0,0,1500,1500,1500,1500,1500,1500
1747550071.6218827,0.02,-0.03,-0.36,0.001090830782496456,-0.003272492347489368,-0.001090830782496456,-0.006740157917027931,0.10172961170016323,-0.0003431222360377375,0,0,0,0,0,0,1500,1500,1500,1500,1500,1500
1747550071.7049325,0.02,-0.03,-0.36,0.001090830782496456,-0.003272492347489368,-0.001090830782496456,-0.006740157917027931,0.10172961170016323,-0.0003431222360377375,0,0,0,0,0,0,1500,1500,1500,1500,1500,1500
1747550071.7208917,0.04,0.02,-0.35000000000000003,-0.001090830782496456,-0.003272492347489368,0.0,-0.006740157917027931,0.10172961170016323,-0.0003431222360377375,0,0,0,0,0,0,1500,1500,1500,1500,1500,1500
1747550071.8034825,0.02,-0.01,-0.27,0.001090830782496456,0.002181661564992912,0.0,-0.006740157917027931,0.10172961170016323,-0.0003431222360377375,0,0,0,0,0,0,1500,1500,1500,1500,1500,1500
1747550071.8194304,0.02,-0.01,-0.27,0.001090830782496456,0.002181661564992912,0.0,-0.006740157917027931,0.10172961170016323,-0.0003431222360377375,0,0,0,0,0,0,1500,1500,1500,1500,1500,1500
1747550071.88725,0.03,-0.01,-0.29,0.001090830782496456,0.00545415391248228,0.001090830782496456,-0.006740157917027931,0.10172961170016323,-0.0003431222360377375,0,0,0,0,0,0,1500,1500,1500,1500,1500,1500
1747550071.9025805,0.03,-0.01,-0.29,0.001090830782496456,0.00545415391248228,0.001090830782496456,-0.006740157917027931,0.10172961170016323,-0.0003431222360377375,0,0,0,0,0,0,1500,1500,1500,1500,1500,1500
1747550071.9863453,0.04,-0.01,-0.36,0.0,-0.001090830782496456,0.001090830782496456,-0.006740157917027931,0.10172961170016323,-0.0003431222360377375,0,0,0,0,0,0,1500,1500,1500,1500,1500,1500
