time,ay,ax,az,gy,gx,gz,roll,pitch,yaw,cmd_fx,cmd_fy,cmd_fz,cmd_tx,cmd_ty,cmd_tz,pwm_1,pwm_2,pwm_3,pwm_4,pwm_5,pwm_6
1748734813.0990808,0.0,0.0,0.0,0.0,0.0,0.0,0.0,0.0,0.0,0.0,0.0,0.0,0.0,0.0,0.0,1500,1500,1500,1500,1500,1500
1748734813.218158,0.02,0.01,0.03,-0.003272492347489368,0.002181661564992912,0.001090830782496456,0.005965237268461105,0.7272968959676159,1.6119444496600848,0.0,0.0,0.0,0.0,0.0,0.0,1500,1500,1500,1500,1500,1500
1748734813.313861,0.01,-0.06,0.06,-0.004363323129985824,0.002181661564992912,0.001090830782496456,0.005965237268461105,0.7272968959676159,1.6119444496600848,0.0,0.0,0.0,0.0,0.0,0.0,1500,1500,1500,1500,1500,1500
1748734813.4215817,0.01,-0.06,0.06,-0.004363323129985824,0.002181661564992912,0.001090830782496456,0.005965237268461105,0.7272968959676159,1.6119444496600848,0.0,0.0,0.0,0.0,0.0,0.0,1500,1500,1500,1500,1500,1500
1748734813.5306618,0.02,0.0,0.04,-0.002181661564992912,-0.001090830782496456,-0.001090830782496456,0.005965237268461105,0.7272968959676159,1.6119444496600848,0.0,0.0,0.0,0.0,0.0,0.0,1500,1500,1500,1500,1500,1500
1748734813.630076,0.01,0.0,-0.02,0.0,-0.001090830782496456,0.0,0.005965237268461105,0.7272968959676159,1.6119444496600848,0.0,0.0,0.0,0.0,0.0,0.0,1500,1500,1500,1500,1500,1500
1748734813.736339,0.01,0.0,-0.02,0.0,-0.001090830782496456,0.0,0.005965237268461105,0.7272968959676159,1.6119444496600848,0.0,0.0,0.0,0.0,0.0,0.0,1500,1500,1500,1500,1500,1500
1748734813.842299,0.0,-0.01,0.02,0.0,0.002181661564992912,-0.002181661564992912,0.005965237268461105,0.7272968959676159,1.6119444496600848,0.0,0.0,0.0,0.0,0.0,0.0,1500,1500,1500,1500,1500,1500
1748734813.951898,0.0,-0.03,0.03,-0.003272492347489368,0.0,-0.003272492347489368,0.005965237268461105,0.7272968959676159,1.6119444496600848,0.0,0.0,0.0,0.0,0.0,0.0,1500,1500,1500,1500,1500,1500
1748734814.0612938,0.0,-0.03,0.03,-0.003272492347489368,0.0,-0.003272492347489368,0.005965237268461105,0.7272968959676159,1.6119444496600848,0.0,0.0,0.0,0.0,0.0,0.0,1500,1500,1500,1500,1500,1500
1748734814.1715643,0.0,-0.05,0.06,0.001090830782496456,0.001090830782496456,0.0,0.005965237268461105,0.7272968959676159,1.6119444496600848,0.0,0.0,0.0,0.0,0.0,0.0,1500,1500,1500,1500,1500,1500
1748734814.2643182,0.0,0.0,0.04,-0.001090830782496456,-0.002181661564992912,0.001090830782496456,0.005965237268461105,0.7272968959676159,1.6119444496600848,0.0,0.0,0.0,0.0,0.0,0.0,1500,1500,1500,1500,1500,1500
1748734814.371473,0.0,0.0,0.04,-0.001090830782496456,-0.002181661564992912,0.001090830782496456,0.005965237268461105,0.7272968959676159,1.6119444496600848,0.0,0.0,0.0,0.0,0.0,0.0,1500,1500,1500,1500,1500,1500
1748734814.4806795,0.0,-0.02,0.03,0.0,0.002181661564992912,0.0,0.005965237268461105,0.7272968959676159,1.6119444496600848,0.0,0.0,0.0,0.0,0.0,0.0,1500,1500,1500,1500,1500,1500
1748734814.5818758,0.02,-0.03,0.02,0.002181661564992912,0.004363323129985824,-0.001090830782496456,0.005965237268461105,0.7272968959676159,1.6119444496600848,0.0,0.0,0.0,0.0,0.0,0.0,1500,1500,1500,1500,1500,1500
1748734814.6976936,0.02,-0.03,0.02,0.002181661564992912,0.004363323129985824,-0.001090830782496456,0.005965237268461105,0.7272968959676159,1.6119444496600848,0.0,0.0,0.0,0.0,0.0,0.0,1500,1500,1500,1500,1500,1500
1748734814.8068013,0.01,-0.02,0.03,0.001090830782496456,-0.002181661564992912,0.001090830782496456,0.005965237268461105,0.7272968959676159,1.6119444496600848,0.0,0.0,0.0,0.0,0.0,0.0,1500,1500,1500,1500,1500,1500
1748734814.9018457,0.0,0.0,0.05,0.001090830782496456,-0.006544984694978736,0.001090830782496456,0.005965237268461105,0.7272968959676159,1.6119444496600848,0.0,0.0,0.0,0.0,0.0,0.0,1500,1500,1500,1500,1500,1500
1748734815.010127,0.0,0.0,0.05,0.001090830782496456,-0.006544984694978736,0.001090830782496456,0.005965237268461105,0.7272968959676159,1.6119444496600848,0.0,0.0,0.0,0.0,0.0,0.0,1500,1500,1500,1500,1500,1500
1748734815.1196492,0.02,0.0,0.05,-0.001090830782496456,-0.001090830782496456,0.002181661564992912,0.005965237268461105,0.7272968959676159,1.6119444496600848,0.0,0.0,0.0,0.0,0.0,0.0,1500,1500,1500,1500,1500,1500
1748734815.2188141,0.0,-0.06,0.02,0.0,-0.001090830782496456,0.0,0.005965237268461105,0.7272968959676159,1.6119444496600848,0.0,0.0,0.0,0.0,0.0,0.0,1500,1500,1500,1500,1500,1500
1748734815.334273,0.0,-0.06,0.02,0.0,-0.001090830782496456,0.0,0.005965237268461105,0.7272968959676159,1.6119444496600848,0.0,0.0,0.0,0.0,0.0,0.0,1500,1500,1500,1500,1500,1500
1748734815.4565217,-0.01,-0.01,0.05,-0.001090830782496456,0.002181661564992912,0.001090830782496456,0.005965237268461105,0.7272968959676159,1.6119444496600848,0.0,0.0,0.0,0.0,0.0,0.0,1500,1500,1500,1500,1500,1500
1748734815.5681956,0.02,-0.02,0.0,0.0,0.0,-0.001090830782496456,0.005965237268461105,0.7272968959676159,1.6119444496600848,0.0,0.0,0.0,0.0,0.0,0.0,1500,1500,1500,1500,1500,1500
1748734815.6754746,0.02,-0.02,0.0,0.0,0.0,-0.001090830782496456,0.005965237268461105,0.7272968959676159,1.6119444496600848,0.0,0.0,0.0,0.0,0.0,0.0,1500,1500,1500,1500,1500,1500
1748734815.7693322,0.0,0.0,0.02,-0.003272492347489368,0.001090830782496456,0.001090830782496456,0.005965237268461105,0.7272968959676159,1.6119444496600848,0.0,0.0,0.0,0.0,0.0,0.0,1500,1500,1500,1500,1500,1500
1748734815.8553438,0.0,-0.01,0.03,0.001090830782496456,0.001090830782496456,0.002181661564992912,0.005965237268461105,0.7272968959676159,1.6119444496600848,0.0,0.0,0.0,0.0,0.0,0.0,1500,1500,1500,1500,1500,1500
1748734815.969901,0.0,-0.01,0.03,0.001090830782496456,0.001090830782496456,0.002181661564992912,0.005965237268461105,0.7272968959676159,1.6119444496600848,0.0,0.0,0.0,0.0,0.0,0.0,1500,1500,1500,1500,1500,1500
1748734816.0755718,0.01,-0.04,0.07,0.0,-0.001090830782496456,0.002181661564992912,0.005965237268461105,0.7272968959676159,1.6119444496600848,0.0,0.0,0.0,0.0,0.0,0.0,1500,1500,1500,1500,1500,1500
1748734816.1708045,0.0,0.01,0.03,0.002181661564992912,0.001090830782496456,0.0,0.005965237268461105,0.7272968959676159,1.6119444496600848,0.0,0.0,0.0,0.0,0.0,0.0,1500,1500,1500,1500,1500,1500
1748734816.276383,0.0,0.01,0.03,0.002181661564992912,0.001090830782496456,0.0,0.005965237268461105,0.7272968959676159,1.6119444496600848,0.0,0.0,0.0,0.0,0.0,0.0,1500,1500,1500,1500,1500,1500
1748734816.3846686,0.0,-0.01,0.05,0.0,0.002181661564992912,-0.001090830782496456,-0.007670144447877751,0.741476692390453,1.6121592161554388,0.0,0.0,0.0,0.0,0.0,0.0,1500,1500,1500,1500,1500,1500
1748734816.4914505,0.0,-0.01,0.05,0.0,0.002181661564992912,-0.001090830782496456,-0.007670144447877751,0.741476692390453,1.6121592161554388,0.0,0.0,0.0,0.0,0.0,0.0,1500,1500,1500,1500,1500,1500
1748734816.6018112,0.0,-0.01,0.02,0.001090830782496456,0.001090830782496456,-0.001090830782496456,0.005965237268461105,0.7272968959676159,1.6119444496600848,0.0,0.0,0.0,0.0,0.0,0.0,1500,1500,1500,1500,1500,1500
1748734816.7088614,0.01,-0.04,0.05,0.001090830782496456,0.002181661564992912,-0.001090830782496456,0.005965237268461105,0.7272968959676159,1.6119444496600848,0.0,0.0,0.0,0.0,0.0,0.0,1500,1500,1500,1500,1500,1500
1748734816.804707,0.0,-0.03,0.02,0.003272492347489368,0.0,-0.002181661564992912,0.005965237268461105,0.7272968959676159,1.6119444496600848,0.0,0.0,0.0,0.0,0.0,0.0,1500,1500,1500,1500,1500,1500
1748734816.9095697,0.0,-0.03,0.02,0.003272492347489368,0.0,-0.002181661564992912,0.005965237268461105,0.7272968959676159,1.6119444496600848,0.0,0.0,0.0,0.0,0.0,0.0,1500,1500,1500,1500,1500,1500
1748734817.020682,0.02,0.03,0.04,0.001090830782496456,-0.001090830782496456,0.0,0.005965237268461105,0.7272968959676159,1.6119444496600848,0.0,0.0,0.0,0.0,0.0,0.0,1500,1500,1500,1500,1500,1500
1748734817.1228008,0.0,-0.02,0.03,0.0,0.002181661564992912,-0.001090830782496456,0.005965237268461105,0.7272968959676159,1.6119444496600848,0.0,0.0,0.0,0.0,0.0,0.0,1500,1500,1500,1500,1500,1500
1748734817.2350106,0.0,-0.02,0.03,0.0,0.002181661564992912,-0.001090830782496456,0.005965237268461105,0.7272968959676159,1.6119444496600848,0.0,0.0,0.0,0.0,0.0,0.0,1500,1500,1500,1500,1500,1500
1748734817.3429544,0.0,-0.03,0.02,0.001090830782496456,0.004363323129985824,-0.001090830782496456,0.005965237268461105,0.7272968959676159,1.6119444496600848,0.0,0.0,0.0,0.0,0.0,0.0,1500,1500,1500,1500,1500,1500
1748734817.442485,0.0,-0.04,0.04,-0.001090830782496456,0.003272492347489368,0.001090830782496456,0.005965237268461105,0.7272968959676159,1.6119444496600848,0.0,0.0,0.0,0.0,0.0,0.0,1500,1500,1500,1500,1500,1500
1748734817.5576713,0.0,-0.04,0.04,-0.001090830782496456,0.003272492347489368,0.001090830782496456,0.005965237268461105,0.7272968959676159,1.6119444496600848,0.0,0.0,0.0,0.0,0.0,0.0,1500,1500,1500,1500,1500,1500
1748734817.664677,0.0,0.01,-0.01,0.003272492347489368,-0.002181661564992912,0.001090830782496456,0.005965237268461105,0.7272968959676159,1.6119444496600848,0.0,0.0,0.0,0.0,0.0,0.0,1500,1500,1500,1500,1500,1500
1748734817.762586,0.02,-0.05,0.04,-0.001090830782496456,-0.001090830782496456,-0.002181661564992912,0.005965237268461105,0.7272968959676159,1.6119444496600848,0.0,0.0,0.0,0.0,0.0,0.0,1500,1500,1500,1500,1500,1500
1748734817.8731508,0.02,-0.05,0.04,-0.001090830782496456,-0.001090830782496456,-0.002181661564992912,0.005965237268461105,0.7272968959676159,1.6119444496600848,0.0,0.0,0.0,0.0,0.0,0.0,1500,1500,1500,1500,1500,1500
1748734817.9909039,0.0,-0.06,0.05,0.0,-0.001090830782496456,0.002181661564992912,0.005965237268461105,0.7272968959676159,1.6119444496600848,0.0,0.0,0.0,0.0,0.0,0.0,1500,1500,1500,1500,1500,1500
1748734818.0861437,0.02,0.0,0.01,-0.003272492347489368,0.001090830782496456,0.001090830782496456,0.005965237268461105,0.7272968959676159,1.6119444496600848,0.0,0.0,0.0,0.0,0.0,0.0,1500,1500,1500,1500,1500,1500
1748734818.1927283,0.02,0.0,0.01,-0.003272492347489368,0.001090830782496456,0.001090830782496456,0.005965237268461105,0.7272968959676159,1.6119444496600848,0.0,0.0,0.0,0.0,0.0,0.0,1500,1500,1500,1500,1500,1500
1748734818.3185093,0.0,0.0,0.02,0.0,-0.001090830782496456,-0.002181661564992912,0.005965237268461105,0.7272968959676159,1.6119444496600848,0.0,0.0,0.0,0.0,0.0,0.0,1500,1500,1500,1500,1500,1500
1748734818.4426594,0.01,-0.02,0.04,0.0,0.002181661564992912,-0.002181661564992912,0.005965237268461105,0.7272968959676159,1.6119444496600848,0.0,0.0,0.0,0.0,0.0,0.0,1500,1500,1500,1500,1500,1500
1748734818.5524771,0.01,-0.02,0.04,0.0,0.002181661564992912,-0.002181661564992912,0.005965237268461105,0.7272968959676159,1.6119444496600848,0.0,0.0,0.0,0.0,0.0,0.0,1500,1500,1500,1500,1500,1500
1748734818.658983,0.0,-0.03,0.06,-0.002181661564992912,0.0,0.0,0.005965237268461105,0.7272968959676159,1.6119444496600848,0.0,0.0,0.0,0.0,0.0,0.0,1500,1500,1500,1500,1500,1500
1748734818.7520719,0.0,-0.03,0.03,-0.002181661564992912,0.0,0.002181661564992912,0.005965237268461105,0.7272968959676159,1.6119444496600848,0.0,0.0,0.0,0.0,0.0,0.0,1500,1500,1500,1500,1500,1500
1748734818.8582075,0.0,-0.03,0.03,-0.002181661564992912,0.0,0.002181661564992912,0.005965237268461105,0.7272968959676159,1.6119444496600848,0.0,0.0,0.0,0.0,0.0,0.0,1500,1500,1500,1500,1500,1500
1748734818.9688432,0.0,-0.01,0.05,0.0,-0.003272492347489368,-0.001090830782496456,0.005965237268461105,0.7272968959676159,1.6119444496600848,0.0,0.0,0.0,0.0,0.0,0.0,1500,1500,1500,1500,1500,1500
1748734819.0789614,0.02,-0.03,0.05,-0.004363323129985824,-0.002181661564992912,-0.002181661564992912,0.005965237268461105,0.7272968959676159,1.6119444496600848,0.0,0.0,0.0,0.0,0.0,0.0,1500,1500,1500,1500,1500,1500
1748734819.1875162,0.02,-0.03,0.05,-0.004363323129985824,-0.002181661564992912,-0.002181661564992912,0.005965237268461105,0.7272968959676159,1.6119444496600848,0.0,0.0,0.0,0.0,0.0,0.0,1500,1500,1500,1500,1500,1500
1748734819.2955275,-0.01,-0.04,0.04,0.001090830782496456,0.0,0.0,0.005965237268461105,0.7272968959676159,1.6119444496600848,0.0,0.0,0.0,0.0,0.0,0.0,1500,1500,1500,1500,1500,1500
1748734819.4058206,0.0,0.0,0.0,-0.001090830782496456,0.0,-0.001090830782496456,0.005965237268461105,0.7272968959676159,1.6119444496600848,0.0,0.0,0.0,0.0,0.0,0.0,1500,1500,1500,1500,1500,1500
1748734819.5098648,0.0,0.0,0.03,0.002181661564992912,0.00545415391248228,0.0,0.005965237268461105,0.7272968959676159,1.6119444496600848,0.0,0.0,0.0,0.0,0.0,0.0,1500,1500,1500,1500,1500,1500
1748734819.6248581,0.0,0.0,0.03,0.002181661564992912,0.00545415391248228,0.0,0.005965237268461105,0.7272968959676159,1.6119444496600848,0.0,0.0,0.0,0.0,0.0,0.0,1500,1500,1500,1500,1500,1500
1748734819.734212,-0.02,-0.02,0.06,0.002181661564992912,-0.002181661564992912,0.0,0.005965237268461105,0.7272968959676159,1.6119444496600848,0.0,0.0,0.0,0.0,0.0,0.0,1500,1500,1500,1500,1500,1500
1748734819.822952,0.0,-0.02,0.07,0.0,-0.001090830782496456,0.001090830782496456,0.005965237268461105,0.7272968959676159,1.6119444496600848,0.0,0.0,0.0,0.0,0.0,0.0,1500,1500,1500,1500,1500,1500
1748734819.9364994,0.0,-0.02,0.07,0.0,-0.001090830782496456,0.001090830782496456,0.005965237268461105,0.7272968959676159,1.6119444496600848,0.0,0.0,0.0,0.0,0.0,0.0,1500,1500,1500,1500,1500,1500
1748734820.0470726,0.01,0.0,0.05,0.002181661564992912,0.003272492347489368,0.0,0.005965237268461105,0.7272968959676159,1.6119444496600848,0.0,0.0,0.0,0.0,0.0,0.0,1500,1500,1500,1500,1500,1500
1748734820.1381872,0.0,0.0,0.01,0.0,0.001090830782496456,0.0,0.005965237268461105,0.7272968959676159,1.6119444496600848,0.0,0.0,0.0,0.0,0.0,0.0,1500,1500,1500,1500,1500,1500
1748734820.249148,0.0,0.0,0.01,0.0,0.001090830782496456,0.0,0.005965237268461105,0.7272968959676159,1.6119444496600848,0.0,0.0,0.0,0.0,0.0,0.0,1500,1500,1500,1500,1500,1500
1748734820.3575947,0.01,-0.02,0.04,-0.001090830782496456,0.003272492347489368,-0.001090830782496456,0.005965237268461105,0.7272968959676159,1.6119444496600848,0.0,0.0,0.0,0.0,0.0,0.0,1500,1500,1500,1500,1500,1500
1748734820.4566991,0.0,-0.04,0.05,0.0,-0.001090830782496456,-0.002181661564992912,0.005965237268461105,0.7272968959676159,1.6119444496600848,0.0,0.0,0.0,0.0,0.0,0.0,1500,1500,1500,1500,1500,1500
1748734820.5588574,0.0,-0.04,0.05,0.0,-0.001090830782496456,-0.002181661564992912,0.005965237268461105,0.7272968959676159,1.6119444496600848,0.0,0.0,0.0,0.0,0.0,0.0,1500,1500,1500,1500,1500,1500
1748734820.6678486,0.0,0.0,0.02,0.001090830782496456,-0.001090830782496456,-0.001090830782496456,0.005965237268461105,0.7272968959676159,1.6119444496600848,0.0,0.0,0.0,0.0,0.0,0.0,1500,1500,1500,1500,1500,1500
1748734820.7766032,0.0,0.0,0.02,0.001090830782496456,-0.001090830782496456,-0.001090830782496456,0.005965237268461105,0.7272968959676159,1.6119444496600848,0.0,0.0,0.0,0.0,0.0,0.0,1500,1500,1500,1500,1500,1500
1748734820.8855903,0.0,-0.02,0.04,0.002181661564992912,-0.004363323129985824,-0.001090830782496456,0.005965237268461105,0.7272968959676159,1.6119444496600848,0.0,0.0,0.0,0.0,0.0,0.0,1500,1500,1500,1500,1500,1500
1748734820.9933622,0.01,-0.05,0.05,0.001090830782496456,-0.004363323129985824,0.001090830782496456,0.005965237268461105,0.7272968959676159,1.6119444496600848,0.0,0.0,0.0,0.0,0.0,0.0,1500,1500,1500,1500,1500,1500
1748734821.0884326,0.0,-0.04,0.02,-0.002181661564992912,-0.001090830782496456,0.002181661564992912,0.005965237268461105,0.7272968959676159,1.6119444496600848,0.0,0.0,0.0,0.0,0.0,0.0,1500,1500,1500,1500,1500,1500
1748734821.1961648,0.0,-0.04,0.02,-0.002181661564992912,-0.001090830782496456,0.002181661564992912,0.005965237268461105,0.7272968959676159,1.6119444496600848,0.0,0.0,0.0,0.0,0.0,0.0,1500,1500,1500,1500,1500,1500
1748734821.3061066,0.0,0.0,0.01,0.003272492347489368,-0.001090830782496456,0.0,0.005965237268461105,0.7272968959676159,1.6119444496600848,0.0,0.0,0.0,0.0,0.0,0.0,1500,1500,1500,1500,1500,1500
1748734821.4060173,0.0,0.02,0.02,-0.002181661564992912,-0.001090830782496456,-0.001090830782496456,0.005965237268461105,0.7272968959676159,1.6119444496600848,0.0,0.0,0.0,0.0,0.0,0.0,1500,1500,1500,1500,1500,1500
1748734821.5220191,0.0,0.02,0.02,-0.002181661564992912,-0.001090830782496456,-0.001090830782496456,0.005965237268461105,0.7272968959676159,1.6119444496600848,0.0,0.0,0.0,0.0,0.0,0.0,1500,1500,1500,1500,1500,1500
1748734821.6459296,0.0,-0.04,0.03,0.0,-0.001090830782496456,0.001090830782496456,0.005965237268461105,0.7272968959676159,1.6119444496600848,0.0,0.0,0.0,0.0,0.0,0.0,1500,1500,1500,1500,1500,1500
1748734821.7686267,0.0,0.0,0.04,0.001090830782496456,-0.00545415391248228,0.002181661564992912,0.005965237268461105,0.7272968959676159,1.6119444496600848,0.0,0.0,0.0,0.0,0.0,0.0,1500,1500,1500,1500,1500,1500
1748734821.8761163,0.0,0.0,0.04,0.001090830782496456,-0.00545415391248228,0.002181661564992912,0.005965237268461105,0.7272968959676159,1.6119444496600848,0.0,0.0,0.0,0.0,0.0,0.0,1500,1500,1500,1500,1500,1500
1748734821.9866564,0.02,0.0,0.05,0.0,-0.002181661564992912,0.0,0.005965237268461105,0.7272968959676159,1.6119444496600848,0.0,0.0,0.0,0.0,0.0,0.0,1500,1500,1500,1500,1500,1500
1748734822.0779183,0.01,0.02,0.0,-0.003272492347489368,-0.001090830782496456,-0.002181661564992912,0.005965237268461105,0.7272968959676159,1.6119444496600848,0.0,0.0,0.0,0.0,0.0,0.0,1500,1500,1500,1500,1500,1500
1748734822.1861491,0.01,0.02,0.0,-0.003272492347489368,-0.001090830782496456,-0.002181661564992912,0.005965237268461105,0.7272968959676159,1.6119444496600848,0.0,0.0,0.0,0.0,0.0,0.0,1500,1500,1500,1500,1500,1500
1748734822.296643,0.0,-0.03,0.02,0.0,0.004363323129985824,-0.001090830782496456,0.005965237268461105,0.7272968959676159,1.6119444496600848,0.0,0.0,0.0,0.0,0.0,0.0,1500,1500,1500,1500,1500,1500
1748734822.405988,0.0,-0.03,0.05,-0.001090830782496456,-0.001090830782496456,0.0,0.005965237268461105,0.7272968959676159,1.6119444496600848,0.0,0.0,0.0,0.0,0.0,0.0,1500,1500,1500,1500,1500,1500
1748734822.5227084,0.02,0.0,0.04,-0.002181661564992912,-0.001090830782496456,0.001090830782496456,0.005965237268461105,0.7272968959676159,1.6119444496600848,0.0,0.0,0.0,0.0,0.0,0.0,1500,1500,1500,1500,1500,1500
1748734822.6246176,0.02,0.0,0.04,-0.002181661564992912,-0.001090830782496456,0.001090830782496456,0.005965237268461105,0.7272968959676159,1.6119444496600848,0.0,0.0,0.0,0.0,0.0,0.0,1500,1500,1500,1500,1500,1500
1748734822.733258,0.0,-0.03,0.04,0.001090830782496456,-0.003272492347489368,-0.001090830782496456,0.005965237268461105,0.7272968959676159,1.6119444496600848,0.0,0.0,0.0,0.0,0.0,0.0,1500,1500,1500,1500,1500,1500
1748734822.841985,0.0,-0.03,0.04,0.001090830782496456,-0.003272492347489368,-0.001090830782496456,0.005965237268461105,0.7272968959676159,1.6119444496600848,0.0,0.0,0.0,0.0,0.0,0.0,1500,1500,1500,1500,1500,1500
1748734822.9478822,0.01,0.0,0.01,0.001090830782496456,-0.001090830782496456,0.001090830782496456,0.005965237268461105,0.7272968959676159,1.6119444496600848,0.0,0.0,0.0,0.0,0.0,0.0,1500,1500,1500,1500,1500,1500
1748734823.0561216,0.0,-0.05,0.06,0.0,0.002181661564992912,0.001090830782496456,0.005965237268461105,0.7272968959676159,1.6119444496600848,0.0,0.0,0.0,0.0,0.0,0.0,1500,1500,1500,1500,1500,1500
1748734823.1580045,0.0,-0.05,0.02,-0.001090830782496456,0.0,0.001090830782496456,0.005965237268461105,0.7272968959676159,1.6119444496600848,0.0,0.0,0.0,0.0,0.0,0.0,1500,1500,1500,1500,1500,1500
1748734823.2592793,0.0,-0.05,0.02,-0.001090830782496456,0.0,0.001090830782496456,0.005965237268461105,0.7272968959676159,1.6119444496600848,0.0,0.0,0.0,0.0,0.0,0.0,1500,1500,1500,1500,1500,1500
1748734823.3745027,0.02,0.01,0.01,0.001090830782496456,0.0,0.0,0.005965237268461105,0.7272968959676159,1.6119444496600848,0.0,0.0,0.0,0.0,0.0,0.0,1500,1500,1500,1500,1500,1500
1748734823.473061,0.0,-0.02,0.05,-0.004363323129985824,0.004363323129985824,0.0,0.005965237268461105,0.7272968959676159,1.6119444496600848,0.0,0.0,0.0,0.0,0.0,0.0,1500,1500,1500,1500,1500,1500
1748734823.5860927,0.0,-0.02,0.05,-0.004363323129985824,0.004363323129985824,0.0,0.005965237268461105,0.7272968959676159,1.6119444496600848,0.0,0.0,0.0,0.0,0.0,0.0,1500,1500,1500,1500,1500,1500
1748734823.6959405,0.0,-0.05,0.05,0.002181661564992912,0.003272492347489368,-0.003272492347489368,0.005965237268461105,0.7272968959676159,1.6119444496600848,0.0,0.0,0.0,0.0,0.0,0.0,1500,1500,1500,1500,1500,1500
1748734823.7931926,0.01,0.0,0.0,-0.001090830782496456,0.0,0.0,0.005965237268461105,0.7272968959676159,1.6119444496600848,0.0,0.0,0.0,0.0,0.0,0.0,1500,1500,1500,1500,1500,1500
1748734823.901086,0.01,0.0,0.0,-0.001090830782496456,0.0,0.0,0.005965237268461105,0.7272968959676159,1.6119444496600848,0.0,0.0,0.0,0.0,0.0,0.0,1500,1500,1500,1500,1500,1500
1748734824.0093365,0.02,0.0,0.02,0.003272492347489368,0.0,0.002181661564992912,0.005965237268461105,0.7272968959676159,1.6119444496600848,0.0,0.0,0.0,0.0,0.0,0.0,1500,1500,1500,1500,1500,1500
1748734824.1098194,0.0,-0.01,0.05,-0.003272492347489368,0.0,0.001090830782496456,0.005965237268461105,0.7272968959676159,1.6119444496600848,0.0,0.0,0.0,0.0,0.0,0.0,1500,1500,1500,1500,1500,1500
1748734824.2115924,0.0,-0.01,0.05,-0.003272492347489368,0.0,0.001090830782496456,0.005965237268461105,0.7272968959676159,1.6119444496600848,0.0,0.0,0.0,0.0,0.0,0.0,1500,1500,1500,1500,1500,1500
1748734824.3207474,,,,0.001090830782496456,0.001090830782496456,0.0,0.005965237268461105,0.7272968959676159,1.6119444496600848,0.0,0.0,0.0,0.0,0.0,0.0,1500,1500,1500,1500,1500,1500
1748734824.4216647,0.02,0.0,0.01,0.003272492347489368,-0.002181661564992912,0.0,0.005965237268461105,0.7272968959676159,1.6119444496600848,0.0,0.0,0.0,0.0,0.0,0.0,1500,1500,1500,1500,1500,1500
1748734824.5375035,0.02,0.0,0.01,0.003272492347489368,-0.002181661564992912,0.0,0.005965237268461105,0.7272968959676159,1.6119444496600848,0.0,0.0,0.0,0.0,0.0,0.0,1500,1500,1500,1500,1500,1500
1748734824.659854,0.01,0.0,0.05,0.002181661564992912,-0.002181661564992912,-0.001090830782496456,0.005965237268461105,0.7272968959676159,1.6119444496600848,0.0,0.0,0.0,0.0,0.0,0.0,1500,1500,1500,1500,1500,1500
1748734824.769269,0.01,0.0,0.0,-0.001090830782496456,0.0,0.0,0.005965237268461105,0.7272968959676159,1.6119444496600848,0.0,0.0,0.0,0.0,0.0,0.0,1500,1500,1500,1500,1500,1500
1748734824.8775582,0.01,0.0,0.0,-0.001090830782496456,0.0,0.0,0.005965237268461105,0.7272968959676159,1.6119444496600848,0.0,0.0,0.0,0.0,0.0,0.0,1500,1500,1500,1500,1500,1500
1748734824.9863522,0.02,-0.04,0.06,0.001090830782496456,0.002181661564992912,-0.001090830782496456,0.005965237268461105,0.7272968959676159,1.6119444496600848,0.0,0.0,0.0,0.0,0.0,0.0,1500,1500,1500,1500,1500,1500
1748734825.094486,0.0,-0.01,0.04,0.003272492347489368,-0.003272492347489368,0.001090830782496456,0.005965237268461105,0.7272968959676159,1.6119444496600848,0.0,0.0,0.0,0.0,0.0,0.0,1500,1500,1500,1500,1500,1500
1748734825.2006648,0.0,-0.01,0.04,0.003272492347489368,-0.003272492347489368,0.001090830782496456,0.005965237268461105,0.7272968959676159,1.6119444496600848,0.0,0.0,0.0,0.0,0.0,0.0,1500,1500,1500,1500,1500,1500
1748734825.307571,0.02,0.01,0.04,-0.002181661564992912,0.001090830782496456,0.001090830782496456,0.005965237268461105,0.7272968959676159,1.6119444496600848,0.0,0.0,0.0,0.0,0.0,0.0,1500,1500,1500,1500,1500,1500
1748734825.417662,0.0,-0.03,0.04,-0.002181661564992912,0.0,0.0,0.005965237268461105,0.7272968959676159,1.6119444496600848,0.0,0.0,0.0,0.0,0.0,0.0,1500,1500,1500,1500,1500,1500
1748734825.5262656,0.0,-0.03,0.04,-0.002181661564992912,0.0,0.0,0.005965237268461105,0.7272968959676159,1.6119444496600848,0.0,0.0,0.0,0.0,0.0,0.0,1500,1500,1500,1500,1500,1500
1748734825.63461,0.01,-0.04,0.05,-0.002181661564992912,-0.003272492347489368,-0.001090830782496456,0.005965237268461105,0.7272968959676159,1.6119444496600848,0.0,0.0,0.0,0.0,0.0,0.0,1500,1500,1500,1500,1500,1500
1748734825.7598162,0.0,-0.04,0.02,-0.002181661564992912,-0.003272492347489368,0.001090830782496456,0.005965237268461105,0.7272968959676159,1.6119444496600848,0.0,0.0,0.0,0.0,0.0,0.0,1500,1500,1500,1500,1500,1500
1748734825.8515763,0.01,0.0,0.02,-0.004363323129985824,0.003272492347489368,0.001090830782496456,0.005965237268461105,0.7272968959676159,1.6119444496600848,0.0,0.0,0.0,0.0,0.0,0.0,1500,1500,1500,1500,1500,1500
1748734825.9616745,0.01,0.0,0.02,-0.004363323129985824,0.003272492347489368,0.001090830782496456,0.005965237268461105,0.7272968959676159,1.6119444496600848,0.0,0.0,0.0,0.0,0.0,0.0,1500,1500,1500,1500,1500,1500
1748734826.087616,0.0,-0.01,0.03,-0.001090830782496456,-0.001090830782496456,-0.001090830782496456,0.005965237268461105,0.7272968959676159,1.6119444496600848,0.0,0.0,0.0,0.0,0.0,0.0,1500,1500,1500,1500,1500,1500
1748734826.1939044,0.0,-0.02,0.03,0.0,-0.002181661564992912,0.001090830782496456,0.005965237268461105,0.7272968959676159,1.6119444496600848,0.0,0.0,0.0,0.0,0.0,0.0,1500,1500,1500,1500,1500,1500
1748734826.3022695,0.0,-0.02,0.03,0.0,-0.002181661564992912,0.001090830782496456,0.005965237268461105,0.7272968959676159,1.6119444496600848,0.0,0.0,0.0,0.0,0.0,0.0,1500,1500,1500,1500,1500,1500
1748734826.4231524,0.0,-0.02,0.02,0.0,0.003272492347489368,0.0,0.005965237268461105,0.7272968959676159,1.6119444496600848,0.0,0.0,0.0,0.0,0.0,0.0,1500,1500,1500,1500,1500,1500
1748734826.5317938,0.0,0.01,0.05,0.0,0.0,0.0,0.005965237268461105,0.7272968959676159,1.6119444496600848,0.0,0.0,0.0,0.0,0.0,0.0,1500,1500,1500,1500,1500,1500
1748734826.6374338,0.0,0.01,0.05,0.0,0.0,0.0,0.005965237268461105,0.7272968959676159,1.6119444496600848,0.0,0.0,0.0,0.0,0.0,0.0,1500,1500,1500,1500,1500,1500
1748734826.74581,0.02,-0.01,0.02,-0.001090830782496456,-0.001090830782496456,-0.002181661564992912,0.005965237268461105,0.7272968959676159,1.6119444496600848,0.0,0.0,0.0,0.0,0.0,0.0,1500,1500,1500,1500,1500,1500
1748734826.854098,0.01,-0.03,0.03,-0.001090830782496456,0.0,0.0,0.005965237268461105,0.7272968959676159,1.6119444496600848,0.0,0.0,0.0,0.0,0.0,0.0,1500,1500,1500,1500,1500,1500
1748734826.9612923,0.01,-0.03,0.03,-0.001090830782496456,0.0,0.0,0.005965237268461105,0.7272968959676159,1.6119444496600848,0.0,0.0,0.0,0.0,0.0,0.0,1500,1500,1500,1500,1500,1500
1748734827.069178,0.02,-0.03,0.02,0.001090830782496456,0.002181661564992912,0.0,0.005965237268461105,0.7272968959676159,1.6119444496600848,0.0,0.0,0.0,0.0,0.0,0.0,1500,1500,1500,1500,1500,1500
1748734827.1790087,0.01,0.0,0.03,0.002181661564992912,0.0,0.0,0.005965237268461105,0.7272968959676159,1.6119444496600848,0.0,0.0,0.0,0.0,0.0,0.0,1500,1500,1500,1500,1500,1500
1748734827.2774842,0.0,0.0,0.05,0.0,0.002181661564992912,-0.001090830782496456,0.005965237268461105,0.7272968959676159,1.6119444496600848,0.0,0.0,0.0,0.0,0.0,0.0,1500,1500,1500,1500,1500,1500
1748734827.380695,0.0,0.0,0.05,0.0,0.002181661564992912,-0.001090830782496456,0.005965237268461105,0.7272968959676159,1.6119444496600848,0.0,0.0,0.0,0.0,0.0,0.0,1500,1500,1500,1500,1500,1500
1748734827.5043194,0.02,-0.05,0.05,0.002181661564992912,-0.003272492347489368,0.002181661564992912,0.005965237268461105,0.7272968959676159,1.6119444496600848,0.0,0.0,0.0,0.0,0.0,0.0,1500,1500,1500,1500,1500,1500
1748734827.6285164,0.01,-0.05,0.02,-0.002181661564992912,0.0,-0.002181661564992912,0.005965237268461105,0.7272968959676159,1.6119444496600848,0.0,0.0,0.0,0.0,0.0,0.0,1500,1500,1500,1500,1500,1500
1748734827.737695,0.01,-0.05,0.02,-0.002181661564992912,0.0,-0.002181661564992912,0.005965237268461105,0.7272968959676159,1.6119444496600848,0.0,0.0,0.0,0.0,0.0,0.0,1500,1500,1500,1500,1500,1500
1748734827.8440566,0.02,-0.02,0.01,0.001090830782496456,0.003272492347489368,0.002181661564992912,0.005965237268461105,0.7272968959676159,1.6119444496600848,0.0,0.0,0.0,0.0,0.0,0.0,1500,1500,1500,1500,1500,1500
1748734827.9361022,0.02,0.0,0.05,0.0,-0.001090830782496456,-0.001090830782496456,0.005965237268461105,0.7272968959676159,1.6119444496600848,0.0,0.0,0.0,0.0,0.0,0.0,1500,1500,1500,1500,1500,1500
1748734828.045853,0.02,0.0,0.05,0.0,-0.001090830782496456,-0.001090830782496456,0.005965237268461105,0.7272968959676159,1.6119444496600848,0.0,0.0,0.0,0.0,0.0,0.0,1500,1500,1500,1500,1500,1500
1748734828.1550152,0.01,-0.05,0.06,-0.001090830782496456,-0.003272492347489368,0.003272492347489368,0.005965237268461105,0.7272968959676159,1.6119444496600848,0.0,0.0,0.0,0.0,0.0,0.0,1500,1500,1500,1500,1500,1500
1748734828.264981,0.0,-0.04,0.05,0.0,-0.001090830782496456,0.002181661564992912,0.005965237268461105,0.7272968959676159,1.6119444496600848,0.0,0.0,0.0,0.0,0.0,0.0,1500,1500,1500,1500,1500,1500
1748734828.3724928,0.0,-0.04,0.05,0.0,-0.001090830782496456,0.002181661564992912,0.005965237268461105,0.7272968959676159,1.6119444496600848,0.0,0.0,0.0,0.0,0.0,0.0,1500,1500,1500,1500,1500,1500
1748734828.4817188,0.0,-0.05,0.01,0.0,0.002181661564992912,0.0,0.005965237268461105,0.7272968959676159,1.6119444496600848,0.0,0.0,0.0,0.0,0.0,0.0,1500,1500,1500,1500,1500,1500
1748734828.5888445,0.02,0.0,0.0,0.002181661564992912,-0.003272492347489368,-0.001090830782496456,0.005965237268461105,0.7272968959676159,1.6119444496600848,0.0,0.0,0.0,0.0,0.0,0.0,1500,1500,1500,1500,1500,1500
1748734828.6968937,0.02,0.0,0.0,0.002181661564992912,-0.003272492347489368,-0.001090830782496456,0.005965237268461105,0.7272968959676159,1.6119444496600848,0.0,0.0,0.0,0.0,0.0,0.0,1500,1500,1500,1500,1500,1500
1748734828.80411,0.0,0.0,0.02,0.001090830782496456,0.003272492347489368,0.001090830782496456,0.005965237268461105,0.7272968959676159,1.6119444496600848,0.0,0.0,0.0,0.0,0.0,0.0,1500,1500,1500,1500,1500,1500
1748734828.913898,0.01,-0.04,0.06,-0.001090830782496456,0.001090830782496456,0.001090830782496456,0.005965237268461105,0.7272968959676159,1.6119444496600848,0.0,0.0,0.0,0.0,0.0,0.0,1500,1500,1500,1500,1500,1500
1748734829.0219975,0.01,-0.04,0.06,-0.001090830782496456,0.001090830782496456,0.001090830782496456,0.005965237268461105,0.7272968959676159,1.6119444496600848,0.0,0.0,0.0,0.0,0.0,0.0,1500,1500,1500,1500,1500,1500
1748734829.1305203,0.0,-0.01,0.04,0.0,0.003272492347489368,0.0,0.005965237268461105,0.7272968959676159,1.6119444496600848,0.0,0.0,0.0,0.0,0.0,0.0,1500,1500,1500,1500,1500,1500
1748734829.2545962,0.01,0.0,0.04,0.002181661564992912,0.0,-0.002181661564992912,0.005965237268461105,0.7272968959676159,1.6119444496600848,0.0,0.0,0.0,0.0,0.0,0.0,1500,1500,1500,1500,1500,1500
1748734829.3780923,0.02,0.0,0.02,0.0,0.003272492347489368,0.001090830782496456,0.005965237268461105,0.7272968959676159,1.6119444496600848,0.0,0.0,0.0,0.0,0.0,0.0,1500,1500,1500,1500,1500,1500
1748734829.4883215,0.02,0.0,0.02,0.0,0.003272492347489368,0.001090830782496456,0.005965237268461105,0.7272968959676159,1.6119444496600848,0.0,0.0,0.0,0.0,0.0,0.0,1500,1500,1500,1500,1500,1500
1748734829.580361,0.0,-0.02,0.02,-0.002181661564992912,0.002181661564992912,0.0,0.005965237268461105,0.7272968959676159,1.6119444496600848,0.0,0.0,0.0,0.0,0.0,0.0,1500,1500,1500,1500,1500,1500
1748734829.6629014,0.0,-0.04,0.05,0.0,0.0,0.001090830782496456,0.005965237268461105,0.7272968959676159,1.6119444496600848,0.0,0.0,0.0,0.0,0.0,0.0,1500,1500,1500,1500,1500,1500
1748734829.7676492,0.0,-0.04,0.05,0.0,0.0,0.001090830782496456,0.005965237268461105,0.7272968959676159,1.6119444496600848,0.0,0.0,0.0,0.0,0.0,0.0,1500,1500,1500,1500,1500,1500
1748734829.859307,0.01,-0.03,0.03,0.002181661564992912,0.0,0.001090830782496456,0.9402291830839776,-0.33451505619628885,-1.5865689451508749,0.0,0.0,0.0,0.0,0.0,0.0,1500,1500,1500,1500,1500,1500
1748734829.9659777,0.01,-0.03,0.03,0.002181661564992912,0.0,0.001090830782496456,0.9402291830839776,-0.33451505619628885,-1.5865689451508749,0.0,0.0,0.0,0.0,0.0,0.0,1500,1500,1500,1500,1500,1500
1748734830.074252,0.02,0.0,0.03,-0.001090830782496456,0.0,0.001090830782496456,0.005965237268461105,0.7272968959676159,1.6119444496600848,0.0,0.0,0.0,0.0,0.0,0.0,1500,1500,1500,1500,1500,1500
1748734830.2006383,0.0,-0.03,0.06,0.002181661564992912,-0.00545415391248228,0.001090830782496456,0.005965237268461105,0.7272968959676159,1.6119444496600848,0.0,0.0,0.0,0.0,0.0,0.0,1500,1500,1500,1500,1500,1500
1748734830.2947822,0.02,-0.04,0.03,0.001090830782496456,-0.001090830782496456,0.001090830782496456,0.005965237268461105,0.7272968959676159,1.6119444496600848,0.0,0.0,0.0,0.0,0.0,0.0,1500,1500,1500,1500,1500,1500
1748734830.3986766,0.02,-0.04,0.03,0.001090830782496456,-0.001090830782496456,0.001090830782496456,0.005965237268461105,0.7272968959676159,1.6119444496600848,0.0,0.0,0.0,0.0,0.0,0.0,1500,1500,1500,1500,1500,1500
1748734830.522028,0.02,0.0,0.01,-0.001090830782496456,-0.001090830782496456,0.003272492347489368,0.005965237268461105,0.7272968959676159,1.6119444496600848,0.0,0.0,0.0,0.0,0.0,0.0,1500,1500,1500,1500,1500,1500
1748734830.6460173,0.0,0.01,0.02,-0.001090830782496456,-0.002181661564992912,0.0,0.005965237268461105,0.7272968959676159,1.6119444496600848,0.0,0.0,0.0,0.0,0.0,0.0,1500,1500,1500,1500,1500,1500
1748734830.754886,0.0,0.01,0.02,-0.001090830782496456,-0.002181661564992912,0.0,0.005965237268461105,0.7272968959676159,1.6119444496600848,0.0,0.0,0.0,0.0,0.0,0.0,1500,1500,1500,1500,1500,1500
1748734830.8776598,0.0,-0.05,0.04,0.004363323129985824,0.002181661564992912,0.001090830782496456,0.005965237268461105,0.7272968959676159,1.6119444496600848,0.0,0.0,0.0,0.0,0.0,0.0,1500,1500,1500,1500,1500,1500
1748734830.9698217,0.01,0.0,0.02,-0.001090830782496456,0.003272492347489368,0.0,0.005965237268461105,0.7272968959676159,1.6119444496600848,0.0,0.0,0.0,0.0,0.0,0.0,1500,1500,1500,1500,1500,1500
1748734831.077891,0.01,0.0,0.02,-0.001090830782496456,0.003272492347489368,0.0,0.005965237268461105,0.7272968959676159,1.6119444496600848,0.0,0.0,0.0,0.0,0.0,0.0,1500,1500,1500,1500,1500,1500
1748734831.185767,0.01,0.01,0.02,0.002181661564992912,0.001090830782496456,-0.002181661564992912,0.005965237268461105,0.7272968959676159,1.6119444496600848,0.0,0.0,0.0,0.0,0.0,0.0,1500,1500,1500,1500,1500,1500
1748734831.2957523,0.0,0.0,0.01,0.003272492347489368,-0.002181661564992912,-0.001090830782496456,0.005965237268461105,0.7272968959676159,1.6119444496600848,0.0,0.0,0.0,0.0,0.0,0.0,1500,1500,1500,1500,1500,1500
1748734831.404845,0.0,0.0,0.01,0.003272492347489368,-0.002181661564992912,-0.001090830782496456,0.005965237268461105,0.7272968959676159,1.6119444496600848,0.0,0.0,0.0,0.0,0.0,0.0,1500,1500,1500,1500,1500,1500
1748734831.5135064,0.0,-0.04,0.04,0.0,-0.008726646259971648,0.0,0.005965237268461105,0.7272968959676159,1.6119444496600848,0.0,0.0,0.0,0.0,0.0,0.0,1500,1500,1500,1500,1500,1500
1748734831.627712,-0.01,-0.02,0.03,0.001090830782496456,0.0,0.002181661564992912,0.005965237268461105,0.7272968959676159,1.6119444496600848,0.0,0.0,0.0,0.0,0.0,0.0,1500,1500,1500,1500,1500,1500
1748734831.721359,0.0,0.03,0.03,0.0,-0.002181661564992912,-0.002181661564992912,0.005965237268461105,0.7272968959676159,1.6119444496600848,0.0,0.0,0.0,0.0,0.0,0.0,1500,1500,1500,1500,1500,1500
1748734831.8225882,0.0,0.03,0.03,0.0,-0.002181661564992912,-0.002181661564992912,0.005965237268461105,0.7272968959676159,1.6119444496600848,0.0,0.0,0.0,0.0,0.0,0.0,1500,1500,1500,1500,1500,1500
1748734831.929822,0.01,-0.05,0.06,0.002181661564992912,-0.002181661564992912,0.0,0.005965237268461105,0.7272968959676159,1.6119444496600848,0.0,0.0,0.0,0.0,0.0,0.0,1500,1500,1500,1500,1500,1500
1748734832.0378015,0.0,-0.05,0.03,0.001090830782496456,-0.001090830782496456,0.0,0.005965237268461105,0.7272968959676159,1.6119444496600848,0.0,0.0,0.0,0.0,0.0,0.0,1500,1500,1500,1500,1500,1500
1748734832.1462061,0.0,-0.05,0.03,0.001090830782496456,-0.001090830782496456,0.0,0.005965237268461105,0.7272968959676159,1.6119444496600848,0.0,0.0,0.0,0.0,0.0,0.0,1500,1500,1500,1500,1500,1500
1748734832.2702053,0.01,-0.02,0.02,0.0,0.001090830782496456,-0.001090830782496456,0.005965237268461105,0.7272968959676159,1.6119444496600848,0.0,0.0,0.0,0.0,0.0,0.0,1500,1500,1500,1500,1500,1500
1748734832.3679209,0.0,-0.01,0.04,-0.003272492347489368,0.0,-0.002181661564992912,0.005965237268461105,0.7272968959676159,1.6119444496600848,0.0,0.0,0.0,0.0,0.0,0.0,1500,1500,1500,1500,1500,1500
1748734832.47019,0.0,-0.01,0.04,-0.003272492347489368,0.0,-0.002181661564992912,0.005965237268461105,0.7272968959676159,1.6119444496600848,0.0,0.0,0.0,0.0,0.0,0.0,1500,1500,1500,1500,1500,1500
1748734832.5766573,0.03,-0.01,0.06,0.001090830782496456,0.002181661564992912,0.001090830782496456,0.005965237268461105,0.7272968959676159,1.6119444496600848,0.0,0.0,0.0,0.0,0.0,0.0,1500,1500,1500,1500,1500,1500
1748734832.672079,0.01,-0.04,0.06,0.002181661564992912,0.0,0.0,0.005965237268461105,0.7272968959676159,1.6119444496600848,0.0,0.0,0.0,0.0,0.0,0.0,1500,1500,1500,1500,1500,1500
1748734832.7785366,0.01,-0.04,0.06,0.002181661564992912,0.0,0.0,0.005965237268461105,0.7272968959676159,1.6119444496600848,0.0,0.0,0.0,0.0,0.0,0.0,1500,1500,1500,1500,1500,1500
1748734832.886974,-0.01,0.0,0.02,-0.001090830782496456,0.0,-0.001090830782496456,0.005965237268461105,0.7272968959676159,1.6119444496600848,0.0,0.0,0.0,0.0,0.0,0.0,1500,1500,1500,1500,1500,1500
1748734832.9869478,0.01,-0.01,0.03,0.001090830782496456,-0.003272492347489368,-0.002181661564992912,0.005965237268461105,0.7272968959676159,1.6119444496600848,0.0,0.0,0.0,0.0,0.0,0.0,1500,1500,1500,1500,1500,1500
1748734833.089336,0.01,-0.01,0.03,0.001090830782496456,-0.003272492347489368,-0.002181661564992912,0.005965237268461105,0.7272968959676159,1.6119444496600848,0.0,0.0,0.0,0.0,0.0,0.0,1500,1500,1500,1500,1500,1500
1748734833.2003226,0.01,-0.01,0.03,-0.003272492347489368,-0.001090830782496456,-0.002181661564992912,0.005965237268461105,0.7272968959676159,1.6119444496600848,0.0,0.0,0.0,0.0,0.0,0.0,1500,1500,1500,1500,1500,1500
1748734833.3066344,0.01,-0.02,0.03,0.0,0.003272492347489368,0.0,0.005965237268461105,0.7272968959676159,1.6119444496600848,0.0,0.0,0.0,0.0,0.0,0.0,1500,1500,1500,1500,1500,1500
1748734833.4185357,0.01,-0.02,0.03,0.0,0.003272492347489368,0.0,0.005965237268461105,0.7272968959676159,1.6119444496600848,0.0,0.0,0.0,0.0,0.0,0.0,1500,1500,1500,1500,1500,1500
1748734833.5259826,0.0,-0.02,0.06,0.001090830782496456,-0.001090830782496456,0.001090830782496456,0.005965237268461105,0.7272968959676159,1.6119444496600848,0.0,0.0,0.0,0.0,0.0,0.0,1500,1500,1500,1500,1500,1500
1748734833.6234958,0.0,0.0,0.03,-0.002181661564992912,0.001090830782496456,0.0,0.005965237268461105,0.7272968959676159,1.6119444496600848,0.0,0.0,0.0,0.0,0.0,0.0,1500,1500,1500,1500,1500,1500
1748734833.7267992,0.0,0.0,0.03,-0.002181661564992912,0.001090830782496456,0.0,0.005965237268461105,0.7272968959676159,1.6119444496600848,0.0,0.0,0.0,0.0,0.0,0.0,1500,1500,1500,1500,1500,1500
1748734833.8369095,0.0,-0.05,0.04,-0.001090830782496456,0.001090830782496456,0.0,0.005965237268461105,0.7272968959676159,1.6119444496600848,0.0,0.0,0.0,0.0,0.0,0.0,1500,1500,1500,1500,1500,1500
1748734833.9391894,0.0,-0.03,0.04,0.001090830782496456,0.002181661564992912,-0.002181661564992912,0.005965237268461105,0.7272968959676159,1.6119444496600848,0.0,0.0,0.0,0.0,0.0,0.0,1500,1500,1500,1500,1500,1500
1748734834.0547078,0.0,-0.03,0.04,0.001090830782496456,0.002181661564992912,-0.002181661564992912,0.005965237268461105,0.7272968959676159,1.6119444496600848,0.0,0.0,0.0,0.0,0.0,0.0,1500,1500,1500,1500,1500,1500
1748734834.1576533,0.01,-0.01,0.0,-0.001090830782496456,-0.003272492347489368,-0.001090830782496456,0.005965237268461105,0.7272968959676159,1.6119444496600848,0.0,0.0,0.0,0.0,0.0,0.0,1500,1500,1500,1500,1500,1500
1748734834.2675097,0.01,-0.01,0.0,-0.001090830782496456,-0.003272492347489368,-0.001090830782496456,0.005965237268461105,0.7272968959676159,1.6119444496600848,0.0,0.0,0.0,0.0,0.0,0.0,1500,1500,1500,1500,1500,1500
1748734834.3767183,0.01,0.0,0.04,0.0,-0.002181661564992912,-0.003272492347489368,0.005965237268461105,0.7272968959676159,1.6119444496600848,0.0,0.0,0.0,0.0,0.0,0.0,1500,1500,1500,1500,1500,1500
1748734834.4838905,0.0,0.0,0.02,0.001090830782496456,0.0,-0.001090830782496456,0.005965237268461105,0.7272968959676159,1.6119444496600848,0.0,0.0,0.0,0.0,0.0,0.0,1500,1500,1500,1500,1500,1500
1748734834.573204,0.0,0.0,0.02,0.001090830782496456,0.002181661564992912,0.0,0.005965237268461105,0.7272968959676159,1.6119444496600848,0.0,0.0,0.0,0.0,0.0,0.0,1500,1500,1500,1500,1500,1500
1748734834.685036,0.0,0.0,0.02,0.001090830782496456,0.002181661564992912,0.0,0.005965237268461105,0.7272968959676159,1.6119444496600848,0.0,0.0,0.0,0.0,0.0,0.0,1500,1500,1500,1500,1500,1500
1748734834.793598,0.01,0.0,0.04,0.004363323129985824,0.0,-0.001090830782496456,0.005965237268461105,0.7272968959676159,1.6119444496600848,0.0,0.0,0.0,0.0,0.0,0.0,1500,1500,1500,1500,1500,1500
1748734834.8937798,0.0,-0.01,0.06,0.001090830782496456,0.001090830782496456,0.001090830782496456,0.005965237268461105,0.7272968959676159,1.6119444496600848,0.0,0.0,0.0,0.0,0.0,0.0,1500,1500,1500,1500,1500,1500
1748734835.0094476,0.0,-0.01,0.06,0.001090830782496456,0.001090830782496456,0.001090830782496456,0.005965237268461105,0.7272968959676159,1.6119444496600848,0.0,0.0,0.0,0.0,0.0,0.0,1500,1500,1500,1500,1500,1500
1748734835.1188972,0.0,-0.04,0.03,0.0,-0.001090830782496456,0.001090830782496456,0.005965237268461105,0.7272968959676159,1.6119444496600848,0.0,0.0,0.0,0.0,0.0,0.0,1500,1500,1500,1500,1500,1500
1748734835.2179613,0.01,-0.02,0.04,0.002181661564992912,0.001090830782496456,0.0,0.005965237268461105,0.7272968959676159,1.6119444496600848,0.0,0.0,0.0,0.0,0.0,0.0,1500,1500,1500,1500,1500,1500
1748734835.3341434,0.01,-0.02,0.04,0.002181661564992912,0.001090830782496456,0.0,0.005965237268461105,0.7272968959676159,1.6119444496600848,0.0,0.0,0.0,0.0,0.0,0.0,1500,1500,1500,1500,1500,1500
1748734835.4429307,0.01,0.0,0.0,0.003272492347489368,-0.003272492347489368,0.0,0.005965237268461105,0.7272968959676159,1.6119444496600848,0.0,0.0,0.0,0.0,0.0,0.0,1500,1500,1500,1500,1500,1500
1748734835.5508952,0.01,0.0,0.0,0.0,-0.002181661564992912,0.002181661564992912,0.005965237268461105,0.7272968959676159,1.6119444496600848,0.0,0.0,0.0,0.0,0.0,0.0,1500,1500,1500,1500,1500,1500
1748734835.6578574,0.01,0.0,0.0,0.0,-0.002181661564992912,0.002181661564992912,0.005965237268461105,0.7272968959676159,1.6119444496600848,0.0,0.0,0.0,0.0,0.0,0.0,1500,1500,1500,1500,1500,1500
1748734835.7668536,0.0,-0.04,0.04,-0.001090830782496456,0.004363323129985824,0.001090830782496456,0.005965237268461105,0.7272968959676159,1.6119444496600848,0.0,0.0,0.0,0.0,0.0,0.0,1500,1500,1500,1500,1500,1500
1748734835.874205,-0.02,-0.02,0.03,-0.001090830782496456,-0.003272492347489368,0.001090830782496456,0.005965237268461105,0.7272968959676159,1.6119444496600848,0.0,0.0,0.0,0.0,0.0,0.0,1500,1500,1500,1500,1500,1500
1748734835.9805317,-0.02,-0.02,0.03,-0.001090830782496456,-0.003272492347489368,0.001090830782496456,0.005965237268461105,0.7272968959676159,1.6119444496600848,0.0,0.0,0.0,0.0,0.0,0.0,1500,1500,1500,1500,1500,1500
1748734836.0909324,0.01,-0.03,0.03,-0.002181661564992912,0.001090830782496456,-0.002181661564992912,0.005965237268461105,0.7272968959676159,1.6119444496600848,0.0,0.0,0.0,0.0,0.0,0.0,1500,1500,1500,1500,1500,1500
1748734836.2001686,0.0,0.01,0.01,0.001090830782496456,0.001090830782496456,0.001090830782496456,0.005965237268461105,0.7272968959676159,1.6119444496600848,0.0,0.0,0.0,0.0,0.0,0.0,1500,1500,1500,1500,1500,1500
1748734836.3084154,0.0,0.01,0.01,0.001090830782496456,0.001090830782496456,0.001090830782496456,0.005965237268461105,0.7272968959676159,1.6119444496600848,0.0,0.0,0.0,0.0,0.0,0.0,1500,1500,1500,1500,1500,1500
1748734836.415989,0.02,0.01,0.05,-0.003272492347489368,0.002181661564992912,0.001090830782496456,0.005965237268461105,0.7272968959676159,1.6119444496600848,0.0,0.0,0.0,0.0,0.0,0.0,1500,1500,1500,1500,1500,1500
1748734836.5239801,0.0,0.0,0.02,-0.001090830782496456,-0.00545415391248228,0.002181661564992912,0.005965237268461105,0.7272968959676159,1.6119444496600848,0.0,0.0,0.0,0.0,0.0,0.0,1500,1500,1500,1500,1500,1500
1748734836.6341941,0.0,0.0,0.02,-0.001090830782496456,-0.00545415391248228,0.002181661564992912,0.005965237268461105,0.7272968959676159,1.6119444496600848,0.0,0.0,0.0,0.0,0.0,0.0,1500,1500,1500,1500,1500,1500
1748734836.7416325,-0.01,-0.02,0.03,0.0,0.0,0.0,0.005965237268461105,0.7272968959676159,1.6119444496600848,0.0,0.0,0.0,0.0,0.0,0.0,1500,1500,1500,1500,1500,1500
1748734836.8513484,0.02,-0.01,0.01,0.001090830782496456,0.002181661564992912,-0.001090830782496456,0.005965237268461105,0.7272968959676159,1.6119444496600848,0.0,0.0,0.0,0.0,0.0,0.0,1500,1500,1500,1500,1500,1500
1748734836.958261,0.02,-0.01,0.01,0.001090830782496456,0.002181661564992912,-0.001090830782496456,0.005965237268461105,0.7272968959676159,1.6119444496600848,0.0,0.0,0.0,0.0,0.0,0.0,1500,1500,1500,1500,1500,1500
1748734837.0666227,0.0,0.0,0.01,-0.001090830782496456,-0.004363323129985824,0.0,0.005965237268461105,0.7272968959676159,1.6119444496600848,0.0,0.0,0.0,0.0,0.0,0.0,1500,1500,1500,1500,1500,1500
1748734837.1881568,0.0,0.0,0.02,-0.00545415391248228,-0.003272492347489368,0.002181661564992912,0.005965237268461105,0.7272968959676159,1.6119444496600848,0.0,0.0,0.0,0.0,0.0,0.0,1500,1500,1500,1500,1500,1500
1748734837.2835236,0.02,-0.02,0.04,0.002181661564992912,0.001090830782496456,-0.001090830782496456,0.005965237268461105,0.7272968959676159,1.6119444496600848,0.0,0.0,0.0,0.0,0.0,0.0,1500,1500,1500,1500,1500,1500
1748734837.3917294,0.02,-0.02,0.04,0.002181661564992912,0.001090830782496456,-0.001090830782496456,0.005965237268461105,0.7272968959676159,1.6119444496600848,0.0,0.0,0.0,0.0,0.0,0.0,1500,1500,1500,1500,1500,1500
1748734837.5012314,0.01,0.0,0.03,0.004363323129985824,-0.001090830782496456,0.0,0.005965237268461105,0.7272968959676159,1.6119444496600848,0.0,0.0,0.0,0.0,0.0,0.0,1500,1500,1500,1500,1500,1500
1748734837.6013584,0.0,0.0,0.0,0.0,0.003272492347489368,0.0,0.005965237268461105,0.7272968959676159,1.6119444496600848,0.0,0.0,0.0,0.0,0.0,0.0,1500,1500,1500,1500,1500,1500
1748734837.7183843,0.0,0.0,0.0,0.0,0.003272492347489368,0.0,0.005965237268461105,0.7272968959676159,1.6119444496600848,0.0,0.0,0.0,0.0,0.0,0.0,1500,1500,1500,1500,1500,1500
1748734837.8258495,0.0,-0.01,0.04,-0.001090830782496456,-0.002181661564992912,0.0,0.005965237268461105,0.7272968959676159,1.6119444496600848,0.0,0.0,0.0,0.0,0.0,0.0,1500,1500,1500,1500,1500,1500
1748734837.921515,0.0,-0.04,0.06,-0.003272492347489368,-0.002181661564992912,0.0,0.005965237268461105,0.7272968959676159,1.6119444496600848,0.0,0.0,0.0,0.0,0.0,0.0,1500,1500,1500,1500,1500,1500
1748734838.024346,0.0,-0.04,0.06,-0.003272492347489368,-0.002181661564992912,0.0,0.005965237268461105,0.7272968959676159,1.6119444496600848,0.0,0.0,0.0,0.0,0.0,0.0,1500,1500,1500,1500,1500,1500
1748734838.1348293,0.0,-0.03,0.02,-0.003272492347489368,-0.001090830782496456,0.0,0.005965237268461105,0.7272968959676159,1.6119444496600848,0.0,0.0,0.0,0.0,0.0,0.0,1500,1500,1500,1500,1500,1500
1748734838.2347984,0.01,0.0,0.03,0.002181661564992912,0.001090830782496456,0.0,0.005965237268461105,0.7272968959676159,1.6119444496600848,0.0,0.0,0.0,0.0,0.0,0.0,1500,1500,1500,1500,1500,1500
1748734838.3511207,0.01,0.0,0.03,0.002181661564992912,0.001090830782496456,0.0,0.005965237268461105,0.7272968959676159,1.6119444496600848,0.0,0.0,0.0,0.0,0.0,0.0,1500,1500,1500,1500,1500,1500
1748734838.4742231,0.0,0.01,0.03,0.0,-0.002181661564992912,0.002181661564992912,0.005965237268461105,0.7272968959676159,1.6119444496600848,0.0,0.0,0.0,0.0,0.0,0.0,1500,1500,1500,1500,1500,1500
1748734838.581521,0.01,-0.04,0.01,0.002181661564992912,0.0,0.001090830782496456,0.005965237268461105,0.7272968959676159,1.6119444496600848,0.0,0.0,0.0,0.0,0.0,0.0,1500,1500,1500,1500,1500,1500
1748734838.6882253,0.01,-0.04,0.01,0.002181661564992912,0.0,0.001090830782496456,0.005965237268461105,0.7272968959676159,1.6119444496600848,0.0,0.0,0.0,0.0,0.0,0.0,1500,1500,1500,1500,1500,1500
1748734838.7801995,0.0,-0.04,0.02,-0.004363323129985824,0.0,0.0,0.005965237268461105,0.7272968959676159,1.6119444496600848,0.0,0.0,0.0,0.0,0.0,0.0,1500,1500,1500,1500,1500,1500
1748734838.8718367,0.01,0.01,0.0,0.002181661564992912,0.0,-0.001090830782496456,0.005965237268461105,0.7272968959676159,1.6119444496600848,0.0,0.0,0.0,0.0,0.0,0.0,1500,1500,1500,1500,1500,1500
1748734838.9838183,0.01,0.01,0.0,0.002181661564992912,0.0,-0.001090830782496456,0.005965237268461105,0.7272968959676159,1.6119444496600848,0.0,0.0,0.0,0.0,0.0,0.0,1500,1500,1500,1500,1500,1500
1748734839.092887,0.0,0.0,0.04,-0.001090830782496456,0.001090830782496456,-0.003272492347489368,0.005965237268461105,0.7272968959676159,1.6119444496600848,0.0,0.0,0.0,0.0,0.0,0.0,1500,1500,1500,1500,1500,1500
1748734839.1933477,0.0,-0.04,0.05,0.001090830782496456,0.0,-0.002181661564992912,0.005965237268461105,0.7272968959676159,1.6119444496600848,0.0,0.0,0.0,0.0,0.0,0.0,1500,1500,1500,1500,1500,1500
1748734839.2963378,0.0,-0.04,0.05,0.001090830782496456,0.0,-0.002181661564992912,0.005965237268461105,0.7272968959676159,1.6119444496600848,0.0,0.0,0.0,0.0,0.0,0.0,1500,1500,1500,1500,1500,1500
1748734839.3896332,0.0,0.0,0.0,-0.001090830782496456,0.0,0.001090830782496456,0.005965237268461105,0.7272968959676159,1.6119444496600848,0.0,0.0,0.0,0.0,0.0,0.0,1500,1500,1500,1500,1500,1500
1748734839.4953008,0.0,0.0,0.0,-0.001090830782496456,0.0,0.001090830782496456,0.005965237268461105,0.7272968959676159,1.6119444496600848,0.0,0.0,0.0,0.0,0.0,0.0,1500,1500,1500,1500,1500,1500
1748734839.6040225,0.0,0.0,0.01,0.001090830782496456,-0.002181661564992912,-0.001090830782496456,0.005965237268461105,0.7272968959676159,1.6119444496600848,0.0,0.0,0.0,0.0,0.0,0.0,1500,1500,1500,1500,1500,1500
1748734839.711122,0.0,0.0,0.03,-0.002181661564992912,-0.001090830782496456,0.001090830782496456,0.005965237268461105,0.7272968959676159,1.6119444496600848,0.0,0.0,0.0,0.0,0.0,0.0,1500,1500,1500,1500,1500,1500
1748734839.8200295,0.0,0.0,0.03,-0.002181661564992912,-0.001090830782496456,0.001090830782496456,0.005965237268461105,0.7272968959676159,1.6119444496600848,0.0,0.0,0.0,0.0,0.0,0.0,1500,1500,1500,1500,1500,1500
1748734839.9290328,0.0,-0.03,0.06,0.0,-0.004363323129985824,-0.001090830782496456,0.005965237268461105,0.7272968959676159,1.6119444496600848,0.0,0.0,0.0,0.0,0.0,0.0,1500,1500,1500,1500,1500,1500
1748734840.0376258,0.0,-0.05,0.04,-0.002181661564992912,-0.007635815477475192,0.0,0.005965237268461105,0.7272968959676159,1.6119444496600848,0.0,0.0,0.0,0.0,0.0,0.0,1500,1500,1500,1500,1500,1500
1748734840.1376235,0.0,-0.02,0.04,0.0,0.001090830782496456,0.0,0.005965237268461105,0.7272968959676159,1.6119444496600848,0.0,0.0,0.0,0.0,0.0,0.0,1500,1500,1500,1500,1500,1500
1748734840.239868,0.0,-0.02,0.04,0.0,0.001090830782496456,0.0,0.005965237268461105,0.7272968959676159,1.6119444496600848,0.0,0.0,0.0,0.0,0.0,0.0,1500,1500,1500,1500,1500,1500
1748734840.349949,-0.01,-0.01,0.03,0.0,-0.001090830782496456,-0.001090830782496456,0.005965237268461105,0.7272968959676159,1.6119444496600848,0.0,0.0,0.0,0.0,0.0,0.0,1500,1500,1500,1500,1500,1500
1748734840.4578438,-0.01,-0.01,0.03,0.0,-0.001090830782496456,-0.001090830782496456,0.005965237268461105,0.7272968959676159,1.6119444496600848,0.0,0.0,0.0,0.0,0.0,0.0,1500,1500,1500,1500,1500,1500
1748734840.568359,0.01,-0.05,0.05,-0.001090830782496456,-0.004363323129985824,0.002181661564992912,0.005965237268461105,0.7272968959676159,1.6119444496600848,0.0,0.0,0.0,0.0,0.0,0.0,1500,1500,1500,1500,1500,1500
1748734840.6900847,0.01,-0.01,0.04,0.003272492347489368,-0.003272492347489368,-0.001090830782496456,0.005965237268461105,0.7272968959676159,1.6119444496600848,0.0,0.0,0.0,0.0,0.0,0.0,1500,1500,1500,1500,1500,1500
1748734840.7720385,0.0,0.01,0.0,-0.002181661564992912,0.0,0.0,0.005965237268461105,0.7272968959676159,1.6119444496600848,0.0,0.0,0.0,0.0,0.0,0.0,1500,1500,1500,1500,1500,1500
1748734840.8758771,0.0,0.01,0.0,-0.002181661564992912,0.0,0.0,0.005965237268461105,0.7272968959676159,1.6119444496600848,0.0,0.0,0.0,0.0,0.0,0.0,1500,1500,1500,1500,1500,1500
1748734840.9814374,0.0,0.0,0.02,-0.001090830782496456,0.001090830782496456,0.001090830782496456,0.005965237268461105,0.7272968959676159,1.6119444496600848,0.0,0.0,0.0,0.0,0.0,0.0,1500,1500,1500,1500,1500,1500
1748734841.0881143,0.0,-0.04,0.03,0.00545415391248228,0.0,0.001090830782496456,0.005965237268461105,0.7272968959676159,1.6119444496600848,0.0,0.0,0.0,0.0,0.0,0.0,1500,1500,1500,1500,1500,1500
1748734841.1966808,0.0,-0.04,0.03,0.00545415391248228,0.0,0.001090830782496456,0.005965237268461105,0.7272968959676159,1.6119444496600848,0.0,0.0,0.0,0.0,0.0,0.0,1500,1500,1500,1500,1500,1500
1748734841.3040986,0.01,0.0,0.01,-0.001090830782496456,0.003272492347489368,0.0,0.005965237268461105,0.7272968959676159,1.6119444496600848,0.0,0.0,0.0,0.0,0.0,0.0,1500,1500,1500,1500,1500,1500
1748734841.4125016,0.01,0.0,0.01,-0.001090830782496456,0.003272492347489368,0.0,0.005965237268461105,0.7272968959676159,1.6119444496600848,0.0,0.0,0.0,0.0,0.0,0.0,1500,1500,1500,1500,1500,1500
1748734841.520717,0.0,0.01,0.01,0.0,0.0,0.001090830782496456,0.005965237268461105,0.7272968959676159,1.6119444496600848,0.0,0.0,0.0,0.0,0.0,0.0,1500,1500,1500,1500,1500,1500
1748734841.6445827,0.0,-0.03,0.04,-0.001090830782496456,0.003272492347489368,0.002181661564992912,0.005965237268461105,0.7272968959676159,1.6119444496600848,0.0,0.0,0.0,0.0,0.0,0.0,1500,1500,1500,1500,1500,1500
1748734841.7526934,0.0,-0.04,0.06,0.001090830782496456,0.001090830782496456,-0.001090830782496456,0.005965237268461105,0.7272968959676159,1.6119444496600848,0.0,0.0,0.0,0.0,0.0,0.0,1500,1500,1500,1500,1500,1500
1748734841.8601763,0.0,-0.04,0.06,0.001090830782496456,0.001090830782496456,-0.001090830782496456,0.005965237268461105,0.7272968959676159,1.6119444496600848,0.0,0.0,0.0,0.0,0.0,0.0,1500,1500,1500,1500,1500,1500
1748734841.9546268,0.01,-0.04,0.03,0.001090830782496456,0.003272492347489368,0.0,0.005965237268461105,0.7272968959676159,1.6119444496600848,0.0,0.0,0.0,0.0,0.0,0.0,1500,1500,1500,1500,1500,1500
1748734842.042601,0.01,-0.03,0.02,-0.001090830782496456,-0.002181661564992912,-0.001090830782496456,0.005965237268461105,0.7272968959676159,1.6119444496600848,0.0,0.0,0.0,0.0,0.0,0.0,1500,1500,1500,1500,1500,1500
1748734842.1552577,0.01,-0.03,0.02,-0.001090830782496456,-0.002181661564992912,-0.001090830782496456,0.005965237268461105,0.7272968959676159,1.6119444496600848,0.0,0.0,0.0,0.0,0.0,0.0,1500,1500,1500,1500,1500,1500
1748734842.262236,0.03,0.02,0.01,0.003272492347489368,-0.001090830782496456,-0.001090830782496456,0.005965237268461105,0.7272968959676159,1.6119444496600848,0.0,0.0,0.0,0.0,0.0,0.0,1500,1500,1500,1500,1500,1500
1748734842.3636394,0.0,-0.02,0.03,0.001090830782496456,-0.001090830782496456,-0.001090830782496456,0.005965237268461105,0.7272968959676159,1.6119444496600848,0.0,0.0,0.0,0.0,0.0,0.0,1500,1500,1500,1500,1500,1500
1748734842.479851,0.0,-0.02,0.03,0.001090830782496456,-0.001090830782496456,-0.001090830782496456,0.005965237268461105,0.7272968959676159,1.6119444496600848,0.0,0.0,0.0,0.0,0.0,0.0,1500,1500,1500,1500,1500,1500
1748734842.5879493,0.01,-0.03,0.06,-0.002181661564992912,-0.001090830782496456,-0.002181661564992912,0.005965237268461105,0.7272968959676159,1.6119444496600848,0.0,0.0,0.0,0.0,0.0,0.0,1500,1500,1500,1500,1500,1500
1748734842.6802123,0.0,-0.02,0.04,0.001090830782496456,-0.00545415391248228,-0.001090830782496456,0.005965237268461105,0.7272968959676159,1.6119444496600848,0.0,0.0,0.0,0.0,0.0,0.0,1500,1500,1500,1500,1500,1500
1748734842.789727,0.0,-0.02,0.04,0.001090830782496456,-0.00545415391248228,-0.001090830782496456,0.005965237268461105,0.7272968959676159,1.6119444496600848,0.0,0.0,0.0,0.0,0.0,0.0,1500,1500,1500,1500,1500,1500
1748734842.9006684,0.0,0.02,0.04,0.0,-0.004363323129985824,0.001090830782496456,0.005965237268461105,0.7272968959676159,1.6119444496600848,0.0,0.0,0.0,0.0,0.0,0.0,1500,1500,1500,1500,1500,1500
1748734842.9951515,0.0,0.0,0.03,-0.001090830782496456,-0.003272492347489368,-0.002181661564992912,0.005965237268461105,0.7272968959676159,1.6119444496600848,0.0,0.0,0.0,0.0,0.0,0.0,1500,1500,1500,1500,1500,1500
1748734843.1009827,0.0,0.0,0.03,-0.001090830782496456,-0.003272492347489368,-0.002181661564992912,0.005965237268461105,0.7272968959676159,1.6119444496600848,0.0,0.0,0.0,0.0,0.0,0.0,1500,1500,1500,1500,1500,1500
1748734843.209218,0.0,-0.04,0.02,0.0,0.004363323129985824,-0.002181661564992912,0.005965237268461105,0.7272968959676159,1.6119444496600848,0.0,0.0,0.0,0.0,0.0,0.0,1500,1500,1500,1500,1500,1500
1748734843.316027,0.0,-0.02,0.02,-0.002181661564992912,-0.00545415391248228,0.001090830782496456,0.005965237268461105,0.7272968959676159,1.6119444496600848,0.0,0.0,0.0,0.0,0.0,0.0,1500,1500,1500,1500,1500,1500
1748734843.4247515,0.0,-0.02,0.02,-0.002181661564992912,-0.00545415391248228,0.001090830782496456,0.005965237268461105,0.7272968959676159,1.6119444496600848,0.0,0.0,0.0,0.0,0.0,0.0,1500,1500,1500,1500,1500,1500
1748734843.5338159,0.0,0.0,0.03,-0.001090830782496456,0.001090830782496456,-0.002181661564992912,0.005965237268461105,0.7272968959676159,1.6119444496600848,0.0,0.0,0.0,0.0,0.0,0.0,1500,1500,1500,1500,1500,1500
1748734843.6377885,0.01,0.0,0.04,-0.002181661564992912,-0.001090830782496456,-0.001090830782496456,0.005965237268461105,0.7272968959676159,1.6119444496600848,0.0,0.0,0.0,0.0,0.0,0.0,1500,1500,1500,1500,1500,1500
1748734843.7508183,0.01,0.0,0.04,-0.002181661564992912,-0.001090830782496456,-0.001090830782496456,0.005965237268461105,0.7272968959676159,1.6119444496600848,0.0,0.0,0.0,0.0,0.0,0.0,1500,1500,1500,1500,1500,1500
1748734843.8566687,0.0,-0.04,0.04,0.002181661564992912,0.004363323129985824,0.0,0.005965237268461105,0.7272968959676159,1.6119444496600848,0.0,0.0,0.0,0.0,0.0,0.0,1500,1500,1500,1500,1500,1500
1748734843.9544969,0.0,-0.04,0.05,0.004363323129985824,-0.003272492347489368,0.002181661564992912,0.005965237268461105,0.7272968959676159,1.6119444496600848,0.0,0.0,0.0,0.0,0.0,0.0,1500,1500,1500,1500,1500,1500
1748734844.059121,0.0,-0.04,0.05,0.004363323129985824,-0.003272492347489368,0.002181661564992912,0.005965237268461105,0.7272968959676159,1.6119444496600848,0.0,0.0,0.0,0.0,0.0,0.0,1500,1500,1500,1500,1500,1500
1748734844.1663918,0.02,0.01,0.0,0.001090830782496456,0.004363323129985824,-0.001090830782496456,0.005965237268461105,0.7272968959676159,1.6119444496600848,0.0,0.0,0.0,0.0,0.0,0.0,1500,1500,1500,1500,1500,1500
1748734844.270506,0.0,0.0,0.05,-0.001090830782496456,0.006544984694978736,0.002181661564992912,0.005965237268461105,0.7272968959676159,1.6119444496600848,0.0,0.0,0.0,0.0,0.0,0.0,1500,1500,1500,1500,1500,1500
1748734844.381409,0.0,0.0,0.05,-0.001090830782496456,0.006544984694978736,0.002181661564992912,0.005965237268461105,0.7272968959676159,1.6119444496600848,0.0,0.0,0.0,0.0,0.0,0.0,1500,1500,1500,1500,1500,1500
1748734844.48969,0.0,-0.04,0.05,-0.001090830782496456,0.001090830782496456,-0.002181661564992912,0.005965237268461105,0.7272968959676159,1.6119444496600848,0.0,0.0,0.0,0.0,0.0,0.0,1500,1500,1500,1500,1500,1500
1748734844.589396,0.0,-0.03,0.04,0.002181661564992912,0.001090830782496456,0.001090830782496456,0.005965237268461105,0.7272968959676159,1.6119444496600848,0.0,0.0,0.0,0.0,0.0,0.0,1500,1500,1500,1500,1500,1500
1748734844.7059157,0.0,-0.03,0.04,0.002181661564992912,0.001090830782496456,0.001090830782496456,0.005965237268461105,0.7272968959676159,1.6119444496600848,0.0,0.0,0.0,0.0,0.0,0.0,1500,1500,1500,1500,1500,1500
1748734844.81108,0.0,-0.02,0.02,-0.001090830782496456,-0.003272492347489368,0.001090830782496456,0.005965237268461105,0.7272968959676159,1.6119444496600848,0.0,0.0,0.0,0.0,0.0,0.0,1500,1500,1500,1500,1500,1500
1748734844.9055045,0.0,0.0,0.01,0.002181661564992912,-0.001090830782496456,-0.001090830782496456,0.005965237268461105,0.7272968959676159,1.6119444496600848,0.0,0.0,0.0,0.0,0.0,0.0,1500,1500,1500,1500,1500,1500
1748734845.014437,0.0,0.0,0.01,0.002181661564992912,-0.001090830782496456,-0.001090830782496456,0.005965237268461105,0.7272968959676159,1.6119444496600848,0.0,0.0,0.0,0.0,0.0,0.0,1500,1500,1500,1500,1500,1500
1748734845.1233723,0.01,-0.03,0.03,0.0,-0.001090830782496456,0.0,0.005965237268461105,0.7272968959676159,1.6119444496600848,0.0,0.0,0.0,0.0,0.0,0.0,1500,1500,1500,1500,1500,1500
1748734845.237482,0.01,-0.03,0.03,0.0,-0.001090830782496456,0.0,0.005965237268461105,0.7272968959676159,1.6119444496600848,0.0,0.0,0.0,0.0,0.0,0.0,1500,1500,1500,1500,1500,1500
1748734845.3543465,0.01,-0.02,0.01,0.0,-0.001090830782496456,-0.001090830782496456,0.005965237268461105,0.7272968959676159,1.6119444496600848,0.0,0.0,0.0,0.0,0.0,0.0,1500,1500,1500,1500,1500,1500
