time,ay,ax,az,gy,gx,gz,roll,pitch,yaw,cmd_fx,cmd_fy,cmd_fz,cmd_tx,cmd_ty,cmd_tz,pwm_1,pwm_2,pwm_3,pwm_4,pwm_5,pwm_6
1748735292.7889156,0.0,0.0,0.0,0.0,0.0,0.0,0.0,0.0,0.0,0,0,0,0,0,0,1500,1500,1500,1500,1500,1500
1748735292.8884008,0.0,-0.04,0.06,-0.002181661564992912,0.0,0.001090830782496456,0.005859526194737495,0.72700939228268,1.6114136726757282,0,0,0,0,0,0,1500,1500,1500,1500,1500,1500
1748735292.9891324,0.0,-0.04,0.06,-0.002181661564992912,0.0,0.001090830782496456,0.005859526194737495,0.72700939228268,1.6114136726757282,0,0,0,0,0,0,1500,1500,1500,1500,1500,1500
1748735293.0890152,0.0,0.0,0.02,-0.004363323129985824,0.001090830782496456,0.001090830782496456,0.005859526194737495,0.72700939228268,1.6114136726757282,0,0,0,0,0,0,1500,1500,1500,1500,1500,1500
1748735293.1897755,0.0,-0.01,0.0,-0.003272492347489368,-0.00545415391248228,-0.001090830782496456,0.005859526194737495,0.72700939228268,1.6114136726757282,0,0,0,0,0,0,1500,1500,1500,1500,1500,1500
1748735293.2717812,0.0,-0.01,0.0,-0.003272492347489368,-0.00545415391248228,-0.001090830782496456,0.005859526194737495,0.72700939228268,1.6114136726757282,0,0,0,0,0,0,1500,1500,1500,1500,1500,1500
1748735293.372237,0.0,0.0,0.03,-0.001090830782496456,-0.001090830782496456,0.002181661564992912,0.005859526194737495,0.72700939228268,1.6114136726757282,0,0,0,0,0,0,1500,1500,1500,1500,1500,1500
1748735293.4725778,0.0,0.0,0.03,-0.001090830782496456,-0.001090830782496456,0.002181661564992912,0.005859526194737495,0.72700939228268,1.6114136726757282,0,0,0,0,0,0,1500,1500,1500,1500,1500,1500
1748735293.5549014,0.01,-0.04,0.03,0.0,0.0,0.0,0.005859526194737495,0.72700939228268,1.6114136726757282,0,0,0,0,0,0,1500,1500,1500,1500,1500,1500
1748735293.6557271,0.02,-0.01,-0.02,-0.001090830782496456,-0.001090830782496456,-0.001090830782496456,0.005859526194737495,0.72700939228268,1.6114136726757282,0,0,0,0,0,0,1500,1500,1500,1500,1500,1500
1748735293.7552013,0.02,-0.01,-0.02,-0.001090830782496456,-0.001090830782496456,-0.001090830782496456,0.005859526194737495,0.72700939228268,1.6114136726757282,0,0,0,0,0,0,1500,1500,1500,1500,1500,1500
1748735293.8555546,0.0,0.0,0.03,0.0,0.0,-0.001090830782496456,0.005859526194737495,0.72700939228268,1.6114136726757282,0,0,0,0,0,0,1500,1500,1500,1500,1500,1500
1748735293.955967,0.0,0.0,0.03,0.0,0.0,-0.001090830782496456,0.005859526194737495,0.72700939228268,1.6114136726757282,0,0,0,0,0,0,1500,1500,1500,1500,1500,1500
1748735294.0384393,0.0,-0.01,0.02,-0.001090830782496456,-0.003272492347489368,0.001090830782496456,0.005859526194737495,0.72700939228268,1.6114136726757282,0,0,0,0,0,0,1500,1500,1500,1500,1500,1500
1748735294.1389527,-0.01,-0.04,0.06,0.001090830782496456,-0.003272492347489368,0.001090830782496456,0.005859526194737495,0.72700939228268,1.6114136726757282,0,0,0,0,0,0,1500,1500,1500,1500,1500,1500
1748735294.245066,-0.01,-0.04,0.06,0.001090830782496456,-0.003272492347489368,0.001090830782496456,0.005859526194737495,0.72700939228268,1.6114136726757282,0,0,0,0,0,0,1500,1500,1500,1500,1500,1500
1748735294.3499994,0.01,0.01,0.02,-0.001090830782496456,0.001090830782496456,0.001090830782496456,0.005859526194737495,0.72700939228268,1.6114136726757282,0,0,0,0,0,0,1500,1500,1500,1500,1500,1500
1748735294.4569464,0.0,-0.02,0.05,0.0,0.0,0.002181661564992912,0.005859526194737495,0.72700939228268,1.6114136726757282,0,0,0,0,0,0,1500,1500,1500,1500,1500,1500
1748735294.5580058,0.0,-0.02,0.05,0.0,0.0,0.002181661564992912,0.005859526194737495,0.72700939228268,1.6114136726757282,0,0,0,0,0,0,1500,1500,1500,1500,1500,1500
1748735294.6564229,0.01,-0.03,0.03,-0.003272492347489368,-0.001090830782496456,-0.002181661564992912,0.005859526194737495,0.72700939228268,1.6114136726757282,0,0,0,0,0,0,1500,1500,1500,1500,1500,1500
1748735294.7399461,0.01,-0.03,0.03,-0.003272492347489368,-0.001090830782496456,-0.002181661564992912,0.005859526194737495,0.72700939228268,1.6114136726757282,0,0,0,0,0,0,1500,1500,1500,1500,1500,1500
1748735294.8394332,0.0,-0.01,0.01,0.004363323129985824,-0.001090830782496456,0.001090830782496456,0.005859526194737495,0.72700939228268,1.6114136726757282,0,0,0,0,0,0,1500,1500,1500,1500,1500,1500
1748735294.9403822,0.0,0.0,0.02,-0.002181661564992912,-0.00545415391248228,0.003272492347489368,0.005859526194737495,0.72700939228268,1.6114136726757282,0,0,0,0,0,0,1500,1500,1500,1500,1500,1500
1748735295.0232415,0.0,0.0,0.02,-0.002181661564992912,-0.00545415391248228,0.003272492347489368,0.005859526194737495,0.72700939228268,1.6114136726757282,0,0,0,0,0,0,1500,1500,1500,1500,1500,1500
1748735295.123851,0.0,0.01,0.05,-0.002181661564992912,0.003272492347489368,0.002181661564992912,0.005859526194737495,0.72700939228268,1.6114136726757282,0,0,0,0,0,0,1500,1500,1500,1500,1500,1500
1748735295.2228014,0.0,0.01,0.05,-0.002181661564992912,0.003272492347489368,0.002181661564992912,0.005859526194737495,0.72700939228268,1.6114136726757282,0,0,0,0,0,0,1500,1500,1500,1500,1500,1500
1748735295.3223076,0.0,-0.03,0.04,0.001090830782496456,-0.001090830782496456,-0.002181661564992912,0.005859526194737495,0.72700939228268,1.6114136726757282,0,0,0,0,0,0,1500,1500,1500,1500,1500,1500
1748735295.4237223,0.01,0.0,0.01,0.002181661564992912,-0.003272492347489368,0.0,0.005859526194737495,0.72700939228268,1.6114136726757282,0,0,0,0,0,0,1500,1500,1500,1500,1500,1500
1748735295.5051854,0.01,0.0,0.01,0.002181661564992912,-0.003272492347489368,0.0,0.005859526194737495,0.72700939228268,1.6114136726757282,0,0,0,0,0,0,1500,1500,1500,1500,1500,1500
1748735295.6186757,0.0,0.0,0.0,0.0,0.003272492347489368,0.0,0.005859526194737495,0.72700939228268,1.6114136726757282,0,0,0,0,0,0,1500,1500,1500,1500,1500,1500
1748735295.7167969,0.0,0.01,0.01,-0.003272492347489368,0.002181661564992912,0.002181661564992912,0.005859526194737495,0.72700939228268,1.6114136726757282,0,0,0,0,0,0,1500,1500,1500,1500,1500,1500
1748735295.8065002,0.0,0.01,0.01,-0.003272492347489368,0.002181661564992912,0.002181661564992912,0.005859526194737495,0.72700939228268,1.6114136726757282,0,0,0,0,0,0,1500,1500,1500,1500,1500,1500
1748735295.9061887,0.0,-0.04,0.04,0.004363323129985824,-0.001090830782496456,-0.001090830782496456,0.005859526194737495,0.72700939228268,1.6114136726757282,0,0,0,0,0,0,1500,1500,1500,1500,1500,1500
1748735296.0073032,0.0,-0.04,0.04,0.004363323129985824,-0.001090830782496456,-0.001090830782496456,0.005859526194737495,0.72700939228268,1.6114136726757282,0,0,0,0,0,0,1500,1500,1500,1500,1500,1500
1748735296.1060147,0.0,-0.05,0.02,-0.002181661564992912,-0.006544984694978736,0.0,0.005859526194737495,0.72700939228268,1.6114136726757282,0,0,0,0,0,0,1500,1500,1500,1500,1500,1500
1748735296.1959558,0.0,0.0,0.0,0.0,0.002181661564992912,-0.002181661564992912,0.005859526194737495,0.72700939228268,1.6114136726757282,0,0,0,0,0,0,1500,1500,1500,1500,1500,1500
1748735296.2881105,0.0,0.0,0.0,0.0,0.002181661564992912,-0.002181661564992912,0.005859526194737495,0.72700939228268,1.6114136726757282,0,0,0,0,0,0,1500,1500,1500,1500,1500,1500
1748735296.3888817,0.0,0.0,0.01,-0.002181661564992912,-0.002181661564992912,0.0,0.005859526194737495,0.72700939228268,1.6114136726757282,0,0,0,0,0,0,1500,1500,1500,1500,1500,1500
1748735296.4882076,0.0,0.0,0.01,-0.002181661564992912,-0.002181661564992912,0.0,0.005859526194737495,0.72700939228268,1.6114136726757282,0,0,0,0,0,0,1500,1500,1500,1500,1500,1500
1748735296.5740297,0.0,0.0,0.01,0.003272492347489368,0.0,0.002181661564992912,0.005859526194737495,0.72700939228268,1.6114136726757282,0,0,0,0,0,0,1500,1500,1500,1500,1500,1500
1748735296.672845,0.0,0.0,0.01,0.003272492347489368,0.0,0.002181661564992912,0.005859526194737495,0.72700939228268,1.6114136726757282,0,0,0,0,0,0,1500,1500,1500,1500,1500,1500
1748735296.7558956,0.02,-0.03,0.05,-0.002181661564992912,0.001090830782496456,-0.001090830782496456,0.005859526194737495,0.72700939228268,1.6114136726757282,0,0,0,0,0,0,1500,1500,1500,1500,1500,1500
1748735296.8555975,0.02,0.0,0.0,-0.001090830782496456,0.003272492347489368,0.001090830782496456,0.005859526194737495,0.72700939228268,1.6114136726757282,0,0,0,0,0,0,1500,1500,1500,1500,1500,1500
1748735296.9552882,0.02,0.0,0.0,-0.001090830782496456,0.003272492347489368,0.001090830782496456,0.005859526194737495,0.72700939228268,1.6114136726757282,0,0,0,0,0,0,1500,1500,1500,1500,1500,1500
1748735297.0385783,0.02,0.0,0.01,0.0,0.0,-0.002181661564992912,0.005859526194737495,0.72700939228268,1.6114136726757282,0,0,0,0,0,0,1500,1500,1500,1500,1500,1500
1748735297.1385162,0.02,0.0,0.01,0.0,0.0,-0.002181661564992912,0.005859526194737495,0.72700939228268,1.6114136726757282,0,0,0,0,0,0,1500,1500,1500,1500,1500,1500
1748735297.2386756,0.0,0.0,0.03,-0.001090830782496456,-0.002181661564992912,-0.001090830782496456,0.005859526194737495,0.72700939228268,1.6114136726757282,0,0,0,0,0,0,1500,1500,1500,1500,1500,1500
1748735297.338051,0.0,-0.04,0.05,0.002181661564992912,0.0,-0.001090830782496456,0.005859526194737495,0.72700939228268,1.6114136726757282,0,0,0,0,0,0,1500,1500,1500,1500,1500,1500
1748735297.4389267,0.0,-0.04,0.05,0.002181661564992912,0.0,-0.001090830782496456,0.005859526194737495,0.72700939228268,1.6114136726757282,0,0,0,0,0,0,1500,1500,1500,1500,1500,1500
1748735297.5223758,0.0,0.03,0.03,-0.001090830782496456,0.003272492347489368,0.0,0.005859526194737495,0.72700939228268,1.6114136726757282,0,0,0,0,0,0,1500,1500,1500,1500,1500,1500
1748735297.6223428,0.0,0.03,0.03,-0.001090830782496456,0.003272492347489368,0.0,0.005859526194737495,0.72700939228268,1.6114136726757282,0,0,0,0,0,0,1500,1500,1500,1500,1500,1500
1748735297.7081184,0.0,-0.01,0.03,0.001090830782496456,0.003272492347489368,0.0,0.005859526194737495,0.72700939228268,1.6114136726757282,0,0,0,0,0,0,1500,1500,1500,1500,1500,1500
1748735297.80622,0.0,-0.05,0.06,0.002181661564992912,0.0,0.002181661564992912,0.005859526194737495,0.72700939228268,1.6114136726757282,0,0,0,0,0,0,1500,1500,1500,1500,1500,1500
1748735297.9071221,0.0,-0.05,0.06,0.002181661564992912,0.0,0.002181661564992912,0.005859526194737495,0.72700939228268,1.6114136726757282,0,0,0,0,0,0,1500,1500,1500,1500,1500,1500
1748735297.990151,0.0,-0.04,0.03,0.003272492347489368,0.003272492347489368,-0.001090830782496456,0.005859526194737495,0.72700939228268,1.6114136726757282,0,0,0,0,0,0,1500,1500,1500,1500,1500,1500
1748735298.0962436,0.0,-0.04,0.03,0.003272492347489368,0.003272492347489368,-0.001090830782496456,0.005859526194737495,0.72700939228268,1.6114136726757282,0,0,0,0,0,0,1500,1500,1500,1500,1500,1500
1748735298.1898851,0.0,-0.01,0.02,0.002181661564992912,-0.002181661564992912,-0.001090830782496456,0.005859526194737495,0.72700939228268,1.6114136726757282,0,0,0,0,0,0,1500,1500,1500,1500,1500,1500
1748735298.2726107,0.0,-0.01,0.02,0.002181661564992912,-0.002181661564992912,-0.001090830782496456,0.005859526194737495,0.72700939228268,1.6114136726757282,0,0,0,0,0,0,1500,1500,1500,1500,1500,1500
1748735298.372422,0.0,0.0,0.04,0.0,0.001090830782496456,0.002181661564992912,0.005859526194737495,0.72700939228268,1.6114136726757282,0,0,0,0,0,0,1500,1500,1500,1500,1500,1500
1748735298.4747283,0.0,-0.04,0.03,0.002181661564992912,-0.002181661564992912,0.001090830782496456,0.005859526194737495,0.72700939228268,1.6114136726757282,0,0,0,0,0,0,1500,1500,1500,1500,1500,1500
1748735298.5732365,0.0,-0.04,0.03,0.002181661564992912,-0.002181661564992912,0.001090830782496456,0.005859526194737495,0.72700939228268,1.6114136726757282,0,0,0,0,0,0,1500,1500,1500,1500,1500,1500
1748735298.673481,0.0,-0.03,0.03,0.0,-0.002181661564992912,-0.001090830782496456,0.005859526194737495,0.72700939228268,1.6114136726757282,0,0,0,0,0,0,1500,1500,1500,1500,1500,1500
1748735298.7609825,0.0,-0.03,0.03,0.0,-0.002181661564992912,-0.001090830782496456,0.005859526194737495,0.72700939228268,1.6114136726757282,0,0,0,0,0,0,1500,1500,1500,1500,1500,1500
1748735298.8563073,0.0,-0.03,0.06,0.004363323129985824,-0.001090830782496456,0.001090830782496456,0.005859526194737495,0.72700939228268,1.6114136726757282,0,0,0,0,0,0,1500,1500,1500,1500,1500,1500
1748735298.9591138,0.0,0.01,0.03,-0.001090830782496456,-0.003272492347489368,0.001090830782496456,0.005859526194737495,0.72700939228268,1.6114136726757282,0,0,0,0,0,0,1500,1500,1500,1500,1500,1500
1748735299.0566363,0.0,0.01,0.03,-0.001090830782496456,-0.003272492347489368,0.001090830782496456,0.005859526194737495,0.72700939228268,1.6114136726757282,0,0,0,0,0,0,1500,1500,1500,1500,1500,1500
1748735299.1558952,0.0,0.0,0.05,0.0,0.003272492347489368,-0.001090830782496456,0.005859526194737495,0.72700939228268,1.6114136726757282,0,0,0,0,0,0,1500,1500,1500,1500,1500,1500
1748735299.240125,0.0,0.0,0.05,0.0,0.003272492347489368,-0.001090830782496456,0.005859526194737495,0.72700939228268,1.6114136726757282,0,0,0,0,0,0,1500,1500,1500,1500,1500,1500
1748735299.3401425,0.0,-0.01,0.06,0.003272492347489368,0.004363323129985824,0.0,0.005859526194737495,0.72700939228268,1.6114136726757282,0,0,0,0,0,0,1500,1500,1500,1500,1500,1500
1748735299.4404685,-0.01,0.01,0.04,-0.001090830782496456,0.004363323129985824,0.001090830782496456,0.005859526194737495,0.72700939228268,1.6114136726757282,0,0,0,0,0,0,1500,1500,1500,1500,1500,1500
1748735299.5234044,-0.01,0.01,0.04,-0.001090830782496456,0.004363323129985824,0.001090830782496456,0.005859526194737495,0.72700939228268,1.6114136726757282,0,0,0,0,0,0,1500,1500,1500,1500,1500,1500
1748735299.6217797,0.01,0.0,0.03,0.003272492347489368,-0.001090830782496456,-0.001090830782496456,0.005859526194737495,0.72700939228268,1.6114136726757282,0,0,0,0,0,0,1500,1500,1500,1500,1500,1500
1748735299.721282,0.01,0.0,0.01,-0.002181661564992912,0.001090830782496456,0.001090830782496456,0.005859526194737495,0.72700939228268,1.6114136726757282,0,0,0,0,0,0,1500,1500,1500,1500,1500,1500
1748735299.8062766,0.01,0.0,0.01,-0.002181661564992912,0.001090830782496456,0.001090830782496456,0.005859526194737495,0.72700939228268,1.6114136726757282,0,0,0,0,0,0,1500,1500,1500,1500,1500,1500
1748735299.9065967,-0.01,-0.04,0.06,0.0,-0.002181661564992912,0.0,0.005859526194737495,0.72700939228268,1.6114136726757282,0,0,0,0,0,0,1500,1500,1500,1500,1500,1500
1748735300.0051937,-0.01,-0.04,0.06,0.0,-0.002181661564992912,0.0,0.005859526194737495,0.72700939228268,1.6114136726757282,0,0,0,0,0,0,1500,1500,1500,1500,1500,1500
1748735300.1054552,0.01,0.0,0.03,-0.004363323129985824,0.004363323129985824,-0.001090830782496456,0.005859526194737495,0.72700939228268,1.6114136726757282,0,0,0,0,0,0,1500,1500,1500,1500,1500,1500
1748735300.19611,0.0,0.0,0.02,0.003272492347489368,0.002181661564992912,-0.001090830782496456,0.005859526194737495,0.72700939228268,1.6114136726757282,0,0,0,0,0,0,1500,1500,1500,1500,1500,1500
1748735300.288956,0.0,0.0,0.02,0.003272492347489368,0.002181661564992912,-0.001090830782496456,0.005859526194737495,0.72700939228268,1.6114136726757282,0,0,0,0,0,0,1500,1500,1500,1500,1500,1500
1748735300.3889942,0.01,-0.02,0.03,-0.002181661564992912,0.003272492347489368,0.001090830782496456,-2.6694812675835293,-1.5707963267948966,2.8575169669989346,0,0,0,0,0,0,1500,1500,1500,1500,1500,1500
1748735300.4889038,0.01,-0.02,0.03,-0.002181661564992912,0.003272492347489368,0.001090830782496456,-2.6694812675835293,-1.5707963267948966,2.8575169669989346,0,0,0,0,0,0,1500,1500,1500,1500,1500,1500
1748735300.5885365,0.0,-0.04,0.07,-0.004363323129985824,-0.002181661564992912,0.0,0.005859526194737495,0.72700939228268,1.6114136726757282,0,0,0,0,0,0,1500,1500,1500,1500,1500,1500
1748735300.6900272,0.0,0.0,0.02,-0.002181661564992912,-0.002181661564992912,0.0,0.005859526194737495,0.72700939228268,1.6114136726757282,0,0,0,0,0,0,1500,1500,1500,1500,1500,1500
1748735300.771882,0.0,0.0,0.02,-0.002181661564992912,-0.002181661564992912,0.0,0.005859526194737495,0.72700939228268,1.6114136726757282,0,0,0,0,0,0,1500,1500,1500,1500,1500,1500
1748735300.871656,0.0,0.01,0.02,0.004363323129985824,0.0,-0.001090830782496456,0.005859526194737495,0.72700939228268,1.6114136726757282,0,0,0,0,0,0,1500,1500,1500,1500,1500,1500
1748735300.972393,0.0,0.01,0.02,0.004363323129985824,0.0,-0.001090830782496456,0.005859526194737495,0.72700939228268,1.6114136726757282,0,0,0,0,0,0,1500,1500,1500,1500,1500,1500
1748735301.0546978,0.01,-0.03,1.32,-0.002181661564992912,0.003272492347489368,0.0,0.005859526194737495,0.72700939228268,1.6114136726757282,0,0,0,0,0,0,1500,1500,1500,1500,1500,1500
1748735301.1551585,0.01,-0.03,1.32,-0.002181661564992912,0.003272492347489368,0.0,0.005859526194737495,0.72700939228268,1.6114136726757282,0,0,0,0,0,0,1500,1500,1500,1500,1500,1500
1748735301.255803,0.01,-0.03,0.04,0.002181661564992912,0.0,0.001090830782496456,0.005859526194737495,0.72700939228268,1.6114136726757282,0,0,0,0,0,0,1500,1500,1500,1500,1500,1500
1748735301.3553395,0.01,0.0,0.02,0.003272492347489368,0.003272492347489368,-0.001090830782496456,0.005859526194737495,0.72700939228268,1.6114136726757282,0,0,0,0,0,0,1500,1500,1500,1500,1500,1500
1748735301.456939,0.01,0.0,0.02,0.003272492347489368,0.003272492347489368,-0.001090830782496456,0.005859526194737495,0.72700939228268,1.6114136726757282,0,0,0,0,0,0,1500,1500,1500,1500,1500,1500
1748735301.5381403,0.0,0.0,0.01,0.001090830782496456,0.002181661564992912,0.0,0.005859526194737495,0.72700939228268,1.6114136726757282,0,0,0,0,0,0,1500,1500,1500,1500,1500,1500
1748735301.6395302,0.01,-0.01,0.05,0.001090830782496456,0.001090830782496456,0.0,0.005859526194737495,0.72700939228268,1.6114136726757282,0,0,0,0,0,0,1500,1500,1500,1500,1500,1500
1748735301.7388246,0.01,-0.01,0.05,0.001090830782496456,0.001090830782496456,0.0,0.005859526194737495,0.72700939228268,1.6114136726757282,0,0,0,0,0,0,1500,1500,1500,1500,1500,1500
1748735301.8382168,0.0,-0.02,0.04,-0.003272492347489368,-0.003272492347489368,0.001090830782496456,0.005859526194737495,0.72700939228268,1.6114136726757282,0,0,0,0,0,0,1500,1500,1500,1500,1500,1500
1748735301.9397094,0.0,-0.02,0.04,-0.003272492347489368,-0.003272492347489368,0.001090830782496456,0.005859526194737495,0.72700939228268,1.6114136726757282,0,0,0,0,0,0,1500,1500,1500,1500,1500,1500
1748735302.0233262,0.0,0.02,0.05,-0.002181661564992912,0.001090830782496456,0.001090830782496456,0.005859526194737495,0.72700939228268,1.6114136726757282,0,0,0,0,0,0,1500,1500,1500,1500,1500,1500
1748735302.1217432,0.0,0.01,0.01,0.004363323129985824,0.0,-0.001090830782496456,0.005859526194737495,0.72700939228268,1.6114136726757282,0,0,0,0,0,0,1500,1500,1500,1500,1500,1500
1748735302.222166,0.0,0.01,0.01,0.004363323129985824,0.0,-0.001090830782496456,0.005859526194737495,0.72700939228268,1.6114136726757282,0,0,0,0,0,0,1500,1500,1500,1500,1500,1500
1748735302.305292,0.01,-0.05,0.04,0.002181661564992912,-0.002181661564992912,-0.001090830782496456,0.005859526194737495,0.72700939228268,1.6114136726757282,0,0,0,0,0,0,1500,1500,1500,1500,1500,1500
1748735302.404808,0.01,-0.05,0.04,0.002181661564992912,-0.002181661564992912,-0.001090830782496456,0.005859526194737495,0.72700939228268,1.6114136726757282,0,0,0,0,0,0,1500,1500,1500,1500,1500,1500
1748735302.5053298,0.01,-0.02,0.05,-0.003272492347489368,0.0,-0.001090830782496456,0.005859526194737495,0.72700939228268,1.6114136726757282,0,0,0,0,0,0,1500,1500,1500,1500,1500,1500
1748735302.60522,0.0,0.0,0.01,0.004363323129985824,-0.004363323129985824,0.001090830782496456,0.005859526194737495,0.72700939228268,1.6114136726757282,0,0,0,0,0,0,1500,1500,1500,1500,1500,1500
1748735302.705256,0.0,0.0,0.01,0.004363323129985824,-0.004363323129985824,0.001090830782496456,0.005859526194737495,0.72700939228268,1.6114136726757282,0,0,0,0,0,0,1500,1500,1500,1500,1500,1500
1748735302.7882142,0.02,0.0,0.05,-0.003272492347489368,0.00545415391248228,-0.001090830782496456,0.005859526194737495,0.72700939228268,1.6114136726757282,0,0,0,0,0,0,1500,1500,1500,1500,1500,1500
1748735302.8887281,0.02,0.0,0.05,-0.003272492347489368,0.00545415391248228,-0.001090830782496456,0.005859526194737495,0.72700939228268,1.6114136726757282,0,0,0,0,0,0,1500,1500,1500,1500,1500,1500
1748735302.9895873,0.0,-0.01,0.03,0.0,-0.001090830782496456,0.002181661564992912,0.005859526194737495,0.72700939228268,1.6114136726757282,0,0,0,0,0,0,1500,1500,1500,1500,1500,1500
1748735303.0882916,0.0,-0.04,0.05,0.003272492347489368,0.001090830782496456,0.002181661564992912,0.005859526194737495,0.72700939228268,1.6114136726757282,0,0,0,0,0,0,1500,1500,1500,1500,1500,1500
1748735303.1886663,0.0,-0.04,0.05,0.003272492347489368,0.001090830782496456,0.002181661564992912,0.005859526194737495,0.72700939228268,1.6114136726757282,0,0,0,0,0,0,1500,1500,1500,1500,1500,1500
1748735303.2718155,0.0,-0.01,0.03,-0.002181661564992912,0.002181661564992912,0.001090830782496456,0.005859526194737495,0.72700939228268,1.6114136726757282,0,0,0,0,0,0,1500,1500,1500,1500,1500,1500
1748735303.371433,0.0,-0.01,0.03,-0.002181661564992912,0.002181661564992912,0.001090830782496456,0.005859526194737495,0.72700939228268,1.6114136726757282,0,0,0,0,0,0,1500,1500,1500,1500,1500,1500
1748735303.4720943,0.0,0.0,0.04,-0.001090830782496456,0.002181661564992912,0.001090830782496456,0.005859526194737495,0.72700939228268,1.6114136726757282,0,0,0,0,0,0,1500,1500,1500,1500,1500,1500
1748735303.5556147,0.0,-0.03,0.04,0.001090830782496456,0.0,0.0,0.005859526194737495,0.72700939228268,1.6114136726757282,0,0,0,0,0,0,1500,1500,1500,1500,1500,1500
1748735303.6547756,0.0,-0.03,0.04,0.001090830782496456,0.0,0.0,0.005859526194737495,0.72700939228268,1.6114136726757282,0,0,0,0,0,0,1500,1500,1500,1500,1500,1500
1748735303.7555032,0.0,-0.05,0.03,-0.001090830782496456,0.0,-0.003272492347489368,0.005859526194737495,0.72700939228268,1.6114136726757282,0,0,0,0,0,0,1500,1500,1500,1500,1500,1500
1748735303.8546612,0.0,-0.05,0.03,-0.001090830782496456,0.0,-0.003272492347489368,0.005859526194737495,0.72700939228268,1.6114136726757282,0,0,0,0,0,0,1500,1500,1500,1500,1500,1500
1748735303.9553347,0.02,-0.02,0.03,-0.004363323129985824,0.001090830782496456,0.001090830782496456,0.005859526194737495,0.72700939228268,1.6114136726757282,0,0,0,0,0,0,1500,1500,1500,1500,1500,1500
1748735304.0388336,0.01,-0.01,0.03,-0.001090830782496456,0.001090830782496456,0.0,0.005859526194737495,0.72700939228268,1.6114136726757282,0,0,0,0,0,0,1500,1500,1500,1500,1500,1500
1748735304.1382322,0.01,-0.01,0.03,-0.001090830782496456,0.001090830782496456,0.0,0.005859526194737495,0.72700939228268,1.6114136726757282,0,0,0,0,0,0,1500,1500,1500,1500,1500,1500
1748735304.2385216,0.0,-0.01,0.04,-0.002181661564992912,0.0,-0.001090830782496456,0.005859526194737495,0.72700939228268,1.6114136726757282,0,0,0,0,0,0,1500,1500,1500,1500,1500,1500
1748735304.3389513,0.0,-0.01,0.04,-0.002181661564992912,0.0,-0.001090830782496456,0.005859526194737495,0.72700939228268,1.6114136726757282,0,0,0,0,0,0,1500,1500,1500,1500,1500,1500
1748735304.4393077,0.02,-0.04,0.05,0.001090830782496456,0.002181661564992912,-0.001090830782496456,0.005859526194737495,0.72700939228268,1.6114136726757282,0,0,0,0,0,0,1500,1500,1500,1500,1500,1500
1748735304.5227804,0.0,-0.03,0.02,-0.003272492347489368,-0.002181661564992912,0.001090830782496456,0.005859526194737495,0.72700939228268,1.6114136726757282,0,0,0,0,0,0,1500,1500,1500,1500,1500,1500
1748735304.6219532,0.0,-0.03,0.02,-0.003272492347489368,-0.002181661564992912,0.001090830782496456,0.005859526194737495,0.72700939228268,1.6114136726757282,0,0,0,0,0,0,1500,1500,1500,1500,1500,1500
1748735304.7219598,0.0,0.01,0.0,-0.001090830782496456,-0.002181661564992912,0.0,0.005859526194737495,0.72700939228268,1.6114136726757282,0,0,0,0,0,0,1500,1500,1500,1500,1500,1500
1748735304.8045514,0.0,0.01,0.0,-0.001090830782496456,-0.002181661564992912,0.0,0.005859526194737495,0.72700939228268,1.6114136726757282,0,0,0,0,0,0,1500,1500,1500,1500,1500,1500
1748735304.9049737,0.0,0.0,0.02,-0.004363323129985824,-0.002181661564992912,0.002181661564992912,0.005859526194737495,0.72700939228268,1.6114136726757282,0,0,0,0,0,0,1500,1500,1500,1500,1500,1500
1748735305.0047147,0.01,-0.03,0.06,-0.002181661564992912,-0.004363323129985824,-0.001090830782496456,0.005859526194737495,0.72700939228268,1.6114136726757282,0,0,0,0,0,0,1500,1500,1500,1500,1500,1500
1748735305.1047375,0.01,-0.03,0.06,-0.002181661564992912,-0.004363323129985824,-0.001090830782496456,0.005859526194737495,0.72700939228268,1.6114136726757282,0,0,0,0,0,0,1500,1500,1500,1500,1500,1500
1748735305.205246,-0.01,0.0,0.04,0.002181661564992912,-0.001090830782496456,-0.003272492347489368,0.005859526194737495,0.72700939228268,1.6114136726757282,0,0,0,0,0,0,1500,1500,1500,1500,1500,1500
1748735305.2881174,-0.01,0.0,0.04,0.002181661564992912,-0.001090830782496456,-0.003272492347489368,0.005859526194737495,0.72700939228268,1.6114136726757282,0,0,0,0,0,0,1500,1500,1500,1500,1500,1500
1748735305.3881574,0.02,-0.01,0.03,0.001090830782496456,0.002181661564992912,0.0,0.005859526194737495,0.72700939228268,1.6114136726757282,0,0,0,0,0,0,1500,1500,1500,1500,1500,1500
1748735305.4897554,0.0,0.0,0.0,-0.003272492347489368,-0.003272492347489368,-0.001090830782496456,0.005859526194737495,0.72700939228268,1.6114136726757282,0,0,0,0,0,0,1500,1500,1500,1500,1500,1500
1748735305.588035,0.0,0.0,0.0,-0.003272492347489368,-0.003272492347489368,-0.001090830782496456,0.005859526194737495,0.72700939228268,1.6114136726757282,0,0,0,0,0,0,1500,1500,1500,1500,1500,1500
1748735305.6887648,0.01,-0.04,0.03,-0.002181661564992912,0.003272492347489368,0.0,0.005859526194737495,0.72700939228268,1.6114136726757282,0,0,0,0,0,0,1500,1500,1500,1500,1500,1500
1748735305.7725294,0.01,-0.04,0.03,-0.002181661564992912,0.003272492347489368,0.0,0.005859526194737495,0.72700939228268,1.6114136726757282,0,0,0,0,0,0,1500,1500,1500,1500,1500,1500
1748735305.872437,0.01,-0.04,0.02,0.001090830782496456,0.0,0.0,0.005859526194737495,0.72700939228268,1.6114136726757282,0,0,0,0,0,0,1500,1500,1500,1500,1500,1500
1748735305.9722686,0.0,0.0,0.06,-0.002181661564992912,-0.001090830782496456,-0.001090830782496456,0.005859526194737495,0.72700939228268,1.6114136726757282,0,0,0,0,0,0,1500,1500,1500,1500,1500,1500
1748735306.0550044,0.0,0.0,0.06,-0.002181661564992912,-0.001090830782496456,-0.001090830782496456,0.005859526194737495,0.72700939228268,1.6114136726757282,0,0,0,0,0,0,1500,1500,1500,1500,1500,1500
1748735306.1546628,0.0,0.0,0.01,-0.002181661564992912,0.002181661564992912,0.001090830782496456,0.005859526194737495,0.72700939228268,1.6114136726757282,0,0,0,0,0,0,1500,1500,1500,1500,1500,1500
1748735306.2552545,0.0,0.0,0.01,-0.002181661564992912,0.002181661564992912,0.001090830782496456,0.005859526194737495,0.72700939228268,1.6114136726757282,0,0,0,0,0,0,1500,1500,1500,1500,1500,1500
1748735306.3545995,0.0,-0.02,0.04,-0.002181661564992912,0.002181661564992912,0.002181661564992912,0.005859526194737495,0.72700939228268,1.6114136726757282,0,0,0,0,0,0,1500,1500,1500,1500,1500,1500
1748735306.454947,0.01,-0.05,0.06,-0.002181661564992912,-0.006544984694978736,0.0,0.005859526194737495,0.72700939228268,1.6114136726757282,0,0,0,0,0,0,1500,1500,1500,1500,1500,1500
1748735306.537965,0.01,-0.05,0.06,-0.002181661564992912,-0.006544984694978736,0.0,0.005859526194737495,0.72700939228268,1.6114136726757282,0,0,0,0,0,0,1500,1500,1500,1500,1500,1500
1748735306.6382458,0.02,-0.02,0.02,-0.001090830782496456,-0.00545415391248228,0.001090830782496456,0.005859526194737495,0.72700939228268,1.6114136726757282,0,0,0,0,0,0,1500,1500,1500,1500,1500,1500
1748735306.7354786,0.0,0.0,0.0,-0.001090830782496456,-0.003272492347489368,0.002181661564992912,0.005859526194737495,0.72700939228268,1.6114136726757282,0,0,0,0,0,0,1500,1500,1500,1500,1500,1500
1748735306.8216138,0.0,0.0,0.0,-0.001090830782496456,-0.003272492347489368,0.002181661564992912,0.005859526194737495,0.72700939228268,1.6114136726757282,0,0,0,0,0,0,1500,1500,1500,1500,1500,1500
1748735306.922583,0.0,-0.01,0.04,-0.001090830782496456,0.003272492347489368,0.0,0.005859526194737495,0.72700939228268,1.6114136726757282,0,0,0,0,0,0,1500,1500,1500,1500,1500,1500
1748735307.0068982,0.0,-0.01,0.04,-0.001090830782496456,0.003272492347489368,0.0,0.005859526194737495,0.72700939228268,1.6114136726757282,0,0,0,0,0,0,1500,1500,1500,1500,1500,1500
1748735307.106422,0.0,-0.03,0.04,-0.001090830782496456,0.0,-0.001090830782496456,0.005859526194737495,0.72700939228268,1.6114136726757282,0,0,0,0,0,0,1500,1500,1500,1500,1500,1500
1748735307.205731,0.0,-0.03,0.04,-0.001090830782496456,0.0,-0.001090830782496456,0.005859526194737495,0.72700939228268,1.6114136726757282,0,0,0,0,0,0,1500,1500,1500,1500,1500,1500
1748735307.2884178,0.01,0.0,0.01,0.002181661564992912,0.0,0.0,0.005859526194737495,0.72700939228268,1.6114136726757282,0,0,0,0,0,0,1500,1500,1500,1500,1500,1500
1748735307.3882372,0.0,0.0,0.0,0.003272492347489368,0.0,-0.001090830782496456,0.005859526194737495,0.72700939228268,1.6114136726757282,0,0,0,0,0,0,1500,1500,1500,1500,1500,1500
1748735307.488475,0.0,0.0,0.0,0.003272492347489368,0.0,-0.001090830782496456,0.005859526194737495,0.72700939228268,1.6114136726757282,0,0,0,0,0,0,1500,1500,1500,1500,1500,1500
1748735307.5881264,0.01,-0.03,0.04,0.0,0.0,0.0,0.005859526194737495,0.72700939228268,1.6114136726757282,0,0,0,0,0,0,1500,1500,1500,1500,1500,1500
1748735307.688602,0.0,-0.04,0.06,0.001090830782496456,0.0,-0.002181661564992912,0.005859526194737495,0.72700939228268,1.6114136726757282,0,0,0,0,0,0,1500,1500,1500,1500,1500,1500
1748735307.7710357,0.0,-0.04,0.06,0.001090830782496456,0.0,-0.002181661564992912,0.005859526194737495,0.72700939228268,1.6114136726757282,0,0,0,0,0,0,1500,1500,1500,1500,1500,1500
1748735307.8717964,0.0,-0.01,0.04,0.001090830782496456,0.002181661564992912,0.002181661564992912,0.005859526194737495,0.72700939228268,1.6114136726757282,0,0,0,0,0,0,1500,1500,1500,1500,1500,1500
1748735307.9711397,0.0,-0.01,0.04,0.001090830782496456,0.002181661564992912,0.002181661564992912,0.005859526194737495,0.72700939228268,1.6114136726757282,0,0,0,0,0,0,1500,1500,1500,1500,1500,1500
1748735308.0543272,0.02,0.0,0.0,0.002181661564992912,0.0,0.001090830782496456,0.005859526194737495,0.72700939228268,1.6114136726757282,0,0,0,0,0,0,1500,1500,1500,1500,1500,1500
1748735308.1552255,0.02,0.0,0.0,0.002181661564992912,0.0,0.001090830782496456,0.005859526194737495,0.72700939228268,1.6114136726757282,0,0,0,0,0,0,1500,1500,1500,1500,1500,1500
1748735308.2556841,0.01,-0.02,0.05,-0.001090830782496456,-0.002181661564992912,0.002181661564992912,0.005859526194737495,0.72700939228268,1.6114136726757282,0,0,0,0,0,0,1500,1500,1500,1500,1500,1500
1748735308.3545587,0.01,-0.02,0.04,0.001090830782496456,0.004363323129985824,0.001090830782496456,0.005859526194737495,0.72700939228268,1.6114136726757282,0,0,0,0,0,0,1500,1500,1500,1500,1500,1500
1748735308.4544687,0.01,-0.02,0.04,0.001090830782496456,0.004363323129985824,0.001090830782496456,0.005859526194737495,0.72700939228268,1.6114136726757282,0,0,0,0,0,0,1500,1500,1500,1500,1500,1500
1748735308.5385206,-0.01,0.0,0.05,0.0,0.007635815477475192,0.0,0.005859526194737495,0.72700939228268,1.6114136726757282,0,0,0,0,0,0,1500,1500,1500,1500,1500,1500
1748735308.6380255,-0.01,0.0,0.05,0.0,0.007635815477475192,0.0,0.005859526194737495,0.72700939228268,1.6114136726757282,0,0,0,0,0,0,1500,1500,1500,1500,1500,1500
1748735308.738049,0.0,0.0,0.02,0.0,-0.002181661564992912,0.001090830782496456,0.005859526194737495,0.72700939228268,1.6114136726757282,0,0,0,0,0,0,1500,1500,1500,1500,1500,1500
1748735308.8221092,0.01,-0.02,-0.01,-0.003272492347489368,0.001090830782496456,0.0,0.005859526194737495,0.72700939228268,1.6114136726757282,0,0,0,0,0,0,1500,1500,1500,1500,1500,1500
1748735308.9216664,0.01,-0.02,-0.01,-0.003272492347489368,0.001090830782496456,0.0,0.005859526194737495,0.72700939228268,1.6114136726757282,0,0,0,0,0,0,1500,1500,1500,1500,1500,1500
1748735309.0218768,0.0,0.0,0.03,-0.001090830782496456,0.004363323129985824,-0.001090830782496456,0.005859526194737495,0.72700939228268,1.6114136726757282,0,0,0,0,0,0,1500,1500,1500,1500,1500,1500
1748735309.121662,0.0,0.0,0.03,-0.001090830782496456,0.004363323129985824,-0.001090830782496456,0.005859526194737495,0.72700939228268,1.6114136726757282,0,0,0,0,0,0,1500,1500,1500,1500,1500,1500
1748735309.223746,-0.01,-0.04,0.04,-0.001090830782496456,0.003272492347489368,0.001090830782496456,0.005859526194737495,0.72700939228268,1.6114136726757282,0,0,0,0,0,0,1500,1500,1500,1500,1500,1500
1748735309.3233824,0.01,0.01,0.03,0.002181661564992912,0.0,0.001090830782496456,0.005859526194737495,0.72700939228268,1.6114136726757282,0,0,0,0,0,0,1500,1500,1500,1500,1500,1500
1748735309.421932,0.01,0.01,0.03,0.002181661564992912,0.0,0.001090830782496456,0.005859526194737495,0.72700939228268,1.6114136726757282,0,0,0,0,0,0,1500,1500,1500,1500,1500,1500
1748735309.5055482,0.0,-0.01,0.07,-0.002181661564992912,0.001090830782496456,0.002181661564992912,0.005859526194737495,0.72700939228268,1.6114136726757282,0,0,0,0,0,0,1500,1500,1500,1500,1500,1500
1748735309.6007001,-0.01,-0.03,0.04,0.002181661564992912,0.0,-0.001090830782496456,0.005859526194737495,0.72700939228268,1.6114136726757282,0,0,0,0,0,0,1500,1500,1500,1500,1500,1500
1748735309.7051551,-0.01,-0.03,0.04,0.002181661564992912,0.0,-0.001090830782496456,0.005859526194737495,0.72700939228268,1.6114136726757282,0,0,0,0,0,0,1500,1500,1500,1500,1500,1500
1748735309.7889047,0.0,-0.02,0.03,-0.001090830782496456,0.001090830782496456,0.001090830782496456,0.005859526194737495,0.72700939228268,1.6114136726757282,0,0,0,0,0,0,1500,1500,1500,1500,1500,1500
1748735309.8879755,0.0,-0.02,0.03,-0.001090830782496456,0.001090830782496456,0.001090830782496456,0.005859526194737495,0.72700939228268,1.6114136726757282,0,0,0,0,0,0,1500,1500,1500,1500,1500,1500
1748735309.9885666,0.01,0.0,0.02,-0.001090830782496456,0.00545415391248228,0.001090830782496456,0.005859526194737495,0.72700939228268,1.6114136726757282,0,0,0,0,0,0,1500,1500,1500,1500,1500,1500
1748735310.0886908,0.01,0.0,0.03,0.001090830782496456,0.001090830782496456,0.001090830782496456,0.005859526194737495,0.72700939228268,1.6114136726757282,0,0,0,0,0,0,1500,1500,1500,1500,1500,1500
1748735310.1887908,0.01,0.0,0.03,0.001090830782496456,0.001090830782496456,0.001090830782496456,0.005859526194737495,0.72700939228268,1.6114136726757282,0,0,0,0,0,0,1500,1500,1500,1500,1500,1500
1748735310.2715154,0.0,-0.01,0.06,-0.001090830782496456,0.0,0.0,0.005859526194737495,0.72700939228268,1.6114136726757282,0,0,0,0,0,0,1500,1500,1500,1500,1500,1500
1748735310.3722708,0.0,-0.01,0.06,-0.001090830782496456,0.0,0.0,0.005859526194737495,0.72700939228268,1.6114136726757282,0,0,0,0,0,0,1500,1500,1500,1500,1500,1500
1748735310.4719543,0.0,-0.06,0.03,-0.001090830782496456,-0.001090830782496456,0.0,0.005859526194737495,0.72700939228268,1.6114136726757282,0,0,0,0,0,0,1500,1500,1500,1500,1500,1500
1748735310.5544417,0.0,-0.06,0.03,-0.001090830782496456,-0.001090830782496456,0.0,0.005859526194737495,0.72700939228268,1.6114136726757282,0,0,0,0,0,0,1500,1500,1500,1500,1500,1500
1748735310.6554277,0.01,-0.01,0.01,-0.001090830782496456,0.001090830782496456,0.0,0.005859526194737495,0.72700939228268,1.6114136726757282,0,0,0,0,0,0,1500,1500,1500,1500,1500,1500
1748735310.7540398,0.02,0.0,0.01,-0.001090830782496456,-0.002181661564992912,0.003272492347489368,0.005859526194737495,0.72700939228268,1.6114136726757282,0,0,0,0,0,0,1500,1500,1500,1500,1500,1500
1748735310.8551736,0.02,0.0,0.01,-0.001090830782496456,-0.002181661564992912,0.003272492347489368,0.005859526194737495,0.72700939228268,1.6114136726757282,0,0,0,0,0,0,1500,1500,1500,1500,1500,1500
1748735310.9548478,0.0,0.0,0.02,-0.002181661564992912,-0.004363323129985824,0.001090830782496456,0.005859526194737495,0.72700939228268,1.6114136726757282,0,0,0,0,0,0,1500,1500,1500,1500,1500,1500
1748735311.0377948,0.0,0.0,0.02,-0.002181661564992912,-0.004363323129985824,0.001090830782496456,0.005859526194737495,0.72700939228268,1.6114136726757282,0,0,0,0,0,0,1500,1500,1500,1500,1500,1500
1748735311.1384294,0.0,-0.05,0.03,0.003272492347489368,0.002181661564992912,0.0,0.005859526194737495,0.72700939228268,1.6114136726757282,0,0,0,0,0,0,1500,1500,1500,1500,1500,1500
1748735311.237949,0.0,-0.04,0.02,0.002181661564992912,0.0,0.0,0.005859526194737495,0.72700939228268,1.6114136726757282,0,0,0,0,0,0,1500,1500,1500,1500,1500,1500
1748735311.3217523,0.0,-0.04,0.02,0.002181661564992912,0.0,0.0,0.005859526194737495,0.72700939228268,1.6114136726757282,0,0,0,0,0,0,1500,1500,1500,1500,1500,1500
1748735311.4215586,0.01,0.0,0.0,0.001090830782496456,-0.003272492347489368,-0.001090830782496456,0.005859526194737495,0.72700939228268,1.6114136726757282,0,0,0,0,0,0,1500,1500,1500,1500,1500,1500
1748735311.5051053,0.01,0.0,0.0,0.001090830782496456,-0.003272492347489368,-0.001090830782496456,0.005859526194737495,0.72700939228268,1.6114136726757282,0,0,0,0,0,0,1500,1500,1500,1500,1500,1500
1748735311.6071377,0.0,0.01,0.01,-0.002181661564992912,-0.002181661564992912,0.001090830782496456,0.005859526194737495,0.72700939228268,1.6114136726757282,0,0,0,0,0,0,1500,1500,1500,1500,1500,1500
1748735311.7052422,0.0,0.0,0.03,-0.001090830782496456,-0.006544984694978736,0.0,0.005859526194737495,0.72700939228268,1.6114136726757282,0,0,0,0,0,0,1500,1500,1500,1500,1500,1500
1748735311.7877626,0.0,0.0,0.03,-0.001090830782496456,-0.006544984694978736,0.0,0.005859526194737495,0.72700939228268,1.6114136726757282,0,0,0,0,0,0,1500,1500,1500,1500,1500,1500
1748735311.8879273,0.0,-0.03,0.08,0.0,0.003272492347489368,0.0,0.005859526194737495,0.72700939228268,1.6114136726757282,0,0,0,0,0,0,1500,1500,1500,1500,1500,1500
1748735311.9879754,0.0,-0.03,0.08,0.0,0.003272492347489368,0.0,0.005859526194737495,0.72700939228268,1.6114136726757282,0,0,0,0,0,0,1500,1500,1500,1500,1500,1500
1748735312.0713458,0.0,0.0,0.03,-0.003272492347489368,0.0,0.002181661564992912,0.005859526194737495,0.72700939228268,1.6114136726757282,0,0,0,0,0,0,1500,1500,1500,1500,1500,1500
1748735312.171573,0.0,0.0,0.01,-0.003272492347489368,0.003272492347489368,0.001090830782496456,0.005859526194737495,0.72700939228268,1.6114136726757282,0,0,0,0,0,0,1500,1500,1500,1500,1500,1500
1748735312.271147,0.0,0.0,0.01,-0.003272492347489368,0.003272492347489368,0.001090830782496456,0.005859526194737495,0.72700939228268,1.6114136726757282,0,0,0,0,0,0,1500,1500,1500,1500,1500,1500
1748735312.371911,0.0,-0.04,0.01,-0.002181661564992912,-0.002181661564992912,0.0,0.005859526194737495,0.72700939228268,1.6114136726757282,0,0,0,0,0,0,1500,1500,1500,1500,1500,1500
1748735312.4715931,0.0,-0.04,0.01,-0.002181661564992912,-0.002181661564992912,0.0,0.005859526194737495,0.72700939228268,1.6114136726757282,0,0,0,0,0,0,1500,1500,1500,1500,1500,1500
1748735312.5547056,0.0,-0.01,0.05,0.002181661564992912,0.001090830782496456,-0.001090830782496456,0.005859526194737495,0.72700939228268,1.6114136726757282,0,0,0,0,0,0,1500,1500,1500,1500,1500,1500
1748735312.654509,0.0,-0.03,0.05,0.001090830782496456,0.003272492347489368,0.0,0.005859526194737495,0.72700939228268,1.6114136726757282,0,0,0,0,0,0,1500,1500,1500,1500,1500,1500
1748735312.7547922,0.0,-0.03,0.05,0.001090830782496456,0.003272492347489368,0.0,0.005859526194737495,0.72700939228268,1.6114136726757282,0,0,0,0,0,0,1500,1500,1500,1500,1500,1500
1748735312.8543918,0.0,0.0,0.02,-0.001090830782496456,0.001090830782496456,0.001090830782496456,0.005859526194737495,0.72700939228268,1.6114136726757282,0,0,0,0,0,0,1500,1500,1500,1500,1500,1500
1748735312.9551487,0.0,0.0,0.02,-0.001090830782496456,0.001090830782496456,0.001090830782496456,0.005859526194737495,0.72700939228268,1.6114136726757282,0,0,0,0,0,0,1500,1500,1500,1500,1500,1500
1748735313.0388877,0.01,0.01,0.02,-0.004363323129985824,0.003272492347489368,-0.001090830782496456,0.005859526194737495,0.72700939228268,1.6114136726757282,0,0,0,0,0,0,1500,1500,1500,1500,1500,1500
1748735313.1391408,0.0,0.0,0.04,-0.002181661564992912,0.0,0.002181661564992912,0.005859526194737495,0.72700939228268,1.6114136726757282,0,0,0,0,0,0,1500,1500,1500,1500,1500,1500
1748735313.2387083,0.0,0.0,0.04,-0.002181661564992912,0.0,0.002181661564992912,0.005859526194737495,0.72700939228268,1.6114136726757282,0,0,0,0,0,0,1500,1500,1500,1500,1500,1500
1748735313.3382661,0.01,-0.01,0.03,-0.003272492347489368,0.001090830782496456,0.002181661564992912,0.005859526194737495,0.72700939228268,1.6114136726757282,0,0,0,0,0,0,1500,1500,1500,1500,1500,1500
1748735313.4410834,0.01,-0.01,0.03,-0.003272492347489368,0.001090830782496456,0.002181661564992912,0.005859526194737495,0.72700939228268,1.6114136726757282,0,0,0,0,0,0,1500,1500,1500,1500,1500,1500
1748735313.5213642,0.0,-0.03,0.06,-0.001090830782496456,0.004363323129985824,0.0,0.005859526194737495,0.72700939228268,1.6114136726757282,0,0,0,0,0,0,1500,1500,1500,1500,1500,1500
1748735313.622261,0.01,-0.01,0.0,0.003272492347489368,0.00545415391248228,0.001090830782496456,0.005859526194737495,0.72700939228268,1.6114136726757282,0,0,0,0,0,0,1500,1500,1500,1500,1500,1500
1748735313.7227974,0.01,-0.01,0.0,0.003272492347489368,0.00545415391248228,0.001090830782496456,0.005859526194737495,0.72700939228268,1.6114136726757282,0,0,0,0,0,0,1500,1500,1500,1500,1500,1500
1748735313.8227186,0.01,0.01,0.01,-0.002181661564992912,-0.001090830782496456,0.001090830782496456,0.005859526194737495,0.72700939228268,1.6114136726757282,0,0,0,0,0,0,1500,1500,1500,1500,1500,1500
1748735313.9215012,0.01,0.01,0.01,-0.002181661564992912,-0.001090830782496456,0.001090830782496456,0.005859526194737495,0.72700939228268,1.6114136726757282,0,0,0,0,0,0,1500,1500,1500,1500,1500,1500
1748735314.0223668,0.0,0.0,0.03,-0.001090830782496456,0.002181661564992912,0.004363323129985824,0.005859526194737495,0.72700939228268,1.6114136726757282,0,0,0,0,0,0,1500,1500,1500,1500,1500,1500
1748735314.1218755,0.01,-0.01,0.03,0.0,0.0,0.001090830782496456,0.005859526194737495,0.72700939228268,1.6114136726757282,0,0,0,0,0,0,1500,1500,1500,1500,1500,1500
1748735314.220302,0.01,-0.01,0.03,0.0,0.0,0.001090830782496456,0.005859526194737495,0.72700939228268,1.6114136726757282,0,0,0,0,0,0,1500,1500,1500,1500,1500,1500
1748735314.3063028,0.0,-0.01,0.03,-0.001090830782496456,-0.004363323129985824,-0.002181661564992912,0.005859526194737495,0.72700939228268,1.6114136726757282,0,0,0,0,0,0,1500,1500,1500,1500,1500,1500
1748735314.404867,0.0,-0.01,0.03,-0.001090830782496456,-0.004363323129985824,-0.002181661564992912,0.005859526194737495,0.72700939228268,1.6114136726757282,0,0,0,0,0,0,1500,1500,1500,1500,1500,1500
1748735314.504632,0.0,0.0,0.03,0.002181661564992912,-0.003272492347489368,0.0,0.005859526194737495,0.72700939228268,1.6114136726757282,0,0,0,0,0,0,1500,1500,1500,1500,1500,1500
1748735314.6041815,0.01,0.0,0.0,0.0,0.003272492347489368,0.001090830782496456,0.005859526194737495,0.72700939228268,1.6114136726757282,0,0,0,0,0,0,1500,1500,1500,1500,1500,1500
1748735314.706365,0.01,0.0,0.0,0.0,0.003272492347489368,0.001090830782496456,0.005859526194737495,0.72700939228268,1.6114136726757282,0,0,0,0,0,0,1500,1500,1500,1500,1500,1500
1748735314.7878616,0.02,-0.01,0.05,0.003272492347489368,0.002181661564992912,0.0,0.005859526194737495,0.72700939228268,1.6114136726757282,0,0,0,0,0,0,1500,1500,1500,1500,1500,1500
1748735314.8845387,0.01,-0.04,0.03,0.001090830782496456,0.0,0.0,0.005859526194737495,0.72700939228268,1.6114136726757282,0,0,0,0,0,0,1500,1500,1500,1500,1500,1500
1748735314.9880505,0.01,-0.04,0.03,0.001090830782496456,0.0,0.0,0.005859526194737495,0.72700939228268,1.6114136726757282,0,0,0,0,0,0,1500,1500,1500,1500,1500,1500
1748735315.0725353,0.0,0.0,0.0,0.0,-0.001090830782496456,0.003272492347489368,0.005859526194737495,0.72700939228268,1.6114136726757282,0,0,0,0,0,0,1500,1500,1500,1500,1500,1500
1748735315.172234,0.0,0.0,0.0,0.0,-0.001090830782496456,0.003272492347489368,0.005859526194737495,0.72700939228268,1.6114136726757282,0,0,0,0,0,0,1500,1500,1500,1500,1500,1500
1748735315.2711546,-0.01,0.0,0.04,-0.001090830782496456,0.003272492347489368,0.001090830782496456,0.005859526194737495,0.72700939228268,1.6114136726757282,0,0,0,0,0,0,1500,1500,1500,1500,1500,1500
1748735315.3724308,0.0,-0.04,0.05,0.003272492347489368,0.004363323129985824,-0.001090830782496456,0.005859526194737495,0.72700939228268,1.6114136726757282,0,0,0,0,0,0,1500,1500,1500,1500,1500,1500
1748735315.471804,0.0,-0.04,0.05,0.003272492347489368,0.004363323129985824,-0.001090830782496456,0.005859526194737495,0.72700939228268,1.6114136726757282,0,0,0,0,0,0,1500,1500,1500,1500,1500,1500
1748735315.5547004,0.0,-0.04,0.03,0.0,0.001090830782496456,0.001090830782496456,0.005859526194737495,0.72700939228268,1.6114136726757282,0,0,0,0,0,0,1500,1500,1500,1500,1500,1500
1748735315.654581,0.0,-0.04,0.03,0.0,0.001090830782496456,0.001090830782496456,0.005859526194737495,0.72700939228268,1.6114136726757282,0,0,0,0,0,0,1500,1500,1500,1500,1500,1500
1748735315.7546613,0.0,0.0,0.01,0.001090830782496456,-0.002181661564992912,-0.002181661564992912,0.005859526194737495,0.72700939228268,1.6114136726757282,0,0,0,0,0,0,1500,1500,1500,1500,1500,1500
1748735315.8549001,0.01,-0.01,0.01,0.0,0.002181661564992912,0.002181661564992912,0.005859526194737495,0.72700939228268,1.6114136726757282,0,0,0,0,0,0,1500,1500,1500,1500,1500,1500
1748735315.953856,0.01,-0.01,0.01,0.0,0.002181661564992912,0.002181661564992912,0.005859526194737495,0.72700939228268,1.6114136726757282,0,0,0,0,0,0,1500,1500,1500,1500,1500,1500
1748735316.0387182,0.01,-0.04,0.04,0.006544984694978736,-0.001090830782496456,-0.001090830782496456,0.005859526194737495,0.72700939228268,1.6114136726757282,0,0,0,0,0,0,1500,1500,1500,1500,1500,1500
1748735316.138142,0.01,-0.04,0.04,0.006544984694978736,-0.001090830782496456,-0.001090830782496456,0.005859526194737495,0.72700939228268,1.6114136726757282,0,0,0,0,0,0,1500,1500,1500,1500,1500,1500
1748735316.2381747,0.0,-0.02,0.02,0.001090830782496456,0.001090830782496456,-0.001090830782496456,0.005859526194737495,0.72700939228268,1.6114136726757282,0,0,0,0,0,0,1500,1500,1500,1500,1500,1500
1748735316.3194838,0.0,-0.01,0.02,0.0,-0.002181661564992912,0.0,0.005859526194737495,0.72700939228268,1.6114136726757282,0,0,0,0,0,0,1500,1500,1500,1500,1500,1500
1748735316.4216144,0.0,-0.01,0.02,0.0,-0.002181661564992912,0.0,0.005859526194737495,0.72700939228268,1.6114136726757282,0,0,0,0,0,0,1500,1500,1500,1500,1500,1500
1748735316.5213819,0.02,0.0,0.02,0.0,0.004363323129985824,0.002181661564992912,0.005859526194737495,0.72700939228268,1.6114136726757282,0,0,0,0,0,0,1500,1500,1500,1500,1500,1500
1748735316.6214838,0.02,0.0,0.02,0.0,0.004363323129985824,0.002181661564992912,0.005859526194737495,0.72700939228268,1.6114136726757282,0,0,0,0,0,0,1500,1500,1500,1500,1500,1500
1748735316.7216506,0.0,-0.02,0.05,0.002181661564992912,0.0,-0.002181661564992912,0.005859526194737495,0.72700939228268,1.6114136726757282,0,0,0,0,0,0,1500,1500,1500,1500,1500,1500
1748735316.8049526,0.0,-0.03,0.04,0.0,0.002181661564992912,0.003272492347489368,0.005859526194737495,0.72700939228268,1.6114136726757282,0,0,0,0,0,0,1500,1500,1500,1500,1500,1500
1748735316.9051037,0.0,-0.03,0.04,0.0,0.002181661564992912,0.003272492347489368,0.005859526194737495,0.72700939228268,1.6114136726757282,0,0,0,0,0,0,1500,1500,1500,1500,1500,1500
1748735317.003812,0.0,-0.03,0.03,-0.001090830782496456,-0.00545415391248228,0.001090830782496456,0.005859526194737495,0.72700939228268,1.6114136726757282,0,0,0,0,0,0,1500,1500,1500,1500,1500,1500
1748735317.1044288,0.0,-0.03,0.03,-0.001090830782496456,-0.00545415391248228,0.001090830782496456,0.005859526194737495,0.72700939228268,1.6114136726757282,0,0,0,0,0,0,1500,1500,1500,1500,1500,1500
1748735317.204593,0.02,0.0,0.0,-0.003272492347489368,-0.001090830782496456,0.002181661564992912,0.005859526194737495,0.72700939228268,1.6114136726757282,0,0,0,0,0,0,1500,1500,1500,1500,1500,1500
1748735317.28778,0.0,0.0,0.04,0.0,0.003272492347489368,0.001090830782496456,0.005859526194737495,0.72700939228268,1.6114136726757282,0,0,0,0,0,0,1500,1500,1500,1500,1500,1500
1748735317.38779,0.0,0.0,0.04,0.0,0.003272492347489368,0.001090830782496456,0.005859526194737495,0.72700939228268,1.6114136726757282,0,0,0,0,0,0,1500,1500,1500,1500,1500,1500
1748735317.487865,0.0,-0.04,0.04,-0.002181661564992912,-0.001090830782496456,-0.001090830782496456,0.005859526194737495,0.72700939228268,1.6114136726757282,0,0,0,0,0,0,1500,1500,1500,1500,1500,1500
1748735317.5881486,0.0,-0.04,0.04,-0.002181661564992912,-0.001090830782496456,-0.001090830782496456,0.005859526194737495,0.72700939228268,1.6114136726757282,0,0,0,0,0,0,1500,1500,1500,1500,1500,1500
1748735317.6879067,0.0,0.0,0.05,-0.001090830782496456,-0.004363323129985824,0.002181661564992912,0.005859526194737495,0.72700939228268,1.6114136726757282,0,0,0,0,0,0,1500,1500,1500,1500,1500,1500
1748735317.8093033,0.0,-0.02,0.02,-0.002181661564992912,0.0,-0.001090830782496456,0.005859526194737495,0.72700939228268,1.6114136726757282,0,0,0,0,0,0,1500,1500,1500,1500,1500,1500
1748735317.9048543,0.0,-0.02,0.02,-0.002181661564992912,0.0,-0.001090830782496456,0.005859526194737495,0.72700939228268,1.6114136726757282,0,0,0,0,0,0,1500,1500,1500,1500,1500,1500
1748735318.004153,0.04,0.0,0.0,0.0,-0.002181661564992912,0.0,0.005859526194737495,0.72700939228268,1.6114136726757282,0,0,0,0,0,0,1500,1500,1500,1500,1500,1500
1748735318.104612,0.0,-0.01,0.0,-0.002181661564992912,0.001090830782496456,-0.001090830782496456,0.005859526194737495,0.72700939228268,1.6114136726757282,0,0,0,0,0,0,1500,1500,1500,1500,1500,1500
1748735318.2050538,0.0,-0.01,0.0,-0.002181661564992912,0.001090830782496456,-0.001090830782496456,0.005859526194737495,0.72700939228268,1.6114136726757282,0,0,0,0,0,0,1500,1500,1500,1500,1500,1500
1748735318.2879503,0.02,-0.06,0.05,0.002181661564992912,0.001090830782496456,-0.001090830782496456,0.005859526194737495,0.72700939228268,1.6114136726757282,0,0,0,0,0,0,1500,1500,1500,1500,1500,1500
1748735318.3882868,0.02,-0.06,0.05,0.002181661564992912,0.001090830782496456,-0.001090830782496456,0.005859526194737495,0.72700939228268,1.6114136726757282,0,0,0,0,0,0,1500,1500,1500,1500,1500,1500
1748735318.4879477,0.01,0.0,0.02,0.0,0.002181661564992912,-0.001090830782496456,0.005859526194737495,0.72700939228268,1.6114136726757282,0,0,0,0,0,0,1500,1500,1500,1500,1500,1500
1748735318.5716686,0.0,-0.02,0.06,-0.002181661564992912,-0.001090830782496456,0.0,0.005859526194737495,0.72700939228268,1.6114136726757282,0,0,0,0,0,0,1500,1500,1500,1500,1500,1500
1748735318.6717536,0.0,-0.02,0.06,-0.002181661564992912,-0.001090830782496456,0.0,0.005859526194737495,0.72700939228268,1.6114136726757282,0,0,0,0,0,0,1500,1500,1500,1500,1500,1500
1748735318.7713592,0.0,0.0,0.04,-0.002181661564992912,0.0,-0.001090830782496456,0.005859526194737495,0.72700939228268,1.6114136726757282,0,0,0,0,0,0,1500,1500,1500,1500,1500,1500
1748735318.8724174,0.0,0.0,0.04,-0.002181661564992912,0.0,-0.001090830782496456,0.005859526194737495,0.72700939228268,1.6114136726757282,0,0,0,0,0,0,1500,1500,1500,1500,1500,1500
1748735318.971874,-0.01,-0.05,0.04,0.002181661564992912,-0.002181661564992912,0.0,0.005859526194737495,0.72700939228268,1.6114136726757282,0,0,0,0,0,0,1500,1500,1500,1500,1500,1500
1748735319.0619755,0.02,-0.02,0.05,0.003272492347489368,0.0,0.001090830782496456,0.005859526194737495,0.72700939228268,1.6114136726757282,0,0,0,0,0,0,1500,1500,1500,1500,1500,1500
1748735319.1555517,0.02,-0.02,0.05,0.003272492347489368,0.0,0.001090830782496456,0.005859526194737495,0.72700939228268,1.6114136726757282,0,0,0,0,0,0,1500,1500,1500,1500,1500,1500
1748735319.2541354,0.0,-0.02,0.03,-0.001090830782496456,-0.002181661564992912,0.0,0.005859526194737495,0.72700939228268,1.6114136726757282,0,0,0,0,0,0,1500,1500,1500,1500,1500,1500
1748735319.3550196,0.0,-0.02,0.03,-0.001090830782496456,-0.002181661564992912,0.0,0.005859526194737495,0.72700939228268,1.6114136726757282,0,0,0,0,0,0,1500,1500,1500,1500,1500,1500
1748735319.4551058,0.0,0.0,0.0,-0.004363323129985824,0.001090830782496456,0.0,0.005859526194737495,0.72700939228268,1.6114136726757282,0,0,0,0,0,0,1500,1500,1500,1500,1500,1500
1748735319.538004,0.02,-0.02,0.01,-0.002181661564992912,0.0,0.002181661564992912,0.005859526194737495,0.72700939228268,1.6114136726757282,0,0,0,0,0,0,1500,1500,1500,1500,1500,1500
1748735319.6378443,0.02,-0.02,0.01,-0.002181661564992912,0.0,0.002181661564992912,0.005859526194737495,0.72700939228268,1.6114136726757282,0,0,0,0,0,0,1500,1500,1500,1500,1500,1500
1748735319.7380965,0.0,-0.04,0.02,0.001090830782496456,0.003272492347489368,0.002181661564992912,0.005859526194737495,0.72700939228268,1.6114136726757282,0,0,0,0,0,0,1500,1500,1500,1500,1500,1500
1748735319.8222554,0.0,-0.04,0.02,0.001090830782496456,0.003272492347489368,0.002181661564992912,0.005859526194737495,0.72700939228268,1.6114136726757282,0,0,0,0,0,0,1500,1500,1500,1500,1500,1500
1748735319.9215307,0.0,0.0,0.02,-0.002181661564992912,0.00545415391248228,-0.001090830782496456,0.005859526194737495,0.72700939228268,1.6114136726757282,0,0,0,0,0,0,1500,1500,1500,1500,1500,1500
1748735320.0054727,0.0,0.01,0.04,-0.003272492347489368,-0.002181661564992912,-0.001090830782496456,0.005859526194737495,0.72700939228268,1.6114136726757282,0,0,0,0,0,0,1500,1500,1500,1500,1500,1500
1748735320.1059797,0.0,0.01,0.04,-0.003272492347489368,-0.002181661564992912,-0.001090830782496456,0.005859526194737495,0.72700939228268,1.6114136726757282,0,0,0,0,0,0,1500,1500,1500,1500,1500,1500
1748735320.2042606,0.02,0.0,0.01,-0.003272492347489368,0.001090830782496456,-0.002181661564992912,0.005859526194737495,0.72700939228268,1.6114136726757282,0,0,0,0,0,0,1500,1500,1500,1500,1500,1500
1748735320.288936,0.02,0.0,0.01,-0.003272492347489368,0.001090830782496456,-0.002181661564992912,0.005859526194737495,0.72700939228268,1.6114136726757282,0,0,0,0,0,0,1500,1500,1500,1500,1500,1500
1748735320.388654,-0.02,-0.05,0.05,0.001090830782496456,-0.002181661564992912,0.0,0.005859526194737495,0.72700939228268,1.6114136726757282,0,0,0,0,0,0,1500,1500,1500,1500,1500,1500
1748735320.4820993,-0.01,-0.02,0.01,-0.001090830782496456,-0.002181661564992912,-0.001090830782496456,0.005859526194737495,0.72700939228268,1.6114136726757282,0,0,0,0,0,0,1500,1500,1500,1500,1500,1500
1748735320.5715487,-0.01,-0.02,0.01,-0.001090830782496456,-0.002181661564992912,-0.001090830782496456,0.005859526194737495,0.72700939228268,1.6114136726757282,0,0,0,0,0,0,1500,1500,1500,1500,1500,1500
1748735320.6715622,0.01,0.0,0.03,-0.001090830782496456,-0.001090830782496456,0.0,0.005859526194737495,0.72700939228268,1.6114136726757282,0,0,0,0,0,0,1500,1500,1500,1500,1500,1500
1748735320.7720208,0.01,0.0,0.03,-0.001090830782496456,-0.001090830782496456,0.0,0.005859526194737495,0.72700939228268,1.6114136726757282,0,0,0,0,0,0,1500,1500,1500,1500,1500,1500
1748735320.8705077,0.0,-0.04,0.06,0.0,-0.003272492347489368,-0.001090830782496456,0.005859526194737495,0.72700939228268,1.6114136726757282,0,0,0,0,0,0,1500,1500,1500,1500,1500,1500
1748735320.971569,0.0,-0.05,0.03,-0.001090830782496456,0.001090830782496456,-0.001090830782496456,0.005859526194737495,0.72700939228268,1.6114136726757282,0,0,0,0,0,0,1500,1500,1500,1500,1500,1500
1748735321.054623,0.0,-0.05,0.03,-0.001090830782496456,0.001090830782496456,-0.001090830782496456,0.005859526194737495,0.72700939228268,1.6114136726757282,0,0,0,0,0,0,1500,1500,1500,1500,1500,1500
1748735321.1543553,0.0,-0.01,0.01,0.002181661564992912,0.003272492347489368,0.001090830782496456,0.005859526194737495,0.72700939228268,1.6114136726757282,0,0,0,0,0,0,1500,1500,1500,1500,1500,1500
1748735321.253956,0.0,-0.01,0.01,0.002181661564992912,0.003272492347489368,0.001090830782496456,0.005859526194737495,0.72700939228268,1.6114136726757282,0,0,0,0,0,0,1500,1500,1500,1500,1500,1500
1748735321.3548393,0.01,0.0,0.01,-0.002181661564992912,-0.003272492347489368,0.001090830782496456,0.005859526194737495,0.72700939228268,1.6114136726757282,0,0,0,0,0,0,1500,1500,1500,1500,1500,1500
1748735321.4543388,0.01,-0.03,0.01,-0.001090830782496456,0.001090830782496456,0.0,0.005859526194737495,0.72700939228268,1.6114136726757282,0,0,0,0,0,0,1500,1500,1500,1500,1500,1500
1748735321.537902,0.01,-0.03,0.01,-0.001090830782496456,0.001090830782496456,0.0,0.005859526194737495,0.72700939228268,1.6114136726757282,0,0,0,0,0,0,1500,1500,1500,1500,1500,1500
1748735321.6378305,0.0,-0.02,0.01,0.003272492347489368,0.00545415391248228,0.0,0.005859526194737495,0.72700939228268,1.6114136726757282,0,0,0,0,0,0,1500,1500,1500,1500,1500,1500
1748735321.7369852,0.0,-0.02,0.01,0.003272492347489368,0.00545415391248228,0.0,0.005859526194737495,0.72700939228268,1.6114136726757282,0,0,0,0,0,0,1500,1500,1500,1500,1500,1500
1748735321.8215349,0.0,-0.01,0.08,0.003272492347489368,-0.003272492347489368,0.002181661564992912,0.005859526194737495,0.72700939228268,1.6114136726757282,0,0,0,0,0,0,1500,1500,1500,1500,1500,1500
1748735321.920917,0.03,0.0,0.01,-0.001090830782496456,0.0,0.0,0.005859526194737495,0.72700939228268,1.6114136726757282,0,0,0,0,0,0,1500,1500,1500,1500,1500,1500
1748735322.0216603,0.03,0.0,0.01,-0.001090830782496456,0.0,0.0,0.005859526194737495,0.72700939228268,1.6114136726757282,0,0,0,0,0,0,1500,1500,1500,1500,1500,1500
1748735322.1210942,-0.01,0.01,0.03,0.0,0.0,0.001090830782496456,0.005859526194737495,0.72700939228268,1.6114136726757282,0,0,0,0,0,0,1500,1500,1500,1500,1500,1500
1748735322.2207384,-0.01,0.01,0.03,0.0,0.0,0.001090830782496456,0.005859526194737495,0.72700939228268,1.6114136726757282,0,0,0,0,0,0,1500,1500,1500,1500,1500,1500
1748735322.3051658,0.0,-0.04,0.05,-0.002181661564992912,-0.002181661564992912,0.0,0.005859526194737495,0.72700939228268,1.6114136726757282,0,0,0,0,0,0,1500,1500,1500,1500,1500,1500
1748735322.4041085,0.0,-0.04,0.01,0.002181661564992912,0.0,0.002181661564992912,0.005859526194737495,0.72700939228268,1.6114136726757282,0,0,0,0,0,0,1500,1500,1500,1500,1500,1500
1748735322.5041568,0.0,-0.04,0.01,0.002181661564992912,0.0,0.002181661564992912,0.005859526194737495,0.72700939228268,1.6114136726757282,0,0,0,0,0,0,1500,1500,1500,1500,1500,1500
1748735322.6041794,0.03,0.0,0.03,-0.001090830782496456,0.0,0.0,0.005859526194737495,0.72700939228268,1.6114136726757282,0,0,0,0,0,0,1500,1500,1500,1500,1500,1500
1748735322.7043502,0.03,0.0,0.03,-0.001090830782496456,0.0,0.0,0.005859526194737495,0.72700939228268,1.6114136726757282,0,0,0,0,0,0,1500,1500,1500,1500,1500,1500
1748735322.7866411,0.03,0.01,0.03,0.0,0.0,0.001090830782496456,0.005859526194737495,0.72700939228268,1.6114136726757282,0,0,0,0,0,0,1500,1500,1500,1500,1500,1500
1748735322.8880196,0.0,-0.03,0.01,0.001090830782496456,0.001090830782496456,-0.001090830782496456,0.005859526194737495,0.72700939228268,1.6114136726757282,0,0,0,0,0,0,1500,1500,1500,1500,1500,1500
1748735322.988515,0.0,-0.03,0.01,0.001090830782496456,0.001090830782496456,-0.001090830782496456,0.005859526194737495,0.72700939228268,1.6114136726757282,0,0,0,0,0,0,1500,1500,1500,1500,1500,1500
1748735323.088118,0.0,-0.03,0.02,-0.001090830782496456,0.003272492347489368,-0.001090830782496456,0.005859526194737495,0.72700939228268,1.6114136726757282,0,0,0,0,0,0,1500,1500,1500,1500,1500,1500
1748735323.1882725,0.0,-0.03,0.02,-0.001090830782496456,0.003272492347489368,-0.001090830782496456,0.005859526194737495,0.72700939228268,1.6114136726757282,0,0,0,0,0,0,1500,1500,1500,1500,1500,1500
1748735323.2711754,0.0,-0.02,0.04,0.002181661564992912,-0.001090830782496456,0.003272492347489368,0.005859526194737495,0.72700939228268,1.6114136726757282,0,0,0,0,0,0,1500,1500,1500,1500,1500,1500
1748735323.370232,0.0,0.0,0.03,-0.001090830782496456,-0.001090830782496456,0.001090830782496456,0.005859526194737495,0.72700939228268,1.6114136726757282,0,0,0,0,0,0,1500,1500,1500,1500,1500,1500
1748735323.4712455,0.0,0.0,0.03,-0.001090830782496456,-0.001090830782496456,0.001090830782496456,0.005859526194737495,0.72700939228268,1.6114136726757282,0,0,0,0,0,0,1500,1500,1500,1500,1500,1500
1748735323.5552642,0.02,-0.05,0.05,-0.001090830782496456,-0.004363323129985824,0.0,0.005859526194737495,0.72700939228268,1.6114136726757282,0,0,0,0,0,0,1500,1500,1500,1500,1500,1500
1748735323.654944,0.02,-0.05,0.05,-0.001090830782496456,-0.004363323129985824,0.0,0.005859526194737495,0.72700939228268,1.6114136726757282,0,0,0,0,0,0,1500,1500,1500,1500,1500,1500
