time,ay,ax,az,gy,gx,gz,roll,pitch,yaw,cmd_fx,cmd_fy,cmd_fz,cmd_tx,cmd_ty,cmd_tz,pwm_1,pwm_2,pwm_3,pwm_4,pwm_5,pwm_6
1747554677.755898,0.0,0.0,0.0,0.0,0.0,0.0,0.0,0.0,0.0,0,0,0,0,0,0,1500,1500,1500,1500,1500,1500
1747554677.8448913,-0.02,-0.22,0.19,-0.001090830782496456,-0.002181661564992912,0.001090830782496456,2.1365917985915974,-0.14790384686197772,-0.2778160347533418,0,0,0,0,0,0,1500,1500,1500,1500,1500,1500
1747554677.9456666,-0.02,-0.22,0.19,-0.001090830782496456,-0.002181661564992912,0.001090830782496456,2.1365917985915974,-0.14790384686197772,-0.2778160347533418,0,0,0,0,0,0,1500,1500,1500,1500,1500,1500
1747554678.0451145,-0.03,-0.22,0.1,-0.001090830782496456,-0.007635815477475192,-0.001090830782496456,2.136444528959198,-0.1479041406420742,-0.2777974901019394,0,0,0,0,0,0,1500,1500,1500,1500,1500,1500
1747554678.142163,0.0,-0.2,0.15,0.0,-0.007635815477475192,0.0,2.136397938808087,-0.1480296386493994,-0.27774008046077825,0,0,0,0,0,0,1500,1500,1500,1500,1500,1500
1747554678.2282257,0.0,-0.2,0.15,0.0,-0.007635815477475192,0.0,2.136397938808087,-0.1480296386493994,-0.27774008046077825,0,0,0,0,0,0,1500,1500,1500,1500,1500,1500
1747554678.3288288,-0.02,-0.02,0.0,0.002181661564992912,-0.001090830782496456,0.002181661564992912,2.136397938808087,-0.1480296386493994,-0.27774008046077825,0,0,0,0,0,0,1500,1500,1500,1500,1500,1500
1747554678.4279034,-0.02,-0.02,0.0,0.002181661564992912,-0.001090830782496456,0.002181661564992912,2.136397938808087,-0.1480296386493994,-0.27774008046077825,0,0,0,0,0,0,1500,1500,1500,1500,1500,1500
1747554678.5114012,0.03,0.0,0.03,0.002181661564992912,0.003272492347489368,0.0,2.136397938808087,-0.1480296386493994,-0.27774008046077825,0,0,0,0,0,0,1500,1500,1500,1500,1500,1500
1747554678.6119933,0.03,0.0,0.03,0.002181661564992912,0.003272492347489368,0.0,2.136397938808087,-0.1480296386493994,-0.27774008046077825,0,0,0,0,0,0,1500,1500,1500,1500,1500,1500
1747554678.7118185,0.01,-0.02,0.08,0.002181661564992912,-0.003272492347489368,-0.001090830782496456,2.136397938808087,-0.1480296386493994,-0.27774008046077825,0,0,0,0,0,0,1500,1500,1500,1500,1500,1500
1747554678.8120797,0.0,0.01,-0.02,-0.003272492347489368,-0.007635815477475192,0.002181661564992912,2.136397938808087,-0.1480296386493994,-0.27774008046077825,0,0,0,0,0,0,1500,1500,1500,1500,1500,1500
1747554678.912396,0.0,0.01,-0.02,-0.003272492347489368,-0.007635815477475192,0.002181661564992912,2.136397938808087,-0.1480296386493994,-0.27774008046077825,0,0,0,0,0,0,1500,1500,1500,1500,1500,1500
1747554678.9955919,0.02,0.0,0.05,0.0,-0.003272492347489368,0.004363323129985824,2.136397938808087,-0.1480296386493994,-0.27774008046077825,0,0,0,0,0,0,1500,1500,1500,1500,1500,1500
1747554679.0945919,0.02,0.0,0.05,0.0,-0.003272492347489368,0.004363323129985824,2.136397938808087,-0.1480296386493994,-0.27774008046077825,0,0,0,0,0,0,1500,1500,1500,1500,1500,1500
1747554679.195375,0.01,-0.01,0.03,0.0,0.0,0.002181661564992912,2.136397938808087,-0.1480296386493994,-0.27774008046077825,0,0,0,0,0,0,1500,1500,1500,1500,1500,1500
1747554679.29553,0.03,-0.01,0.0,-0.003272492347489368,0.003272492347489368,-0.003272492347489368,2.136397938808087,-0.1480296386493994,-0.27774008046077825,0,0,0,0,0,0,1500,1500,1500,1500,1500,1500
1747554679.3950582,0.03,-0.01,0.0,-0.003272492347489368,0.003272492347489368,-0.003272492347489368,2.136397938808087,-0.1480296386493994,-0.27774008046077825,0,0,0,0,0,0,1500,1500,1500,1500,1500,1500
1747554679.4794483,-0.02,-0.02,0.03,-0.006544984694978736,-0.002181661564992912,-0.002181661564992912,2.136397938808087,-0.1480296386493994,-0.27774008046077825,0,0,0,0,0,0,1500,1500,1500,1500,1500,1500
1747554679.5780952,0.0,-0.01,-0.02,-0.003272492347489368,0.004363323129985824,-0.001090830782496456,2.136397938808087,-0.1480296386493994,-0.27774008046077825,0,0,0,0,0,0,1500,1500,1500,1500,1500,1500
1747554679.6780233,0.0,-0.01,-0.02,-0.003272492347489368,0.004363323129985824,-0.001090830782496456,2.136397938808087,-0.1480296386493994,-0.27774008046077825,0,0,0,0,0,0,1500,1500,1500,1500,1500,1500
1747554679.761499,0.0,-0.01,0.02,-0.003272492347489368,0.00545415391248228,0.002181661564992912,2.136397938808087,-0.1480296386493994,-0.27774008046077825,3,0,0,0,0,0,1540,1460,1500,1540,1540,1540
1747554679.8613336,0.0,-0.01,0.02,-0.003272492347489368,0.00545415391248228,0.002181661564992912,2.136397938808087,-0.1480296386493994,-0.27774008046077825,3,0,0,0,0,0,1567,1424,1500,1580,1566,1566
1747554679.9620557,-0.01,-0.04,-0.01,-0.002181661564992912,0.0,-0.002181661564992912,2.136397938808087,-0.1480296386493994,-0.27774008046077825,3,0,0,0,0,0,1567,1424,1500,1587,1566,1566
1747554680.0621712,0.04,-0.1,-0.17,0.04908738521234052,0.0,0.015271630954950384,2.1374958321663033,-0.1481464759401107,-0.27780955329006174,3,0,0,0,0,0,1567,1424,1500,1587,1566,1566
1747554680.1617444,0.04,-0.1,-0.17,0.04908738521234052,0.0,0.015271630954950384,2.1374958321663033,-0.1481464759401107,-0.27780955329006174,3,0,0,0,0,0,1567,1424,1500,1587,1566,1566
1747554680.2461476,0.0,-0.1,0.2,0.12980886311707826,-0.00545415391248228,0.04799655442984406,2.157424171169381,-0.15342012279976958,-0.2814820845970125,3,0,0,0,0,0,1567,1424,1500,1587,1566,1566
1747554680.345937,0.0,-0.1,0.2,0.12980886311707826,-0.00545415391248228,0.04799655442984406,2.157424171169381,-0.15342012279976958,-0.2814820845970125,3,0,0,0,0,0,1567,1424,1500,1587,1566,1566
1747554680.4451547,0.07,0.15,-0.08,0.12871803233458182,-0.013089969389957472,0.05126904677733343,2.176980679782894,-0.15843408105859116,-0.2876432690237051,3,0,0,0,0,0,1567,1424,1500,1587,1566,1566
1747554680.5452805,-0.05,0.04,0.1,0.10253809355466686,-0.018544123302439753,0.04690572364734761,2.1959267582148176,-0.16317414267337274,-0.294162628685564,3,0,0,0,0,0,1567,1424,1500,1587,1566,1566
1747554680.6441672,-0.05,0.04,0.1,0.10253809355466686,-0.018544123302439753,0.04690572364734761,2.1959267582148176,-0.16317414267337274,-0.294162628685564,3,0,0,0,0,0,1567,1424,1500,1587,1566,1566
1747554680.727696,-0.16,0.0,0.01,0.05890486225480862,-0.04036073895236887,0.05126904677733343,2.208781064680329,-0.16635028283832487,-0.30215023633585436,3,0,0,0,0,0,1567,1424,1500,1587,1566,1566
1747554680.8242176,0.08,0.01,-0.01,0.011999138607461015,-0.05890486225480862,0.0545415391248228,2.2162707319262984,-0.16807859777693276,-0.3135041459743982,3,0,0,0,0,0,1567,1424,1500,1587,1566,1566
1747554680.9279487,0.08,0.01,-0.01,0.011999138607461015,-0.05890486225480862,0.0545415391248228,2.2162707319262984,-0.16807859777693276,-0.3135041459743982,0,0,0,0,0,0,1527,1464,1500,1547,1526,1526
1747554681.0282423,-0.11,-0.08,-0.08,-0.030543261909900768,-0.08072147790473774,0.06217735460229799,2.217059093053289,-0.16862530195134057,-0.3278952280561306,0,0,0,0,0,0,1500,1500,1500,1507,1500,1500
1747554681.1284606,-0.11,-0.08,-0.08,-0.030543261909900768,-0.08072147790473774,0.06217735460229799,2.217059093053289,-0.16862530195134057,-0.3278952280561306,0,0,0,0,0,0,1500,1500,1500,1500,1500,1500
1747554681.2114267,-0.3,-0.43,-0.03,-0.10581058590215622,-0.07963064712224129,0.08726646259971647,2.208147065230233,-0.1699625008848097,-0.3451659633763043,0,0,0,0,0,0,1500,1500,1500,1500,1500,1500
1747554681.311854,-0.12,-0.06,0.0,-0.10144726277217041,-0.07090400086226964,0.2519819107566813,2.194885893493607,-0.17585868123999543,-0.36367936733395634,0,0,-3.75387,0,0,0,1500,1500,1500,1500,1540,1460
1747554681.4110217,-0.12,-0.06,0.0,-0.10144726277217041,-0.07090400086226964,0.2519819107566813,2.194885893493607,-0.17585868123999543,-0.36367936733395634,0,0,-7.5,0,0,0,1500,1500,1538,1500,1580,1420
1747554681.4946702,-0.09,-0.07,-0.07,-0.07308566242726255,-0.0545415391248228,0.136353847812057,2.185152565852504,-0.18493467811577766,-0.3821152309409125,0,0,-7.5,0,0,0,1500,1500,1538,1500,1599,1390
1747554681.595367,-0.09,-0.07,-0.07,-0.07308566242726255,-0.0545415391248228,0.136353847812057,2.185152565852504,-0.18493467811577766,-0.3821152309409125,0,0,-7.5,0,0,0,1500,1500,1538,1500,1599,1390
1747554681.6956701,-0.17,-0.1,-0.14,-0.031634092692397225,-0.04363323129985824,0.14508049407202864,2.1805935268397607,-0.19877234822634351,-0.40148736882691805,0,0,-7.5,0,0,0,1500,1500,1538,1500,1599,1390
1747554681.794736,0.1,-0.01,-0.3,0.1908953869368798,-0.05126904677733343,0.1189005552921137,2.1950794301504364,-0.21013526504930316,-0.4193964404940603,0,0,-7.5,0,0,0,1500,1500,1538,1500,1599,1390
1747554681.8952444,0.1,-0.01,-0.3,0.1908953869368798,-0.05126904677733343,0.1189005552921137,2.1950794301504364,-0.21013526504930316,-0.4193964404940603,0,0,-7.5,0,0,0,1500,1500,1538,1500,1599,1390
1747554681.9778137,-0.36,-0.09,0.02,0.38724492778624187,-0.07090400086226964,0.04690572364734761,2.246874105981697,-0.2133206974793067,-0.4358027229621685,0,0,-7.5,0,0,0,1500,1500,1538,1500,1599,1390
1747554682.0780818,-0.36,-0.09,0.02,0.38724492778624187,-0.07090400086226964,0.04690572364734761,2.246874105981697,-0.2133206974793067,-0.4358027229621685,0,0,-3.103715,0,0,0,1500,1500,1500,1500,1565,1429
1747554682.1785738,-0.26,0.06,-0.07,0.45814892864851153,-0.09817477042468103,-0.016362461737446838,2.311255399960741,-0.2065283034225571,-0.447622030623542,0,0,0,0,0,0,1500,1500,1500,1500,1525,1469
1747554682.2632308,0.0,0.14,-0.06,0.4177881896961426,-0.11017390903214205,-0.05345070834232634,2.384960266334436,-0.1911849106062332,-0.4553916884533827,0,0,0,0,0,0,1500,1500,1500,1500,1500,1500
1747554682.3610752,0.0,0.14,-0.06,0.4177881896961426,-0.11017390903214205,-0.05345070834232634,2.384960266334436,-0.1911849106062332,-0.4553916884533827,0,0,0,0,0,0,1500,1500,1500,1500,1500,1500
1747554682.4467206,-0.03,0.13,0.11,0.22143864884678055,-0.12871803233458182,-0.0818123086872342,2.431146423785792,-0.16972379173380986,-0.4597700702938666,0,0,4.063468,0,0,0,1500,1500,1500,1500,1460,1540
1747554682.5459614,-0.03,0.13,0.11,0.22143864884678055,-0.12871803233458182,-0.0818123086872342,2.431146423785792,-0.16972379173380986,-0.4597700702938666,0,0,7.5,0,0,0,1500,1500,1461,1500,1420,1580
1747554682.646028,-0.06,0.09,0.02,0.11344640137963143,-0.1090830782496456,-0.08072147790473774,2.454542655459967,-0.14681880862779617,-0.4617978877862803,0,0,7.5,0,0,0,1500,1500,1461,1500,1388,1597
1747554682.7294664,0.07,0.05,0.23,0.14944381720201447,-0.08290313946973066,-0.05999569303730508,2.4730207252065335,-0.12884447309204652,-0.4622678130205112,0,0,7.5,0,0,0,1500,1500,1461,1500,1388,1597
1747554682.8277743,0.07,0.05,0.23,0.14944381720201447,-0.08290313946973066,-0.05999569303730508,2.4730207252065335,-0.12884447309204652,-0.4622678130205112,0,0,7.5,0,0,0,1500,1500,1461,1500,1388,1597
1747554682.9282296,-0.1,0.11,0.36,0.12326387842209953,-0.07090400086226964,-0.037088246604879506,2.497538225561821,-0.11488327032317644,-0.4632864629117365,0,0,7.5,0,0,0,1500,1500,1461,1500,1388,1597
1747554683.0114584,-0.1,0.11,0.36,0.12326387842209953,-0.07090400086226964,-0.037088246604879506,2.497538225561821,-0.11488327032317644,-0.4632864629117365,0,0,7.5,0,0,0,1500,1500,1461,1500,1388,1597
1747554683.114359,0.07,-0.06,0.18,-0.09490227807719166,-0.05672320068981571,-0.020725784867432664,2.4969242534490217,-0.10488946542812479,-0.46519736912271836,0,0,7.5,0,0,0,1500,1500,1461,1500,1388,1597
1747554683.212131,0.0,-0.01,-0.15,-0.272707695624114,-0.032724923474893676,0.001090830782496456,2.4670492649901132,-0.09932549450208175,-0.46875197043996625,0,0,7.5,0,0,0,1500,1500,1461,1500,1388,1597
1747554683.3108265,0.0,-0.01,-0.15,-0.272707695624114,-0.032724923474893676,0.001090830782496456,2.4670492649901132,-0.09932549450208175,-0.46875197043996625,0,0,7.5,0,0,0,1500,1500,1461,1500,1388,1597
1747554683.4111195,-0.04,0.09,-0.15,-0.3916082509162277,-0.04036073895236887,-0.009817477042468103,2.414661887475048,-0.09451313582412114,-0.47266540217369957,0,0,7.5,0,0,0,1500,1500,1461,1500,1388,1597
1747554683.4949272,-0.04,0.09,-0.15,-0.3916082509162277,-0.04036073895236887,-0.009817477042468103,2.414661887475048,-0.09451313582412114,-0.47266540217369957,0,0,7.5,0,0,0,1500,1500,1461,1500,1388,1597
1747554683.5946205,0.04,0.11,-0.2,-0.4385139745635753,-0.032724923474893676,-0.025089107997418487,2.414661887475048,-0.09451313582412114,-0.47266540217369957,0,0,7.5,0,0,0,1500,1500,1461,1500,1388,1597
1747554683.6944203,-0.06,0.02,-0.18,-0.433059820651093,-0.008726646259971648,-0.02399827721492203,2.288026621637173,-0.08303370949154204,-0.47451454634740553,0,0,7.5,0,0,0,1500,1500,1461,1500,1388,1597
1747554683.7940457,-0.06,0.02,-0.18,-0.433059820651093,-0.008726646259971648,-0.02399827721492203,2.288026621637173,-0.08303370949154204,-0.47451454634740553,0,0,7.5,0,0,0,1500,1500,1461,1500,1388,1597
1747554683.8950446,-0.01,-0.01,-0.15,-0.4145156973486533,0.004363323129985824,-0.017453292519943295,2.2241847265496717,-0.08039903439268567,-0.4726138110172621,0,0,7.5,0,0,0,1500,1500,1461,1500,1388,1597
1747554683.9783273,-0.04,0.03,-0.15,-0.37960911230876665,0.019634954084936207,-0.01090830782496456,2.1638866982933,-0.08002694810546185,-0.4701763571518612,0,0,7.5,0,0,0,1500,1500,1461,1500,1388,1597
1747554684.0784218,-0.04,0.03,-0.15,-0.37960911230876665,0.019634954084936207,-0.01090830782496456,2.1638866982933,-0.08002694810546185,-0.4701763571518612,0,0,7.5,0,0,0,1500,1500,1461,1500,1388,1597
1747554684.1776023,0.05,-0.1,-0.09,-0.35561083509384467,0.038179077387375956,0.001090830782496456,2.1114766467031676,-0.08211581447716917,-0.4666278899634423,0,0,7.5,0,0,0,1500,1500,1461,1500,1388,1597
1747554684.2616975,0.05,-0.1,-0.09,-0.35561083509384467,0.038179077387375956,0.001090830782496456,2.1114766467031676,-0.08211581447716917,-0.4666278899634423,0,0,7.5,0,0,0,1500,1500,1461,1500,1388,1597
1747554684.3609335,0.0,-0.09,-0.17,-0.3119776037939864,0.04908738521234052,0.014180800172453928,2.0639115833970663,-0.08541849681838187,-0.4611149491309055,0,0,7.5,0,0,0,1500,1500,1461,1500,1388,1597
1747554684.4608984,-0.08,-0.11,-0.09,-0.27598018797160334,0.06217735460229799,0.019634954084936207,2.0195384463592063,-0.09143452782799094,-0.4544471164270786,0,0,7.5,0,0,0,1500,1500,1461,1500,1388,1597
1747554684.5613992,-0.08,-0.11,-0.09,-0.27598018797160334,0.06217735460229799,0.019634954084936207,2.0195384463592063,-0.09143452782799094,-0.4544471164270786,0,0,7.5,0,0,0,1500,1500,1461,1500,1388,1597
1747554684.661521,-0.03,-0.08,-0.12,-0.2454369260617026,0.08617563181722002,0.019634954084936207,1.9807932419161922,-0.09896546526877696,-0.4454241804160679,0,0,7.5,0,0,0,1500,1500,1461,1500,1388,1597
1747554684.7444673,-0.03,-0.08,-0.12,-0.2454369260617026,0.08617563181722002,0.019634954084936207,1.9807932419161922,-0.09896546526877696,-0.4454241804160679,0,0,7.5,0,0,0,1500,1500,1461,1500,1388,1597
1747554684.8446953,0.06,-0.08,-0.18,-0.2203478180642841,0.11562806294462433,0.015271630954950384,1.9452446375250554,-0.10731799814690338,-0.4317087022802066,0,0,7.5,0,0,0,1500,1500,1461,1500,1388,1597
1747554684.9449432,-0.01,-0.21,-0.1,-0.1832595714594046,0.12871803233458182,0.013089969389957472,1.9147905308107356,-0.11584451127196127,-0.4146016070664514,0,0,6.447368,0,0,0,1500,1500,1461,1500,1397,1590
1747554685.043907,-0.01,-0.21,-0.1,-0.1832595714594046,0.12871803233458182,0.013089969389957472,1.9147905308107356,-0.11584451127196127,-0.4146016070664514,0,0,0,0,0,0,1500,1500,1500,1500,1437,1550
1747554685.1442537,0.11,-0.06,-0.24,-0.16253378659197193,0.14180800172453928,0.016362461737446838,1.8890024765998976,-0.12434682321012036,-0.3968938703976061,0,0,0,0,0,-0.547533,1460,1540,1500,1500,1477,1510
1747554685.2342002,-0.01,-0.24,-0.32,-0.09053895494720585,0.14508049407202864,0.016362461737446838,1.873403882724764,-0.13382265893667575,-0.3768022559832426,0,0,0,0,0,-0.7,1420,1580,1500,1500,1500,1500
1747554685.3276858,-0.01,-0.24,-0.32,-0.09053895494720585,0.14508049407202864,0.016362461737446838,1.873403882724764,-0.13382265893667575,-0.3768022559832426,0,0,0,0,0,-0.7,1409,1580,1500,1500,1500,1500
1747554685.4286213,-0.18,0.04,-0.15,-0.0272707695624114,0.1439896632895322,0.002181661564992912,1.8702596407791732,-0.14150651378778561,-0.35874210926963346,0,0,0,0,0,-0.7,1409,1580,1500,1500,1500,1500
1747554685.5110989,-0.18,0.04,-0.15,-0.0272707695624114,0.1439896632895322,0.002181661564992912,1.8702596407791732,-0.14150651378778561,-0.35874210926963346,0,0,0,0,0,-0.7,1409,1580,1500,1500,1500,1500
1747554685.6109152,0.06,0.0,-0.23,-0.018544123302439753,0.11562806294462433,-0.18544123302439752,1.8683711778315568,-0.1356389936827849,-0.33668808278165835,0,0,0,0,0,-0.7,1409,1580,1500,1500,1500,1500
1747554685.7106135,0.02,0.05,-0.16,-0.05890486225480862,0.10471975511965978,-0.46469391334349025,1.859374333817464,-0.09255685341399736,-0.306311244581841,0,0,0,0,0,-0.7,1409,1580,1500,1500,1500,1500
1747554685.8111756,0.02,0.05,-0.16,-0.05890486225480862,0.10471975511965978,-0.46469391334349025,1.859374333817464,-0.09255685341399736,-0.306311244581841,0,0,0,0,0,-0.7,1409,1580,1500,1500,1500,1500
1747554685.9112175,-0.01,-0.06,0.01,-0.09381144729469522,0.0916297857297023,-0.6174102228929941,1.859374333817464,-0.09255685341399736,-0.306311244581841,0,0,0,0,0,-0.7,1409,1580,1500,1500,1500,1500
1747554685.9939177,-0.01,-0.06,0.01,-0.09381144729469522,0.0916297857297023,-0.6174102228929941,1.859374333817464,-0.09255685341399736,-0.306311244581841,0,0,0,0,0,-0.7,1409,1580,1500,1500,1500,1500
1747554686.0937858,-0.04,-0.17,-0.02,-0.14180800172453928,0.10253809355466686,-0.6883142237552637,1.8294485646222503,0.07965210743797346,-0.22687659825688716,0,0,0,0,0,-0.7,1409,1580,1500,1500,1500,1500
1747554686.1942666,0.03,-0.18,0.05,-0.16907877128695067,0.11999138607461016,-0.7188574856651645,1.811008220736458,0.181468386700549,-0.18232173187038195,0,0,0,0,0,-0.7,1409,1580,1500,1500,1500,1500
1747554686.277537,0.03,-0.18,0.05,-0.16907877128695067,0.11999138607461016,-0.7188574856651645,1.811008220736458,0.181468386700549,-0.18232173187038195,0,0,0,0,0,-0.7,1409,1580,1500,1500,1500,1500
1747554686.3779025,-0.08,-0.21,-0.03,-0.16144295580947549,0.1189005552921137,-0.7275841319251362,1.7960264268300568,0.2799576695221614,-0.14008542906541355,0,0.417127,0,0,0,-0.7,1412,1583,1500,1500,1500,1500
1747554686.4625397,-0.08,-0.21,-0.03,-0.16144295580947549,0.1189005552921137,-0.7275841319251362,1.7960264268300568,0.2799576695221614,-0.14008542906541355,0,10.145942,0,0,0,-0.084661,1452,1596,1540,1500,1500,1500
1747554686.562889,-0.07,-0.18,0.05,-0.14289883250703572,0.10253809355466686,-0.7123125009701857,1.7863893748110395,0.3851392558709652,-0.09685866275124458,0,12.5,0,0,0,0,1492,1607,1580,1500,1500,1500
1747554686.6614754,0.06,-0.31,0.03,-0.10362892433716332,0.037088246604879506,-0.6599526234103559,1.7829653990575067,0.48011792187984115,-0.06078704729466358,0,12.5,0,0,0,0,1532,1607,1593,1500,1500,1500
1747554686.7453258,0.06,-0.31,0.03,-0.10362892433716332,0.037088246604879506,-0.6599526234103559,1.7829653990575067,0.48011792187984115,-0.06078704729466358,0,12.5,0,0,0,0,1572,1607,1593,1500,1500,1500
1747554686.8446112,0.01,-0.25,0.24,-0.04581489286485115,-0.019634954084936207,-0.6152285613280012,1.7840607739730387,0.5754283296072141,-0.037674751251484666,0,12.5,0,0,0,0,1610,1607,1593,1500,1500,1500
1747554686.9386492,0.19,-0.41000000000000003,0.25,-0.055632369907319255,0.07090400086226964,-0.5846852994181004,1.793141410218207,0.6653699252355493,-0.010144692039751197,0,12.5,0,0,0,0,1610,1607,1593,1500,1500,1500
1747554687.0288339,0.19,-0.41000000000000003,0.25,-0.055632369907319255,0.07090400086226964,-0.5846852994181004,1.793141410218207,0.6653699252355493,-0.010144692039751197,0,12.5,0,0,0,0,1610,1607,1593,1500,1500,1500
1747554687.128369,0.56,-0.33,0.06,-0.015271630954950384,0.05781403147231216,-0.4308781590861001,1.8118733938974896,0.7368200107077671,0.026946607508352097,0,12.5,0,0,0,0,1610,1607,1593,1500,1500,1500
1747554687.2112813,0.56,-0.33,0.06,-0.015271630954950384,0.05781403147231216,-0.4308781590861001,1.8118733938974896,0.7368200107077671,0.026946607508352097,0,12.5,0,0,0,0,1610,1607,1593,1500,1500,1500
1747554687.3107014,0.21,-0.37,1.56,0.04363323129985824,-0.002181661564992912,-0.1407171709420428,1.8266634186376873,0.7774041049967072,0.04589920817723862,0,12.5,0,0,0,0,1610,1607,1593,1500,1500,1500
1747554687.4107587,0.19,-0.26,0.22,0.0916297857297023,-0.02181661564992912,-0.002181661564992912,1.8342992536650318,0.7886830040942054,0.04417289400835678,0,12.5,0,0,0,0,1610,1607,1593,1500,1500,1500
1747554687.4946072,0.19,-0.26,0.22,0.0916297857297023,-0.02181661564992912,-0.002181661564992912,1.8342992536650318,0.7886830040942054,0.04417289400835678,0,12.5,0,0,0,0,1610,1607,1593,1500,1500,1500
1747554687.5948071,0.13,-0.17,0.23,0.12544553998709243,-0.028361600344907856,0.08290313946973066,1.842267894136466,0.7846097103708124,0.034075731386719696,0,12.5,0,0,0,0,1610,1607,1593,1500,1500,1500
1747554687.6942012,0.13,-0.17,0.23,0.12544553998709243,-0.028361600344907856,0.08290313946973066,1.842267894136466,0.7846097103708124,0.034075731386719696,0,12.5,0,0,0,0,1610,1607,1593,1500,1500,1500
1747554687.779706,0.06,-0.15,0.24,0.12871803233458182,-0.014180800172453928,0.11999138607461016,1.852582525302367,0.7709053705977484,0.02146198076195853,0,12.5,0,0,0,0,1610,1607,1593,1500,1500,1500
1747554687.8786066,0.06,-0.15,0.24,0.12871803233458182,-0.014180800172453928,0.11999138607461016,1.852582525302367,0.7709053705977484,0.02146198076195853,0,12.5,0,0,0,0,1610,1607,1593,1500,1500,1500
1747554687.9783256,0.1,-0.1,0.3,0.12108221685710661,-0.020725784867432664,0.13744467859455345,1.8613712289568873,0.7540926235791898,0.00902212159072938,0,12.5,0,0,0,0,1610,1607,1593,1500,1500,1500
1747554688.0775666,-0.19,0.02,0.16,0.1439896632895322,-0.017453292519943295,0.1505346479845109,1.8713305681438481,0.7334554480176538,-0.004603677008679289,0,12.5,0,0,0,0,1610,1607,1593,1500,1500,1500
1747554688.178379,-0.19,0.02,0.16,0.1439896632895322,-0.017453292519943295,0.1505346479845109,1.8713305681438481,0.7334554480176538,-0.004603677008679289,0,12.5,0,0,0,0,1610,1607,1593,1500,1500,1500
1747554688.2614067,-0.16,-0.01,0.11,0.1908953869368798,-0.02181661564992912,0.14944381720201447,1.8864125664741904,0.7135148128517672,-0.019579816653258378,0,12.5,0,0,0,0,1610,1607,1593,1500,1500,1500
1747554688.3567586,-0.09,0.05,0.27,0.20725784867432664,-0.020725784867432664,0.15707963267948966,1.9055013370838125,0.6942118065035122,-0.03678548436101848,0,12.5,0,0,0,0,1610,1607,1593,1500,1500,1500
1747554688.4610622,-0.09,0.05,0.27,0.20725784867432664,-0.020725784867432664,0.15707963267948966,1.9055013370838125,0.6942118065035122,-0.03678548436101848,0,12.5,0,0,0,0,1610,1607,1593,1500,1500,1500
1747554688.5607388,-0.11,0.04,0.15,0.17453292519943295,-0.031634092692397225,0.14944381720201447,1.9222201371760943,0.674913672789689,-0.05428368506915531,0,12.5,0,0,0,0,1610,1607,1593,1500,1500,1500
1747554688.661403,-0.11,0.04,0.15,0.17453292519943295,-0.031634092692397225,0.14944381720201447,1.9222201371760943,0.674913672789689,-0.05428368506915531,0,12.5,0,0,0,0,1610,1607,1593,1500,1500,1500
1747554688.7443688,-0.06,0.03,0.17,0.15817046346198613,-0.04908738521234052,0.1407171709420428,1.9332179929009432,0.6582608239637726,-0.07233589134436266,0,12.5,0,0,0,0,1610,1607,1593,1500,1500,1500
1747554688.8443687,-0.12,0.04,0.14,0.17780541754692233,-0.08508480103472356,0.1461713248545251,1.9435602279984696,0.6423052045190107,-0.09624653698676047,0,12.5,0,0,0,0,1610,1607,1593,1500,1500,1500
1747554688.9445522,-0.12,0.04,0.14,0.17780541754692233,-0.08508480103472356,0.1461713248545251,1.9435602279984696,0.6423052045190107,-0.09624653698676047,0,12.5,0,0,0,0,1610,1607,1593,1500,1500,1500
1747554689.0283737,-0.09,0.13,0.22,0.22143864884678055,-0.1265363707695889,0.14508049407202864,1.955302370686627,0.6291859993435762,-0.12445699771748991,0,12.5,0,0,0,0,1610,1607,1593,1500,1500,1500
1747554689.12696,-0.05,0.11,0.11,0.2301652951067522,-0.15489797111449674,0.1407171709420428,1.967556001274288,0.6185530847907137,-0.15846764696138144,0,12.5,0,0,0,0.008221,1610,1607,1593,1500,1500,1500
1747554689.2287452,-0.05,0.11,0.11,0.2301652951067522,-0.15489797111449674,0.1407171709420428,1.967556001274288,0.6185530847907137,-0.15846764696138144,-3,0,0,0,0,0,1570,1567,1553,1460,1460,1460
1747554689.3278446,-0.02,0.12,0.12,0.23343778745424157,-0.1636246173744684,0.13853550937704992,1.979983568143064,0.6085608625742992,-0.19720192919672835,-3,0,0,0,0,0,1530,1567,1513,1420,1426,1426
1747554689.427804,-0.02,0.12,0.12,0.23343778745424157,-0.1636246173744684,0.13853550937704992,1.979983568143064,0.6085608625742992,-0.19720192919672835,-3,0,0,0,0,0,1490,1567,1500,1402,1426,1426
1747554689.5115237,-0.5,0.09,0.06,0.20398535632683726,-0.19744037163185854,0.12544553998709243,1.9899897029002378,0.6002610765751575,-0.23954934015228385,-3,0,0,0,0,0,1450,1567,1500,1402,1426,1426
1747554689.6112747,-0.62,0.22,0.13,0.06763150851478027,-0.2203478180642841,0.06654067773228381,1.9852170471565245,0.6061546356469504,-0.28418092027121705,-3,0,0,0,0,0,1424,1567,1500,1402,1426,1426
1747554689.7116957,-0.62,0.22,0.13,0.06763150851478027,-0.2203478180642841,0.06654067773228381,1.9852170471565245,0.6061546356469504,-0.28418092027121705,-3,0,0,0,0,0,1424,1567,1500,1402,1426,1426
1747554689.8111606,-0.16,0.04,0.07,-0.013089969389957472,-0.24434609527920614,0.014180800172453928,1.9628447783993215,0.6140990361143909,-0.32525061014921236,-3,0,0,0,0,0,1424,1567,1500,1402,1426,1426
1747554689.9115577,-0.16,0.04,0.07,-0.013089969389957472,-0.24434609527920614,0.014180800172453928,1.9628447783993215,0.6140990361143909,-0.32525061014921236,-3,0,0,0,0,0,1424,1567,1500,1402,1426,1426
1747554689.9949603,-0.23,0.11,0.07,-0.03381575425739013,-0.26070855701665296,-0.022907446432425576,1.9330768856545069,0.6301588092798301,-0.3705108453298003,-3,0,0,0,0,0,1424,1567,1500,1402,1426,1426
1747554690.0948527,-0.12,0.11,0.15,-0.0818123086872342,-0.26070855701665296,-0.06217735460229799,1.8974983392357414,0.6501604668483789,-0.4144152505012702,-3,0,0,0,0,0,1424,1567,1500,1402,1426,1426
1747554690.1952918,-0.12,0.11,0.15,-0.0818123086872342,-0.26070855701665296,-0.06217735460229799,1.8974983392357414,0.6501604668483789,-0.4144152505012702,-3,0,0,0,0,0,1424,1567,1500,1402,1426,1426
1747554690.2947211,0.05,0.14,0.02,-0.10362892433716332,-0.2650718801466388,-0.08399397025222712,1.8575442135925582,0.6717231251361422,-0.45689487079286883,-3,0,0,0,0,0,1424,1567,1500,1402,1426,1426
1747554690.3905494,0.15,0.17,0.03,-0.08835729338221293,-0.25416357232167425,-0.11562806294462433,1.813209169656686,0.6972473036984453,-0.502399101287783,-3,0,0,0,0,0,1424,1567,1500,1402,1426,1426
1747554690.4771914,0.15,0.17,0.03,-0.08835729338221293,-0.25416357232167425,-0.11562806294462433,1.813209169656686,0.6972473036984453,-0.502399101287783,-3,0,0,0,0,0,1424,1567,1500,1402,1426,1426
1747554690.5782351,0.0,0.16,0.01,-0.0916297857297023,-0.24107360293171676,-0.14508049407202864,1.7698267866320427,0.7240419388313956,-0.546805754956369,-3,0,0,0,0,0,1424,1567,1500,1402,1426,1426
1747554690.6796615,0.0,0.16,0.01,-0.0916297857297023,-0.24107360293171676,-0.14508049407202864,1.7698267866320427,0.7240419388313956,-0.546805754956369,-3,0,0,0,0,0,1424,1567,1500,1402,1426,1426
1747554690.77823,0.04,0.11,0.0,-0.08944812416470939,-0.22143864884678055,-0.17780541754692233,1.7295061609538944,0.7512947429582988,-0.5866043753352115,-3,0,0,0,0,0,1424,1567,1500,1402,1426,1426
1747554690.8783872,0.15,0.17,0.09,-0.09599310885968812,-0.2007128639793479,-0.21598449493429828,1.6872352594164188,0.7839486387876986,-0.6262317480842254,-3,0,0,0,0,0,1424,1567,1500,1402,1426,1426
1747554690.9632678,0.15,0.17,0.09,-0.09599310885968812,-0.2007128639793479,-0.21598449493429828,1.6872352594164188,0.7839486387876986,-0.6262317480842254,-3,0,0,0,0,0,1424,1567,1500,1402,1426,1426
1747554691.0645583,0.09,0.08,0.05,-0.10581058590215622,-0.17016960206944712,-0.2476185876266955,1.6439333413712127,0.820380533545788,-0.6631351864682045,-3,0,0,0,0,0,1424,1567,1500,1402,1426,1426
1747554691.1630192,0.09,0.08,0.05,-0.10581058590215622,-0.17016960206944712,-0.2476185876266955,1.6439333413712127,0.820380533545788,-0.6631351864682045,-3,0,0,0,0,0,1424,1567,1500,1402,1426,1426
1747554691.244535,0.13,0.19,0.03,-0.11235557059713497,-0.15926129424448257,-0.27052603405912107,1.6020177451675126,0.8569935746183529,-0.6976898669365158,-3,0,0,0,0,0,1424,1567,1500,1402,1426,1426
1747554691.3454363,0.1,0.11,0.05,-0.11126473981463851,-0.14944381720201447,-0.2923426497090502,1.5552526394802735,0.8977349500925517,-0.7352072774792755,-3,0,0,0,0,0,1424,1567,1500,1402,1426,1426
1747554691.4450536,0.1,0.11,0.05,-0.11126473981463851,-0.14944381720201447,-0.2923426497090502,1.5552526394802735,0.8977349500925517,-0.7352072774792755,-3,0,0,0,0,0,1424,1567,1500,1402,1426,1426
1747554691.544767,0.16,0.17,0.07,-0.11780972450961724,-0.13308135546456762,-0.3174317577064687,1.5086777692663393,0.9385373225335327,-0.772858934296582,-3,0,0,0,0,0,1424,1567,1500,1402,1426,1426
1747554691.6395123,0.06,0.1,0.09,-0.11344640137963143,-0.13853550937704992,-0.346884188833873,1.452357279419911,0.9847633059850993,-0.8191293942837637,-3,0,0,0,0,0,1424,1567,1500,1402,1426,1426
1747554691.7283823,0.06,0.1,0.09,-0.11344640137963143,-0.13853550937704992,-0.346884188833873,1.452357279419911,0.9847633059850993,-0.8191293942837637,-3,0,0,0,0,0,1424,1567,1500,1402,1426,1426
1747554691.8276794,0.07,0.2,0.05,-0.10581058590215622,-0.1308996938995747,-0.35997415822383044,1.387232689279781,1.0333664145599144,-0.8748619400636557,-3,0,0,0,0,0,1424,1567,1500,1402,1426,1426
1747554691.92779,0.07,0.2,0.05,-0.10581058590215622,-0.1308996938995747,-0.35997415822383044,1.387232689279781,1.0333664145599144,-0.8748619400636557,-3,0,0,0,0,0,1424,1567,1500,1402,1426,1426
1747554692.012346,-0.12,0.11,0.23,-0.09053895494720585,-0.1308996938995747,-0.3752457891787809,1.3131496873507207,1.0817514939181316,-0.9419951838304648,-3,0,0,0,0,0,1424,1567,1500,1402,1426,1426
1747554692.110762,0.0,0.24,0.12,-0.07417649320975901,-0.11017390903214205,-0.37306412761378793,1.2352917610292455,1.1263233368419545,-1.0155363334494072,-3,0,0,0,0,0,1424,1567,1500,1402,1426,1426
1747554692.21226,0.0,0.24,0.12,-0.07417649320975901,-0.11017390903214205,-0.37306412761378793,1.2352917610292455,1.1263233368419545,-1.0155363334494072,-3,0,0,0,0,0,1424,1567,1500,1402,1426,1426
1747554692.3112137,-0.04,0.24,0.18,-0.06326818538479445,-0.10253809355466686,-0.37306412761378793,1.1416324755496248,1.1713207134047738,-1.1068364124571122,-3,0,0,0,0,0,1424,1567,1500,1402,1426,1426
1747554692.4109056,-0.04,0.24,0.18,-0.06326818538479445,-0.10253809355466686,-0.37306412761378793,1.1416324755496248,1.1713207134047738,-1.1068364124571122,-3,0,0,0,0,0,1424,1567,1500,1402,1426,1426
1747554692.4945037,-0.04,0.19,0.12,-0.07308566242726255,-0.0818123086872342,-0.37306412761378793,1.0300154087186215,1.2119006561466081,-1.2146064063940953,-3,0,0,0,0,0,1424,1567,1500,1402,1426,1426
1747554692.5883963,-0.12,0.23,0.16,-0.061086523819801536,-0.07744898555724837,-0.3643374813538163,0.9084860191570578,1.2462081940015755,-1.3334687966039227,-3,0,0,0,0,0,1424,1567,1500,1402,1426,1426
1747554692.694457,-0.12,0.23,0.16,-0.061086523819801536,-0.07744898555724837,-0.3643374813538163,0.9084860191570578,1.2462081940015755,-1.3334687966039227,-3,0,0,0,0,0,1424,1567,1500,1402,1426,1426
1747554692.7784224,-0.14,0.17,0.19,-0.06217735460229799,-0.055632369907319255,-0.3567016658763411,0.7569132828993118,1.2773890055585069,-1.4820353487498423,-3,0,0,0,0,0,1424,1567,1500,1402,1426,1426
1747554692.8783255,-0.14,0.17,0.19,-0.06217735460229799,-0.055632369907319255,-0.3567016658763411,0.7569132828993118,1.2773890055585069,-1.4820353487498423,-3,0,0,0,0,0,1424,1567,1500,1402,1426,1426
1747554692.9781108,-0.13,0.13,0.09,-0.06326818538479445,-0.03490658503988659,-0.35452000431134817,0.597344454947374,1.3014085381476037,-1.6385332274760853,-3,0,0,0,0,0,1424,1567,1500,1402,1426,1426
1747554693.0774372,-0.02,0.17,0.16,-0.05235987755982989,-0.007635815477475192,-0.3392483733563978,0.4098650392133343,1.3217908896024602,-1.8235904487449168,-3,0,0,0,0,0,1424,1567,1500,1402,1426,1426
1747554693.1777396,-0.02,0.17,0.16,-0.05235987755982989,-0.007635815477475192,-0.3392483733563978,0.4098650392133343,1.3217908896024602,-1.8235904487449168,-3,0,0,0,0,0,1424,1567,1500,1402,1426,1426
1747554693.261126,-0.13,0.21,0.09,-0.04363323129985824,0.014180800172453928,-0.32288591161895097,0.21471674833688706,1.3349920453849689,-2.0179647851130302,-3,0,0,0,0,0,1424,1567,1500,1402,1426,1426
1747554693.3615193,-0.13,0.21,0.09,-0.04363323129985824,0.014180800172453928,-0.32288591161895097,0.21471674833688706,1.3349920453849689,-2.0179647851130302,-3,0,0,0,0,0,1424,1567,1500,1402,1426,1426
1747554693.4612496,-0.16,0.22,0.12,-0.055632369907319255,0.032724923474893676,-0.2945243112740431,0.02219033461423173,1.3413430233294332,-2.2090859487500394,-3,0,0,0,0,0,1424,1567,1500,1402,1426,1426
1747554693.5608141,-0.12,0.2,0.23,-0.06435901616729091,0.050178215994836975,-0.272707695624114,-0.1547162955784781,1.3427375545581983,-2.381955217396299,-3,0,0,0,0,0,1424,1567,1500,1402,1426,1426
1747554693.6613667,-0.12,0.2,0.23,-0.06435901616729091,0.050178215994836975,-0.272707695624114,-0.1547162955784781,1.3427375545581983,-2.381955217396299,-3,0,0,0,0,0,1424,1567,1500,1402,1426,1426
1747554693.7441456,-0.19,0.15,0.19,-0.06544984694978735,0.06326818538479445,-0.25634523388666713,-0.33170542649789475,1.3407205393289479,-2.553545726912797,-3,0,0,0,0,0,1424,1567,1500,1402,1426,1426
1747554693.8452318,-0.26,0.12,0.28,-0.05126904677733343,0.09381144729469522,-0.22689280275926285,-0.4825564856446027,1.3363844952223136,-2.699577723565382,-3,0,0,0,0,0,1424,1567,1500,1402,1426,1426
1747554693.944061,-0.26,0.12,0.28,-0.05126904677733343,0.09381144729469522,-0.22689280275926285,-0.4825564856446027,1.3363844952223136,-2.699577723565382,-3,0,0,0,0,0,1424,1567,1500,1402,1426,1426
1747554694.0270283,-0.2,0.18,0.18,-0.05126904677733343,0.10799224746714914,-0.20616701789183017,-0.6275722155525543,1.331634710532817,-2.8417694806780287,-3,0,0,0,0,0,1424,1567,1500,1402,1426,1426
1747554694.1276228,-0.2,0.18,0.18,-0.05126904677733343,0.10799224746714914,-0.20616701789183017,-0.6275722155525543,1.331634710532817,-2.8417694806780287,-3,0,0,0,0,0,1424,1567,1500,1402,1426,1426
1747554694.2278275,-0.19,0.19,0.21,-0.055632369907319255,0.13853550937704992,-0.19198621771937624,-0.7580858914586871,1.3262397929038405,-2.968978457051069,-3,0,0,0,0,0,1424,1567,1500,1402,1426,1426
1747554694.32721,-0.11,0.23,0.23,-0.04690572364734761,0.16253378659197193,-0.17889624832941878,-0.8963494926313639,1.321374501395403,-3.104214112958362,-3,0,0,0,0,0,1424,1567,1500,1402,1426,1426
1747554694.4276454,-0.11,0.23,0.23,-0.04690572364734761,0.16253378659197193,-0.17889624832941878,-0.8963494926313639,1.321374501395403,-3.104214112958362,-3,0,0,0,0,0,1424,1567,1500,1402,1426,1426
1747554694.5113,-0.02,0.21,0.14,-0.06544984694978735,0.18653206380689397,-0.16907877128695067,-1.0323819859157704,1.3154261357137527,3.0465713013896694,-3,0,0,0,0,0,1424,1567,1500,1402,1426,1426
1747554694.6120114,-0.02,0.21,0.14,-0.06544984694978735,0.18653206380689397,-0.16907877128695067,-1.0323819859157704,1.3154261357137527,3.0465713013896694,-3,0,0,0,0,0,1424,1567,1500,1402,1426,1426
1747554694.7113714,-0.08,0.15,0.18,-0.0545415391248228,0.210530341021816,-0.15162547876700738,-1.1726206495008975,1.307708577476829,2.910069511526269,-3,0,0,0,0,0,1424,1567,1500,1402,1426,1426
1747554694.8108613,-0.15,0.2,0.17,-0.05672320068981571,0.22471114119426994,-0.13199052468207118,-1.3111488049378333,1.299438320041625,2.7749912103285297,-3,0,0,0,0,0,1424,1567,1500,1402,1426,1426
1747554694.9112415,-0.15,0.2,0.17,-0.05672320068981571,0.22471114119426994,-0.13199052468207118,-1.3111488049378333,1.299438320041625,2.7749912103285297,-3,0,0,0,0,0,1424,1567,1500,1402,1426,1426
1747554694.9943633,-0.11,0.08,0.2,-0.05781403147231216,0.24216443371421323,-0.09926560120717749,-1.440767312681345,1.2914533564775552,2.649339467126933,-3,0,0,0,0,0,1424,1567,1500,1402,1426,1426
1747554695.0947602,-0.2,0.14,0.19,-0.06544984694978735,0.25743606466916363,-0.07090400086226964,-1.574746970809274,1.2821260576094275,2.5186987675076193,-3,0,0,0,0,0,1424,1567,1500,1402,1426,1426
1747554695.194883,-0.2,0.14,0.19,-0.06544984694978735,0.25743606466916363,-0.07090400086226964,-1.574746970809274,1.2821260576094275,2.5186987675076193,-3,0,0,0,0,0,1424,1567,1500,1402,1426,1426
1747554695.2952116,-0.17,0.14,0.26,-0.05999569303730508,0.27052603405912107,-0.05235987755982989,-1.7004115773173845,1.27297582089957,2.396468073519971,-3,0,0,0,0,0,1424,1567,1500,1402,1426,1426
1747554695.3935604,-0.17,0.14,0.26,-0.05999569303730508,0.27052603405912107,-0.05235987755982989,-1.7004115773173845,1.27297582089957,2.396468073519971,-3,0,0,0,0,0,1424,1567,1500,1402,1426,1426
1747554695.4786384,-0.13,0.11,0.26,-0.06654067773228381,0.2945243112740431,-0.03490658503988659,-1.8318632976867386,1.2618072439454266,2.267665726866649,-3,0,0,0,0,0,1424,1567,1500,1402,1426,1426
1747554695.5798786,-0.14,0.21,0.25,-0.06872233929727672,0.29343348049154666,-0.016362461737446838,-1.9594542864849878,1.2464939394400036,2.143209779891346,-3,0,0,0,0,0,1424,1567,1500,1402,1426,1426
1747554695.6794863,-0.14,0.21,0.25,-0.06872233929727672,0.29343348049154666,-0.016362461737446838,-1.9594542864849878,1.2464939394400036,2.143209779891346,-3,0,0,0,0,0,1424,1567,1500,1402,1426,1426
1747554695.7771761,-0.15,0.15,0.25,-0.07308566242726255,0.30543261909900765,-0.014180800172453928,-2.0819201082103707,1.2274215412655045,2.024788263145937,-3,0,0,0,0,0,1424,1567,1500,1402,1426,1426
1747554695.8787684,-0.18,0.09,0.22,-0.08399397025222712,0.31525009614147576,-0.015271630954950384,-2.1873716918017747,1.205317240535967,1.9240035377221918,-3,0,0,0,0,0,1424,1567,1500,1402,1426,1426
1747554695.9776022,-0.18,0.09,0.22,-0.08399397025222712,0.31525009614147576,-0.015271630954950384,-2.1873716918017747,1.205317240535967,1.9240035377221918,-3,0,0,0,0,0,1424,1567,1500,1402,1426,1426
1747554696.077808,-0.13,0.03,0.27,-0.0916297857297023,0.32288591161895097,-0.013089969389957472,-2.2923917622778904,1.176774668562159,1.8249863001749358,-3,0,0,0,0,0,1424,1567,1500,1402,1426,1426
1747554696.1775231,-0.13,0.03,0.27,-0.0916297857297023,0.32288591161895097,-0.013089969389957472,-2.2923917622778904,1.176774668562159,1.8249863001749358,-3,0,0,0,0,0,1424,1567,1500,1402,1426,1426
1747554696.2611392,-0.18,0.16,0.17,-0.11017390903214205,0.32834006553143325,-0.008726646259971648,-2.3831059115159707,1.1460625044764394,1.7421645189715542,-3,0,0,0,0,0,1424,1567,1500,1402,1426,1426
1747554696.360767,-0.21,0.01,0.19,-0.12980886311707826,0.34033920413889424,-0.001090830782496456,-2.471657615226703,1.1100035259893182,1.664807458010102,-3,0,0,0,0,0,1424,1567,1500,1402,1426,1426
1747554696.4604838,-0.21,0.01,0.19,-0.12980886311707826,0.34033920413889424,-0.001090830782496456,-2.471657615226703,1.1100035259893182,1.664807458010102,-3,0,0,0,0,0,1424,1567,1500,1402,1426,1426
1747554696.5611,-0.21,0.0,0.18,-0.15489797111449674,0.35561083509384467,-0.006544984694978736,-2.548070305289054,1.0722856810287638,1.6012105854601828,-3,0,0,0,0,0,1424,1567,1500,1402,1426,1426
1747554696.658342,-0.2,0.08,0.19,-0.18980455615438332,0.34579335805137656,-0.009817477042468103,-2.623115828765437,1.029609354270763,1.5452826684623115,-3,0,0,0,0,0,1424,1567,1500,1402,1426,1426
1747554696.7448819,-0.2,0.08,0.19,-0.18980455615438332,0.34579335805137656,-0.009817477042468103,-2.623115828765437,1.029609354270763,1.5452826684623115,-3,0,0,0,0,0,1424,1567,1500,1402,1426,1426
1747554696.8439415,-0.28,0.0,0.09,-0.22252947962927702,0.3370667117914049,-0.014180800172453928,-2.691506167217018,0.985277889698154,1.5017938202243732,-3,0,0,0,0,0,1424,1567,1500,1402,1426,1426
1747554696.944616,-0.28,0.0,0.09,-0.22252947962927702,0.3370667117914049,-0.014180800172453928,-2.691506167217018,0.985277889698154,1.5017938202243732,-3,0,0,0,0,0,1424,1567,1500,1402,1426,1426
1747554697.0448763,-0.25,0.03,0.04,-0.2617993877991494,0.33161255787892263,-0.009817477042468103,-2.7551017036214556,0.9394288809384512,1.4687184239106472,-3,0,0,0,0,0,1424,1567,1500,1402,1426,1426
1747554697.1439714,-0.27,0.03,0.02,-0.30325095753401476,0.3239767424014474,-0.015271630954950384,-2.8150242176677915,0.8962853239457271,1.4448712596841748,-3,0,0,0,0,0,1424,1567,1500,1402,1426,1426
1747554697.2275229,-0.27,0.03,0.02,-0.30325095753401476,0.3239767424014474,-0.015271630954950384,-2.8150242176677915,0.8962853239457271,1.4448712596841748,-3,0,0,0,0,0,1424,1567,1500,1402,1426,1426
1747554697.327193,-0.22,-0.01,0.04,-0.346884188833873,0.32615840396644036,-0.013089969389957472,-2.880571096311108,0.8510155055220489,1.4248850343430786,-3,0,0,0,0,0,1424,1567,1500,1402,1426,1426
1747554697.4270859,-0.22,-0.01,0.04,-0.346884188833873,0.32615840396644036,-0.013089969389957472,-2.880571096311108,0.8510155055220489,1.4248850343430786,-3,0,0,0,0,0,1424,1567,1500,1402,1426,1426
1747554697.5110912,-0.33,-0.02,-0.03,-0.3741549583962844,0.3097959422289935,-0.011999138607461015,-2.9415404841417003,0.8089313123361321,1.412443489213962,-3,0,0,0,0,0,1424,1567,1500,1402,1426,1426
1747554697.6107764,-0.3,-0.05,0.11,-0.4014257279586958,0.2977968036215325,-0.019634954084936207,-3.005989723594008,0.7646611816893047,1.4056519402445578,-3,0,0,0,0,0,1424,1567,1500,1402,1426,1426
1747554697.7122478,-0.3,-0.05,0.11,-0.4014257279586958,0.2977968036215325,-0.019634954084936207,-3.005989723594008,0.7646611816893047,1.4056519402445578,-3,0,0,0,0,0,1424,1567,1500,1402,1426,1426
1747554697.810689,-0.24,0.03,-0.04,-0.43196898986859655,0.2814343418840856,-0.02945243112740431,-3.0658964765093444,0.7248138505234047,1.405383191374925,-3,0,0,0,0,0,1424,1567,1500,1402,1426,1426
1747554697.9117253,-0.24,0.03,-0.04,-0.43196898986859655,0.2814343418840856,-0.02945243112740431,-3.0658964765093444,0.7248138505234047,1.405383191374925,-3,0,0,0,0,0,1424,1567,1500,1402,1426,1426
1747554697.9943528,-0.22,0.0,-0.07,-0.4603305902135044,0.2694352032766246,-0.04581489286485115,-3.1300539420535713,0.6844560592918271,1.411810118310465,-3,0,0,0,0,0,1424,1567,1500,1402,1426,1426
1747554698.0938041,-0.21,-0.03,0.03,-0.48323803664593,0.2650718801466388,-0.05345070834232634,3.088028472620822,0.6460553652447752,1.423548627864702,-3,0,0,0,0,0,1424,1567,1500,1402,1426,1426
1747554698.1944532,-0.21,-0.03,0.03,-0.48323803664593,0.2650718801466388,-0.05345070834232634,3.088028472620822,0.6460553652447752,1.423548627864702,-3,0,0,0,0,0,1424,1567,1500,1402,1426,1426
1747554698.2777543,-0.18,-0.05,-0.15,-0.5050546522958591,0.2650718801466388,-0.0545415391248228,3.0216171288758824,0.6084023559870941,1.4394763499926617,-3,0,0,0,0,0,1424,1567,1500,1402,1426,1426
1747554698.377972,-0.18,-0.05,-0.15,-0.5050546522958591,0.2650718801466388,-0.0545415391248228,3.0216171288758824,0.6084023559870941,1.4394763499926617,-3,0,0,0,0,0,1424,1567,1500,1402,1426,1426
1747554698.4780688,-0.13,-0.09,-0.02,-0.5257804371632918,0.2552544031041707,-0.0545415391248228,2.95349967827825,0.573081982748433,1.4581986941497231,-3,0,0,0,0,0,1424,1567,1500,1402,1426,1426
1747554698.5773063,-0.29,-0.08,-0.16,-0.5388704065532492,0.2476185876266955,-0.055632369907319255,2.887053554819833,0.5420253700392201,1.477619680288073,-3,0,0,0,0,0,1424,1567,1500,1402,1426,1426
1747554698.6799018,-0.29,-0.08,-0.16,-0.5388704065532492,0.2476185876266955,-0.055632369907319255,2.887053554819833,0.5420253700392201,1.477619680288073,-3,0,0,0,0,0,1424,1567,1500,1402,1426,1426
1747554698.778287,-0.23,-0.13,-0.06,-0.5312345910757741,0.23671027980173096,-0.05345070834232634,2.8171102137880584,0.5111336153508464,1.500572181744863,0,0,0,0,0,0,1464,1527,1500,1442,1466,1466
1747554698.8798008,-0.26,-0.09,-0.17,-0.5159629601208237,0.21707532571679475,-0.05345070834232634,2.753228885976527,0.4855757127673634,1.5229223004469592,0,0,0,0,0,0,1500,1500,1500,1482,1500,1500
1747554698.9616346,-0.26,-0.09,-0.17,-0.5159629601208237,0.21707532571679475,-0.05345070834232634,2.753228885976527,0.4855757127673634,1.5229223004469592,3,0,0,0,0,0,1540,1460,1500,1522,1540,1540
1747554699.062141,-0.08,-0.11,-0.15,-0.4243331743911214,0.22362031041177347,0.03490658503988659,2.6908490101649734,0.45691875014295735,1.5419868165572512,3,0,0,0,0,0,1567,1424,1500,1562,1566,1566
1747554699.161306,-0.08,-0.11,-0.15,-0.4243331743911214,0.22362031041177347,0.03490658503988659,2.6908490101649734,0.45691875014295735,1.5419868165572512,3,0,0,0,0,0,1567,1424,1500,1587,1566,1566
1747554699.2453191,0.02,-0.28,-0.44,-0.3643374813538163,0.21925698728178766,0.13308135546456762,2.6314996723572692,0.4208152133733618,1.5485797927265754,3,0,0,0,0,0,1567,1424,1500,1587,1566,1566
1747554699.3450792,-0.44,0.07,-0.05,-0.1505346479845109,0.19853120241435498,0.3196134192714616,2.59209340406411,0.377913673645678,1.5336074515939395,3,0,0,0,0,0,1567,1424,1500,1587,1566,1566
1747554699.4441953,-0.44,0.07,-0.05,-0.1505346479845109,0.19853120241435498,0.3196134192714616,2.59209340406411,0.377913673645678,1.5336074515939395,3,0,0,0,0,0,1567,1424,1500,1587,1566,1566
1747554699.5283937,-0.25,0.04,-0.06,-0.13199052468207118,0.2279836335417593,0.43960480534607177,2.563310550521789,0.3239148761229037,1.500839250605223,3,0,0,0,0,0,1567,1424,1500,1587,1566,1566
1747554699.6294918,-0.25,0.04,-0.06,-0.13199052468207118,0.2279836335417593,0.43960480534607177,2.563310550521789,0.3239148761229037,1.500839250605223,3,0,0,0,0,0,1567,1424,1500,1587,1566,1566
1747554699.728328,-0.15,0.03,-0.14,-0.11999138607461016,0.24652775684419906,0.4908738521234052,2.5309520064679356,0.2547236447121348,1.4597401263512177,3,0,0,0,0,0,1567,1424,1500,1587,1566,1566
1747554699.8297193,-0.26,0.11,-0.13,-0.09708393964218458,0.2617993877991494,0.5159629601208237,2.507809382639504,0.18411857456338157,1.4205636300130056,3,0,0,0,0,0,1567,1424,1500,1587,1566,1566
1747554699.927192,-0.26,0.11,-0.13,-0.09708393964218458,0.2617993877991494,0.5159629601208237,2.507809382639504,0.18411857456338157,1.4205636300130056,3,0,0,0,0,0,1567,1424,1500,1587,1566,1566
1747554700.0111566,-0.27,0.08,-0.18,-0.13199052468207118,0.25634523388666713,0.5235987755982988,2.4844028030597345,0.10601162441896085,1.3790979870025,3,0,0,0,0,0,1567,1424,1500,1587,1566,1566
1747554700.1103199,-0.14,0.12,-0.27,-0.16580627893946132,0.2552544031041707,0.519235452468313,2.4608627699875516,0.032255602436063666,1.342756539526077,3,0,0,0,0,0,1567,1424,1500,1587,1566,1566
1747554700.210869,-0.14,0.12,-0.27,-0.16580627893946132,0.2552544031041707,0.519235452468313,2.4608627699875516,0.032255602436063666,1.342756539526077,3,0,0,0,0,0,1567,1424,1500,1587,1566,1566
1747554700.31123,-0.14,0.08,-0.15,-0.17235126363444003,0.2399827721492203,0.5159629601208237,2.435860281162557,-0.04491899340294729,1.3053618980428894,3,0,0,0,0,0,1567,1424,1500,1587,1566,1566
1747554700.411684,-0.14,0.08,-0.15,-0.17235126363444003,0.2399827721492203,0.5159629601208237,2.435860281162557,-0.04491899340294729,1.3053618980428894,3,0,0,0,0,0,1567,1424,1500,1587,1566,1566
1747554700.4947927,-0.18,0.03,-0.32,-0.1734420944169365,0.20398535632683726,0.5235987755982988,2.4134442567045404,-0.1201245728681113,1.2669334998782196,3,0,0,0,0,0,1567,1424,1500,1587,1566,1566
1747554700.5951624,-0.16,-0.01,-0.21,-0.1712604328519436,0.16471544815696484,0.519235452468313,2.395424323211717,-0.19198085277412996,1.2255211913870123,3,0,0,0,0,0,1567,1424,1500,1587,1566,1566
1747554700.693996,-0.16,-0.01,-0.21,-0.1712604328519436,0.16471544815696484,0.519235452468313,2.395424323211717,-0.19198085277412996,1.2255211913870123,3,0,0,0,0,0,1567,1424,1500,1587,1566,1566
1747554700.7788684,-0.14,0.09,-0.27,-0.17780541754692233,0.13199052468207118,0.5017821599483697,2.3814269950489013,-0.2548993169193157,1.184914284214343,3,0,0,0,0,0,1567,1424,1500,1587,1566,1566
1747554700.8782334,-0.14,0.09,-0.27,-0.17780541754692233,0.13199052468207118,0.5017821599483697,2.3814269950489013,-0.2548993169193157,1.184914284214343,3,0,0,0,0,0,1567,1424,1500,1587,1566,1566
1747554700.9626207,-0.11,0.08,-0.23,-0.20398535632683726,0.10144726277217041,0.4799655442984406,2.365776395625933,-0.31746164297660895,1.1407757679003196,3,0,0,0,0,0,1567,1424,1500,1587,1566,1566
1747554701.0612128,-0.11,0.11,-0.26,-0.22362031041177347,0.08290313946973066,0.45814892864851153,2.3504669534104834,-0.3728983584964261,1.0989890930187272,3,0,0,0,0,0,1567,1424,1500,1587,1566,1566
1747554701.1607227,-0.11,0.11,-0.26,-0.22362031041177347,0.08290313946973066,0.45814892864851153,2.3504669534104834,-0.3728983584964261,1.0989890930187272,3,0,0,0,0,0,1567,1424,1500,1587,1566,1566
1747554701.2454472,-0.11,0.09,-0.23,-0.2378011105842274,0.07417649320975901,0.433059820651093,2.333450678784125,-0.42830142200444915,1.0556189134043599,3,0,0,0,0,0,1567,1424,1500,1587,1566,1566
1747554701.3447123,-0.11,0.09,-0.23,-0.2378011105842274,0.07417649320975901,0.433059820651093,2.333450678784125,-0.42830142200444915,1.0556189134043599,3,0,0,0,0,0,1567,1424,1500,1587,1566,1566
1747554701.4447358,-0.01,0.01,-0.32,-0.24216443371421323,0.055632369907319255,0.4134248665661568,2.3159150447117303,-0.4803573542295241,1.012963106080352,3,0,0,0,0,0,1567,1424,1500,1587,1566,1566
1747554701.545316,-0.03,-0.03,-0.19,-0.21489366415180183,0.04799655442984406,0.40033489717619936,2.3036301435355484,-0.5276957740431341,0.973033139773192,3,0,0,0,0,0,1567,1424,1500,1587,1566,1566
1747554701.6444623,-0.03,-0.03,-0.19,-0.21489366415180183,0.04799655442984406,0.40033489717619936,2.3036301435355484,-0.5276957740431341,0.973033139773192,3,0,0,0,0,0,1567,1424,1500,1587,1566,1566
1747554701.7283535,-0.16,0.02,-0.25,-0.18871372537188688,0.04799655442984406,0.3763366199612773,2.2955833275114297,-0.5752508315618828,0.9314754164052981,3,0,0,0,0,0,1567,1424,1500,1587,1566,1566
1747554701.8274734,-0.03,-0.02,-0.18,-0.17889624832941878,0.04145156973486533,0.3621558197888234,2.292092753876982,-0.6202535806840022,0.8906357724368626,3,0,0,0,0,0,1567,1424,1500,1587,1566,1566
1747554701.9278698,-0.03,-0.02,-0.18,-0.17889624832941878,0.04145156973486533,0.3621558197888234,2.292092753876982,-0.6202535806840022,0.8906357724368626,3,0,0,0,0,0,1567,1424,1500,1587,1566,1566
1747554702.011007,-0.15,-0.07,-0.19,-0.16689710972195776,0.038179077387375956,0.3523383427463553,2.2914862386460855,-0.6613948872246272,0.8519772910397819,3,0,0,0,0,0,1567,1424,1500,1587,1566,1566
1747554702.1109493,-0.15,-0.07,-0.19,-0.16689710972195776,0.038179077387375956,0.3523383427463553,2.2914862386460855,-0.6613948872246272,0.8519772910397819,3,0,0,0,0,0,1567,1424,1500,1587,1566,1566
1747554702.211193,0.01,-0.05,-0.21,-0.16798794050445423,0.03599741582238305,0.35452000431134817,2.294241097313182,-0.7048929604825493,0.8092962872455811,3,0,0,0,0,0,1567,1424,1500,1587,1566,1566
1747554702.3111982,-0.04,0.01,-0.29,-0.1734420944169365,0.03381575425739013,0.3719732968312915,2.300232899264969,-0.7461247057880233,0.7647708983426111,3,0,0,0,0,0,1567,1424,1500,1587,1566,1566
1747554702.410788,-0.04,0.01,-0.29,-0.1734420944169365,0.03381575425739013,0.3719732968312915,2.300232899264969,-0.7461247057880233,0.7647708983426111,3,0,0,0,0,0,1567,1424,1500,1587,1566,1566
1747554702.494793,-0.01,-0.05,-0.26,-0.17889624832941878,0.03381575425739013,0.3741549583962844,2.3101750446998097,-0.7904464895171958,0.7135396435990091,3,0,0,0,0,0,1567,1424,1500,1587,1566,1566
1747554702.593949,-0.01,-0.05,-0.26,-0.17889624832941878,0.03381575425739013,0.3741549583962844,2.3101750446998097,-0.7904464895171958,0.7135396435990091,0,0,0,0,0,0,1527,1464,1500,1547,1526,1526
1747554702.694305,-0.08,-0.1,-0.16,-0.17998707911191522,0.04363323129985824,0.36324665057131983,2.322688413513896,-0.835093133723794,0.6610578098217952,-3,0,0,0,0,0,1487,1504,1500,1507,1486,1486
1747554702.777439,-0.08,-0.1,-0.16,-0.17998707911191522,0.04363323129985824,0.36324665057131983,2.322688413513896,-0.835093133723794,0.6610578098217952,-3,0,0,0,0,0,1447,1544,1500,1467,1446,1446
1747554702.877663,-0.11,-0.08,-0.2,-0.22580197197676638,0.032724923474893676,0.2945243112740431,2.334091991604548,-0.8767555771661226,0.6088069849701606,-3,0,0,0,0,0,1424,1567,1500,1427,1426,1426
1747554702.9783459,0.16,0.05,-0.37,-0.3119776037939864,-0.007635815477475192,0.1559888018969932,2.3275981059167328,-0.9019509288060348,0.5683382033278414,-3,0,0,0,0,0,1424,1567,1500,1402,1426,1426
1747554703.0773594,0.16,0.05,-0.37,-0.3119776037939864,-0.007635815477475192,0.1559888018969932,2.3275981059167328,-0.9019509288060348,0.5683382033278414,-3,0,0,0,0,0,1424,1567,1500,1402,1426,1426
1747554703.1780338,0.01,0.12,-0.15,-0.5748678223756323,-0.05126904677733343,-0.031634092692397225,2.2865428594052006,-0.9051416755433526,0.5477903078036176,-3,0,0,0,0,0,1424,1567,1500,1402,1426,1426
1747554703.261098,0.21,-0.17,-0.23,-0.7406741013150936,-0.05235987755982989,-0.23125612588924865,2.176077836245953,-0.8825700589633019,0.5562527502515724,-3,0,0,0,0,0,1424,1567,1500,1402,1426,1426
1747554703.3617399,0.21,-0.17,-0.23,-0.7406741013150936,-0.05235987755982989,-0.23125612588924865,2.176077836245953,-0.8825700589633019,0.5562527502515724,-3,0,0,0,0,0,1424,1567,1500,1402,1426,1426
1747554703.4609947,0.02,-0.42,-0.2,-0.607592745850526,-0.037088246604879506,-0.3327033886614191,2.0642443475087,-0.8446679248412593,0.5763456022488825,-3,0,0,0,0,0,1424,1567,1500,1402,1426,1426
1747554703.5610304,0.02,-0.26,-0.22,-0.5083271446433485,-0.05781403147231216,-0.38288160465625604,1.969017087756887,-0.7948935573314181,0.594220922394033,-3,0,0,0,0,0,1424,1567,1500,1402,1426,1426
1747554703.6609724,0.02,-0.26,-0.22,-0.5083271446433485,-0.05781403147231216,-0.38288160465625604,1.969017087756887,-0.7948935573314181,0.594220922394033,-3,0,0,0,0,0,1424,1567,1500,1402,1426,1426
1747554703.7439847,0.03,-0.24,-0.12,-0.4112432050011639,-0.07853981633974483,-0.433059820651093,1.8928200571951075,-0.7346670330442138,0.6066696703741558,-3,0,0,0,0,0,1424,1567,1500,1402,1426,1426
1747554703.8446987,0.03,-0.24,-0.12,-0.4112432050011639,-0.07853981633974483,-0.433059820651093,1.8928200571951075,-0.7346670330442138,0.6066696703741558,-3,0,0,0,0,0,1424,1567,1500,1402,1426,1426
1747554703.9451828,0.0,-0.28,-0.14,-0.3108867730114899,-0.10035643198967395,-0.4657847441259867,1.8404000687789142,-0.6709149531563662,0.6115084315449746,-3,0,0,0,0,0,1424,1567,1500,1402,1426,1426
1747554704.0447598,0.11,-0.26,-0.17,-0.23889194136672387,-0.11344640137963143,-0.4908738521234052,1.800742507998125,-0.5978640314638369,0.6113570593198082,-3,0,0,0,0,0,1424,1567,1500,1402,1426,1426
1747554704.1438682,0.11,-0.26,-0.17,-0.23889194136672387,-0.11344640137963143,-0.4908738521234052,1.800742507998125,-0.5978640314638369,0.6113570593198082,-3,0,0,0,0,0,1424,1567,1500,1402,1426,1426
1747554704.2287695,0.1,-0.21,-0.12,-0.1810779098944117,-0.1189005552921137,-0.5017821599483697,1.7727801021242429,-0.5217937336479638,0.6079821142090527,-3,0,0,0,0,0,1424,1567,1500,1402,1426,1426
1747554704.3273008,0.1,-0.21,-0.12,-0.1810779098944117,-0.1189005552921137,-0.5017821599483697,1.7727801021242429,-0.5217937336479638,0.6079821142090527,-3,0,0,0,0,0,1424,1567,1500,1402,1426,1426
1747554704.4273067,0.05,-0.3,-0.1,-0.1439896632895322,-0.13744467859455345,-0.507236313860852,1.7555380416693638,-0.4489365625376375,0.6013554777858633,-3,0,0,0,0,0,1424,1567,1500,1402,1426,1426
1747554704.5118113,0.04,-0.2,-0.06,-0.10690141668465268,-0.14835298641951802,-0.519235452468313,1.7423468931836452,-0.3691359595094073,0.5920713370412027,-3,0,0,0,0,0,1424,1567,1500,1402,1426,1426
1747554704.6114793,0.04,-0.2,-0.06,-0.10690141668465268,-0.14835298641951802,-0.519235452468313,1.7423468931836452,-0.3691359595094073,0.5920713370412027,-3,0,0,0,0,0,1424,1567,1500,1402,1426,1426
1747554704.7104828,0.09,-0.16,-0.15,-0.0916297857297023,-0.14835298641951802,-0.5257804371632918,1.7317720716487528,-0.2924664560547091,0.5827710937456665,-3,0,0,0,0,0,1424,1567,1500,1402,1426,1426
1747554704.810969,0.14,-0.18,-0.1,-0.07963064712224129,-0.14944381720201447,-0.5170537909033202,1.7227805583412943,-0.211053541390699,0.5713300750613878,-3,0,0,0,0,0,1424,1567,1500,1402,1426,1426
1747554704.9106395,0.14,-0.18,-0.1,-0.07963064712224129,-0.14944381720201447,-0.5170537909033202,1.7227805583412943,-0.211053541390699,0.5713300750613878,0,0,0,0,0,0,1464,1527,1500,1442,1466,1466
1747554704.993716,0.12,-0.2,0.0,-0.061086523819801536,-0.14508049407202864,-0.5017821599483697,1.7156542339108,-0.13682376510802877,0.5608301596658629,0,0,0,0,0,0,1500,1500,1500,1482,1500,1500
1747554705.0943065,0.12,-0.2,0.0,-0.061086523819801536,-0.14508049407202864,-0.5017821599483697,1.7156542339108,-0.13682376510802877,0.5608301596658629,0,0,0,0,0,0,1500,1500,1500,1500,1500,1500
1747554705.1947653,0.28,-0.18,-0.1,-0.007635815477475192,-0.12326387842209953,-0.45705809786601503,1.7106763583379654,-0.062424962417095255,0.5507040535572225,0,0,0,0,0,0,1500,1500,1500,1500,1500,1500
1747554705.2943223,0.24,-0.11,-0.08,0.08835729338221293,-0.11126473981463851,-0.3534291735288517,1.7190069949624056,-0.0009925367077625983,0.541782640592878,0,0,0,0,0,0,1500,1500,1500,1500,1500,1500
1747554705.3949492,0.24,-0.11,-0.08,0.08835729338221293,-0.11126473981463851,-0.3534291735288517,1.7190069949624056,-0.0009925367077625983,0.541782640592878,0,0,0,0,0,0,1500,1500,1500,1500,1500,1500
1747554705.4770594,0.12,-0.04,-0.06,0.16035212502697901,-0.1090830782496456,-0.28361600344907856,1.7389042864457644,0.04775907515295842,0.5320190985481691,0,0,0,0,0,0,1500,1500,1500,1500,1500,1500
1747554705.577969,0.12,-0.04,-0.06,0.16035212502697901,-0.1090830782496456,-0.28361600344907856,1.7389042864457644,0.04775907515295842,0.5320190985481691,0,0,0,0,0,0,1500,1500,1500,1500,1500,1500
1747554705.683209,0.13,-0.06,0.0,0.21162117180431245,-0.1090830782496456,-0.11235557059713497,1.7655966044167468,0.08485270687600485,0.5222718334444872,0,0,0,0,0,0,1500,1500,1500,1500,1500,1500
1747554705.777582,0.15,-0.03,0.01,0.2628902185816459,-0.10799224746714914,-0.16798794050445423,1.8014214536333195,0.11656271819768316,0.2033723044918721,0,0,0,0,0,0,1500,1500,1500,1500,1500,1500
1747554705.878021,0.15,-0.03,0.01,0.2628902185816459,-0.10799224746714914,-0.16798794050445423,1.8014214536333195,0.11656271819768316,0.2033723044918721,0,0,0,0,0,0,1500,1500,1500,1500,1500,1500
1747554705.9783692,0.16,0.03,0.02,0.2912518189265537,-0.1090830782496456,-0.11780972450961724,1.843277779601736,0.14057295463374372,0.19165443894231576,0,0,0,0,0,0,1500,1500,1500,1500,1500,1500
1747554706.0774126,0.2,0.02,0.02,0.3076142806640006,-0.10581058590215622,-0.08726646259971647,1.8847841516410158,0.15811511344057183,0.18197388857806085,0,0,0,0,0,0,1500,1500,1500,1500,1500,1500
1747554706.178651,0.2,0.02,0.02,0.3076142806640006,-0.10581058590215622,-0.08726646259971647,1.8847841516410158,0.15811511344057183,0.18197388857806085,0,0,0,0,0,0,1500,1500,1500,1500,1500,1500
1747554706.259603,0.14,0.01,0.01,0.3119776037939864,-0.09490227807719166,-0.05781403147231216,1.930786003977237,0.17246188671379512,0.17351398734389692,0,0,0,0,0,0,1500,1500,1500,1500,1500,1500
1747554706.3603363,0.14,0.01,0.01,0.3119776037939864,-0.09490227807719166,-0.05781403147231216,1.930786003977237,0.17246188671379512,0.17351398734389692,0,0,0,0,0,0,1500,1500,1500,1500,1500,1500
1747554706.459813,0.14,0.1,-0.02,0.3174317577064687,-0.09053895494720585,-0.031634092692397225,1.977509492252435,0.18286523791722656,0.16504892069392854,0,0,0,0,0,0,1500,1500,1500,1500,1500,1500
