time,ay,ax,az,gy,gx,gz,roll,pitch,yaw,cmd_fx,cmd_fy,cmd_fz,cmd_tx,cmd_ty,cmd_tz,pwm_1,pwm_2,pwm_3,pwm_4,pwm_5,pwm_6
1747538723.4472568,0.0,0.0,0.0,0.0,0.0,0.0,0.0,0.0,0.0,0,0,0,0,0,0,1500,1500,1500,1500,1500,1500
1747538723.5427177,-0.07,-0.28,0.13,-0.001090830782496456,0.0,0.002181661564992912,2.108602100977722,-0.15631522173953022,-0.27406622164498745,0,0,0,0,0,0,1500,1500,1500,1500,1500,1500
1747538723.6433003,-0.07,-0.28,0.13,-0.001090830782496456,0.0,0.002181661564992912,2.108602100977722,-0.15631522173953022,-0.27406622164498745,0,0,0,0,0,0,1500,1500,1500,1500,1500,1500
1747538723.7431245,-0.01,-0.21,0.12,0.003272492347489368,0.001090830782496456,-0.001090830782496456,2.108602100977722,-0.15631522173953022,-0.27406622164498745,0,0,0,0,0,0,1500,1500,1500,1500,1500,1500
1747538723.8432927,-0.05,-0.27,0.15,0.004363323129985824,0.002181661564992912,0.003272492347489368,2.108602100977722,-0.15631522173953022,-0.27406622164498745,0,0,0,0,0,0,1500,1500,1500,1500,1500,1500
1747538723.9436183,-0.05,-0.27,0.15,0.004363323129985824,0.002181661564992912,0.003272492347489368,2.108602100977722,-0.15631522173953022,-0.27406622164498745,0,0,0,0,0,0,1500,1500,1500,1500,1500,1500
1747538724.0259328,-0.04,-0.05,0.0,0.001090830782496456,-0.003272492347489368,0.0,2.108602100977722,-0.15631522173953022,-0.27406622164498745,0,0,0,0,0,0,1500,1500,1500,1500,1500,1500
1747538724.1250422,-0.04,-0.05,0.0,0.001090830782496456,-0.003272492347489368,0.0,2.108602100977722,-0.15631522173953022,-0.27406622164498745,0,0,0,0,0,0,1500,1500,1500,1500,1500,1500
1747538724.226381,0.0,-0.02,0.03,-0.002181661564992912,-0.001090830782496456,-0.002181661564992912,2.108602100977722,-0.15631522173953022,-0.27406622164498745,0,0,0,0,0,0,1500,1500,1500,1500,1500,1500
1747538724.3255653,-0.03,-0.05,0.04,0.003272492347489368,0.0,-0.003272492347489368,-1.7655313448029946,0.4901808202371818,-0.27406622164498745,0,0,0,0,0,0,1500,1500,1500,1500,1500,1500
1747538724.426409,-0.03,-0.05,0.04,0.003272492347489368,0.0,-0.003272492347489368,-1.7655313448029946,0.4901808202371818,-0.27406622164498745,0,0,0,0,0,0,1500,1500,1500,1500,1500,1500
1747538724.5095172,-0.02,0.0,-0.01,-0.001090830782496456,-0.001090830782496456,0.0,2.108602100977722,-0.15631522173953022,-0.27406622164498745,0,0,0,0,0,0,1500,1500,1500,1500,1500,1500
1747538724.6103418,-0.02,0.0,-0.01,-0.001090830782496456,-0.001090830782496456,0.0,2.108602100977722,-0.15631522173953022,-0.27406622164498745,0,0,0,0,0,0,1500,1500,1500,1500,1500,1500
1747538724.709008,0.02,0.0,0.04,-0.006544984694978736,-0.006544984694978736,-0.001090830782496456,2.108602100977722,-0.15631522173953022,-0.27406622164498745,0,0,0,0,0,0,1500,1500,1500,1500,1500,1500
1747538724.7934685,-0.05,-0.06,0.0,-0.003272492347489368,0.0,-0.001090830782496456,2.108602100977722,-0.15631522173953022,-0.27406622164498745,0,0,0,0,0,0,1500,1500,1500,1500,1500,1500
1747538724.893167,-0.05,-0.06,0.0,-0.003272492347489368,0.0,-0.001090830782496456,2.108602100977722,-0.15631522173953022,-0.27406622164498745,0,0,0,0,0,0,1500,1500,1500,1500,1500,1500
1747538724.9930913,-0.02,-0.03,0.0,-0.001090830782496456,-0.003272492347489368,-0.001090830782496456,2.108602100977722,-0.15631522173953022,-0.27406622164498745,0,0,0,0,0,0,1500,1500,1500,1500,1500,1500
1747538725.0929477,-0.02,-0.03,0.0,-0.001090830782496456,-0.003272492347489368,-0.001090830782496456,2.108602100977722,-0.15631522173953022,-0.27406622164498745,0,0,0,0,0,0,1500,1500,1500,1500,1500,1500
1747538725.1932554,0.0,-0.01,0.07,-0.001090830782496456,0.003272492347489368,0.001090830782496456,2.108602100977722,-0.15631522173953022,-0.27406622164498745,0,0,0,0,0,0,1500,1500,1500,1500,1500,1500
1747538725.2761724,-0.02,-0.03,0.01,0.003272492347489368,0.002181661564992912,-0.001090830782496456,2.108602100977722,-0.15631522173953022,-0.27406622164498745,0,0,0,0,0,0,1500,1500,1500,1500,1500,1500
1747538725.3765516,-0.02,-0.03,0.01,0.003272492347489368,0.002181661564992912,-0.001090830782496456,2.108602100977722,-0.15631522173953022,-0.27406622164498745,0,0,0,0,0,0,1500,1500,1500,1500,1500,1500
1747538725.4761162,0.01,0.0,0.02,-0.002181661564992912,0.004363323129985824,0.0,2.108602100977722,-0.15631522173953022,-0.27406622164498745,0,0,0,0,0,0,1500,1500,1500,1500,1500,1500
1747538725.5739343,0.01,-0.01,0.04,-0.004363323129985824,-0.003272492347489368,0.001090830782496456,2.108602100977722,-0.15631522173953022,-0.27406622164498745,0,0,0,0,0,0,1500,1500,1500,1500,1500,1500
1747538725.6762738,0.01,-0.01,0.04,-0.004363323129985824,-0.003272492347489368,0.001090830782496456,2.108602100977722,-0.15631522173953022,-0.27406622164498745,0,0,0,0,0,0,1500,1500,1500,1500,1500,1500
1747538725.759371,-0.04,-0.05,-0.02,-0.001090830782496456,0.004363323129985824,-0.003272492347489368,2.108602100977722,-0.15631522173953022,-0.27406622164498745,0,0,0,0,0,0,1500,1500,1500,1500,1500,1500
1747538725.8593807,-0.04,-0.05,-0.02,-0.001090830782496456,0.004363323129985824,-0.003272492347489368,2.108602100977722,-0.15631522173953022,-0.27406622164498745,0,0,0,0,0,0,1500,1500,1500,1500,1500,1500
1747538725.9592915,0.01,0.0,-0.01,-0.002181661564992912,0.0,0.001090830782496456,2.108602100977722,-0.15631522173953022,-0.27406622164498745,0,0,0,0,0,0,1500,1500,1500,1500,1500,1500
1747538726.042755,0.01,0.0,-0.01,-0.002181661564992912,0.0,0.001090830782496456,2.108602100977722,-0.15631522173953022,-0.27406622164498745,0,0,0,0,0,0,1500,1500,1500,1500,1500,1500
1747538726.142894,-0.01,-0.03,0.05,-0.001090830782496456,0.001090830782496456,0.0,2.108602100977722,-0.15631522173953022,-0.27406622164498745,0,0,0,0,0,0,1500,1500,1500,1500,1500,1500
1747538726.242497,-0.01,-0.03,-0.01,-0.002181661564992912,0.002181661564992912,0.0,2.108602100977722,-0.15631522173953022,-0.27406622164498745,0,0,0,0,0,0,1500,1500,1500,1500,1500,1500
1747538726.3431282,-0.01,-0.03,-0.01,-0.002181661564992912,0.002181661564992912,0.0,2.108602100977722,-0.15631522173953022,-0.27406622164498745,0,0,0,0,0,0,1500,1500,1500,1500,1500,1500
1747538726.4432592,0.02,0.03,0.03,0.001090830782496456,-0.002181661564992912,-0.001090830782496456,2.108602100977722,-0.15631522173953022,-0.27406622164498745,0,0,0,0,0,0,1500,1500,1500,1500,1500,1500
1747538726.5265229,-0.02,-0.04,0.0,0.001090830782496456,0.001090830782496456,-0.001090830782496456,2.108602100977722,-0.15631522173953022,-0.27406622164498745,0,0,0,0,0,0,1500,1500,1500,1500,1500,1500
1747538726.6256454,-0.02,-0.04,0.0,0.001090830782496456,0.001090830782496456,-0.001090830782496456,2.108602100977722,-0.15631522173953022,-0.27406622164498745,0,0,0,0,0,0,1500,1500,1500,1500,1500,1500
1747538726.7263405,-0.04,-0.05,-0.01,0.001090830782496456,0.001090830782496456,0.001090830782496456,2.108602100977722,-0.15631522173953022,-0.27406622164498745,0,0,0,0,0,0,1500,1500,1500,1500,1500,1500
1747538726.8265178,-0.04,-0.05,-0.01,0.001090830782496456,0.001090830782496456,0.001090830782496456,2.108602100977722,-0.15631522173953022,-0.27406622164498745,0,0,0,0,0,0,1500,1500,1500,1500,1500,1500
1747538726.9257395,0.01,0.0,0.01,0.002181661564992912,0.003272492347489368,-0.002181661564992912,2.108602100977722,-0.15631522173953022,-0.27406622164498745,0,0,0,0,0,0,1500,1500,1500,1500,1500,1500
1747538727.009522,-0.02,-0.05,0.0,0.001090830782496456,-0.003272492347489368,0.001090830782496456,2.108602100977722,-0.15631522173953022,-0.27406622164498745,0,0,0,0,0,0,1500,1500,1500,1500,1500,1500
1747538727.109652,-0.02,-0.05,0.0,0.001090830782496456,-0.003272492347489368,0.001090830782496456,2.108602100977722,-0.15631522173953022,-0.27406622164498745,0,0,0,0,0,0,1500,1500,1500,1500,1500,1500
1747538727.2085025,0.01,-0.01,0.0,-0.003272492347489368,-0.002181661564992912,0.0,2.108602100977722,-0.15631522173953022,-0.27406622164498745,0,0,0,0,0,0,1500,1500,1500,1500,1500,1500
1747538727.292645,0.01,-0.01,0.0,-0.003272492347489368,-0.002181661564992912,0.0,2.108602100977722,-0.15631522173953022,-0.27406622164498745,0,0,0,0,0,0,1500,1500,1500,1500,1500,1500
1747538727.3923311,0.0,-0.02,0.06,-0.002181661564992912,-0.004363323129985824,-0.001090830782496456,2.108602100977722,-0.15631522173953022,-0.27406622164498745,0,0,0,0,0,0,1500,1500,1500,1500,1500,1500
1747538727.4922905,-0.03,-0.05,-0.02,-0.001090830782496456,-0.001090830782496456,-0.002181661564992912,2.108602100977722,-0.15631522173953022,-0.27406622164498745,0,0,0,0,0,0,1500,1500,1500,1500,1500,1500
1747538727.592858,-0.03,-0.05,-0.02,-0.001090830782496456,-0.001090830782496456,-0.002181661564992912,2.108602100977722,-0.15631522173953022,-0.27406622164498745,0,0,0,0,0,0,1500,1500,1500,1500,1500,1500
1747538727.69264,0.0,0.0,-0.03,0.0,0.001090830782496456,-0.002181661564992912,2.108602100977722,-0.15631522173953022,-0.27406622164498745,0,0,0,0,0,0,1500,1500,1500,1500,1500,1500
1747538727.7762356,0.0,0.0,-0.03,0.0,0.001090830782496456,-0.002181661564992912,2.108602100977722,-0.15631522173953022,-0.27406622164498745,0,0,0,0,0,0,1500,1500,1500,1500,1500,1500
1747538727.8748407,0.01,-1.29,0.06,-0.002181661564992912,0.0,0.0,2.108602100977722,-0.15631522173953022,-0.27406622164498745,0,0,0,0,0,0,1500,1500,1500,1500,1500,1500
1747538727.9766183,-0.01,-0.04,0.01,-0.00545415391248228,-0.004363323129985824,0.0,2.108602100977722,-0.15631522173953022,-0.27406622164498745,0,0,0,0,0,0,1500,1500,1500,1500,1500,1500
1747538728.0753572,-0.01,-0.04,0.01,-0.00545415391248228,-0.004363323129985824,0.0,2.108602100977722,-0.15631522173953022,-0.27406622164498745,0,0,0,0,0,0,1500,1500,1500,1500,1500,1500
1747538728.176162,0.04,0.0,0.02,0.001090830782496456,-0.003272492347489368,-0.002181661564992912,2.108602100977722,-0.15631522173953022,-0.27406622164498745,0,0,0,0,0,0,1500,1500,1500,1500,1500,1500
1747538728.2602658,0.04,0.0,0.02,0.001090830782496456,-0.003272492347489368,-0.002181661564992912,2.108602100977722,-0.15631522173953022,-0.27406622164498745,0,0,0,0,0,0,1500,1500,1500,1500,1500,1500
1747538728.3599763,-0.02,-0.03,0.05,0.0,0.002181661564992912,0.0,2.108602100977722,-0.15631522173953022,-0.27406622164498745,0,0,0,0,0,0,1500,1500,1500,1500,1500,1500
1747538728.4596229,0.0,-0.02,-0.04,0.0,-0.001090830782496456,0.001090830782496456,2.108602100977722,-0.15631522173953022,-0.27406622164498745,0,0,0,0,0,0,1500,1500,1500,1500,1500,1500
1747538728.5591059,0.0,-0.02,-0.04,0.0,-0.001090830782496456,0.001090830782496456,2.108602100977722,-0.15631522173953022,-0.27406622164498745,0,0,0,0,0,0,1500,1500,1500,1500,1500,1500
1747538728.6610587,0.01,0.0,0.02,0.0,-0.004363323129985824,0.002181661564992912,2.108602100977722,-0.15631522173953022,-0.27406622164498745,0,0,0,0,0,0,1500,1500,1500,1500,1500,1500
1747538728.747108,-0.01,-0.04,0.03,-0.002181661564992912,0.002181661564992912,0.002181661564992912,2.108602100977722,-0.15631522173953022,-0.27406622164498745,0,0,0,0,0,0,1500,1500,1500,1500,1500,1500
1747538728.8422024,-0.01,-0.04,0.03,-0.002181661564992912,0.002181661564992912,0.002181661564992912,2.108602100977722,-0.15631522173953022,-0.27406622164498745,0,0,0,0,0,0,1500,1500,1500,1500,1500,1500
1747538728.9432166,0.0,-0.01,0.0,-0.002181661564992912,0.001090830782496456,0.001090830782496456,2.108602100977722,-0.15631522173953022,-0.27406622164498745,0,0,0,0,0,0,1500,1500,1500,1500,1500,1500
1747538729.0261943,0.0,-0.01,0.0,-0.002181661564992912,0.001090830782496456,0.001090830782496456,2.108602100977722,-0.15631522173953022,-0.27406622164498745,0,0,0,0,0,0,1500,1500,1500,1500,1500,1500
1747538729.12574,0.0,-0.03,0.06,-0.001090830782496456,0.004363323129985824,-0.002181661564992912,2.108602100977722,-0.15631522173953022,-0.27406622164498745,0,0,0,0,0,0,1500,1500,1500,1500,1500,1500
1747538729.2184508,-0.05,-0.04,0.0,0.001090830782496456,0.001090830782496456,0.001090830782496456,2.108602100977722,-0.15631522173953022,-0.27406622164498745,0,0,0,0,0,0,1500,1500,1500,1500,1500,1500
1747538729.3093505,-0.05,-0.04,0.0,0.001090830782496456,0.001090830782496456,0.001090830782496456,2.108602100977722,-0.15631522173953022,-0.27406622164498745,0,0,0,0,0,0.001791,1500,1500,1500,1500,1500,1500
1747538729.4083614,-0.01,-0.01,-0.04,0.001090830782496456,0.001090830782496456,-0.001090830782496456,2.108602100977722,-0.15631522173953022,-0.27406622164498745,0,0,0,0,0,0.144992,1540,1460,1463,1500,1500,1500
1747538729.5092738,-0.01,-0.01,-0.04,0.001090830782496456,0.001090830782496456,-0.001090830782496456,2.108602100977722,-0.15631522173953022,-0.27406622164498745,0,0,0,0,0,0.276499,1580,1420,1463,1500,1500,1500
1747538729.608973,0.01,0.0,0.06,-0.002181661564992912,0.002181661564992912,0.002181661564992912,2.108602100977722,-0.15631522173953022,-0.27406622164498745,0,0,0,0,0,0.276499,1620,1380,1463,1500,1500,1500
1747538729.6981502,0.02,-0.35000000000000003,-0.37,-0.00545415391248228,0.00545415391248228,0.002181661564992912,2.108301220385696,-0.1561870299895475,-0.27399472916122825,0,0,0,0,0,0.28381,1645,1355,1463,1500,1500,1500
1747538729.792463,0.02,-0.35000000000000003,-0.37,-0.00545415391248228,0.00545415391248228,0.002181661564992912,2.108301220385696,-0.1561870299895475,-0.27399472916122825,0,0,0,0,0,0.291218,1645,1355,1463,1500,1500,1500
1747538729.8916454,0.58,-0.62,0.15,0.0545415391248228,-0.031634092692397225,0.1505346479845109,2.109557906109127,-0.16053124899724672,-0.2772823977977209,0,0,0,0,0,0.314012,1645,1355,1463,1500,1500,1500
1747538729.9925435,0.58,-0.62,0.15,0.0545415391248228,-0.031634092692397225,0.1505346479845109,2.109557906109127,-0.16053124899724672,-0.2772823977977209,0,0,0,0,0,0.459402,1645,1355,1463,1500,1500,1500
1747538730.0917592,-0.11,-0.29,-0.05,0.20507618710933373,-0.2083486794568231,0.6305001922829515,2.1420289593857382,-0.20343355584589903,-0.3265464644936124,0,0,0,0,0,0.632369,1645,1355,1463,1500,1500,1500
1747538730.1917353,0.63,0.02,-0.01,0.21925698728178766,-0.3097959422289935,0.8748462875621577,2.201046373717929,-0.27807129135037095,-0.4299768579980871,0,-0.169949,0,0,0,0.7,1640,1354,1461,1500,1500,1500
1747538730.275879,0.63,0.02,-0.01,0.21925698728178766,-0.3097959422289935,0.8748462875621577,2.201046373717929,-0.27807129135037095,-0.4299768579980871,0,-0.581443,0,0,0,0.7,1629,1354,1456,1500,1500,1500
1747538730.3757231,0.6,-0.03,-0.27,0.17671458676442586,-0.3665191429188092,1.076649982324002,2.276514827720352,-0.36436673099755595,-0.5728891968951333,0,-6.319686,0,0,0,0,1589,1359,1416,1500,1500,1500
1747538730.4764948,0.6,-0.03,-0.27,0.17671458676442586,-0.3665191429188092,1.076649982324002,2.276514827720352,-0.36436673099755595,-0.5728891968951333,0,-12.5,0,0,0,0,1549,1359,1383,1500,1500,1500
1747538730.5757806,-0.07,0.0,-0.17,0.13308135546456762,-0.358883327441334,1.205368014658584,2.36583670079313,-0.45060699538591426,-0.7402085786738791,0,-12.5,0,0,0,0,1509,1359,1383,1500,1500,1500
1747538730.6762834,-0.41000000000000003,-0.47000000000000003,-0.18,-0.06872233929727672,-0.2519819107566813,1.1290098598838318,2.458634768380989,-0.5323877516286044,-0.9276303812922857,0,-12.5,0,0,0,0,1469,1359,1383,1500,1500,1500
1747538730.7597835,-0.41000000000000003,-0.47000000000000003,-0.18,-0.06872233929727672,-0.2519819107566813,1.1290098598838318,2.458634768380989,-0.5323877516286044,-0.9276303812922857,0,-12.5,0,0,0,0,1429,1359,1383,1500,1500,1500
1747538730.8602095,-0.13,0.05,-0.1,-0.2617993877991494,-0.3097959422289935,0.9632035809443706,2.529036501522031,-0.5956895709897159,-1.1096094751252654,0,-12.5,0,0,0,0,1389,1359,1383,1500,1500,1500
1747538730.9580054,-0.16,-0.35000000000000003,-0.16,-0.3272492347489368,-0.4734205596034619,0.8268497331323136,2.5870211017018194,-0.6149700163074817,-1.292999256168241,0,-12.5,0,0,0,0,1354,1359,1383,1500,1500,1500
1747538731.0430963,-0.16,-0.35000000000000003,-0.16,-0.3272492347489368,-0.4734205596034619,0.8268497331323136,2.5870211017018194,-0.6149700163074817,-1.292999256168241,0,-12.5,0,0,0,0,1354,1359,1383,1500,1500,1500
1747538731.1430213,-0.25,0.29,-0.1,-0.4188790204786391,-0.44833145160604343,0.6228643768054763,2.6234281244954647,-0.6093759007170194,-1.4574598543893376,0,-12.5,0,0,0,0,1354,1359,1383,1500,1500,1500
1747538731.2425687,-0.25,0.29,-0.1,-0.4188790204786391,-0.44833145160604343,0.6228643768054763,2.6234281244954647,-0.6093759007170194,-1.4574598543893376,0,-12.5,0,0,0,0,1354,1359,1383,1500,1500,1500
1747538731.3426232,0.2,-0.08,-0.42,-0.5715953300281429,-0.24434609527920614,0.2203478180642841,2.598171175563992,-0.5939870379035888,-1.546076508940633,0,-12.5,0,0,0,0,1354,1359,1383,1500,1500,1500
1747538731.44266,-0.23,0.04,-0.12,-0.5366887449882564,-0.11671889372712078,0.04254240051736178,2.534144768902925,-0.5803638181912494,-1.5828856199981114,0,-12.5,0,0,0,0,1354,1359,1383,1500,1500,1500
1747538731.5255587,-0.23,0.04,-0.12,-0.5366887449882564,-0.11671889372712078,0.04254240051736178,2.534144768902925,-0.5803638181912494,-1.5828856199981114,0,-12.5,0,0,0,0,1354,1359,1383,1500,1500,1500
1747538731.6253674,0.13,-0.02,0.1,-0.5268712679457882,-0.01090830782496456,-0.05126904677733343,2.4600345779044206,-0.5733205927633306,-1.5878893246422385,0,-12.5,0,0,0,0,1354,1359,1383,1500,1500,1500
1747538731.7257364,0.13,-0.02,0.1,-0.5268712679457882,-0.01090830782496456,-0.05126904677733343,2.4600345779044206,-0.5733205927633306,-1.5878893246422385,0,-12.5,0,0,0,0,1354,1359,1383,1500,1500,1500
1747538731.8092992,0.02,-0.29,0.17,-0.5050546522958591,0.06654067773228381,-0.09381144729469522,2.3751799097119175,-0.5698973419730795,-1.5751216267557626,0,-12.5,0,0,0,0,1354,1359,1383,1500,1500,1500
1747538731.900363,0.13,-0.16,-0.15,-0.4690572364734761,0.11999138607461016,-0.11235557059713497,2.2875364258558535,-0.5692948148688369,-1.5501915586976924,0,-12.5,0,0,0,0,1354,1359,1383,1500,1500,1500
1747538731.9926095,0.13,-0.16,-0.15,-0.4690572364734761,0.11999138607461016,-0.11235557059713497,2.2875364258558535,-0.5692948148688369,-1.5501915586976924,0,-12.5,0,0,0,0,1354,1359,1383,1500,1500,1500
1747538732.0929081,0.18,-0.29,0.19,-0.44505895925855404,0.13744467859455345,-0.12871803233458182,2.2019697106141263,-0.5691713158726284,-1.5188584755129941,0,-12.5,0,0,0,0,1354,1359,1383,1500,1500,1500
1747538732.1941938,0.18,-0.29,0.19,-0.44505895925855404,0.13744467859455345,-0.12871803233458182,2.2019697106141263,-0.5691713158726284,-1.5188584755129941,0,-12.5,0,0,0,0,1354,1359,1383,1500,1500,1500
1747538732.2759748,0.21,-0.17,0.04,-0.44505895925855404,0.1439896632895322,-0.11562806294462433,2.121507760951817,-0.5663080520306002,-1.4865379450275955,0,-12.5,0,0,0,0,1354,1359,1383,1500,1500,1500
1747538732.376483,0.2,-0.38,-0.02,-0.43196898986859655,0.14180800172453928,-0.09490227807719166,2.038857802157142,-0.5655866155053799,-1.4552977328567263,0,-12.5,0,0,0,0,1354,1359,1383,1500,1500,1500
1747538732.4764404,0.2,-0.38,-0.02,-0.43196898986859655,0.14180800172453928,-0.09490227807719166,2.038857802157142,-0.5655866155053799,-1.4552977328567263,0,-12.5,0,0,0,0,1354,1359,1383,1500,1500,1500
1747538732.575904,0.16,-0.08,0.04,-0.43196898986859655,0.1439896632895322,-0.06217735460229799,1.963157381798077,-0.5653601689057537,-1.4279232487170104,0,-12.5,0,0,0,0,1354,1359,1383,1500,1500,1500
1747538732.675547,0.16,-0.08,0.04,-0.43196898986859655,0.1439896632895322,-0.06217735460229799,1.963157381798077,-0.5653601689057537,-1.4279232487170104,0,-12.5,0,0,0,0,1354,1359,1383,1500,1500,1500
1747538732.7593641,0.09,-0.14,-0.06,-0.4177881896961426,0.12980886311707826,-0.044724062082354694,1.884510963487995,-0.5667018693318993,-1.4019813181528928,0,-12.5,0,0,0,0,1354,1359,1383,1500,1500,1500
1747538732.8584168,0.02,-0.36,0.0,-0.3817907738737596,0.10690141668465268,-0.031634092692397225,1.8123608095172234,-0.5680008064225908,-1.3807346504837672,0,-12.5,0,-0.1503,0,0,1354,1358,1407,1500,1500,1500
1747538732.9581575,0.02,-0.36,0.0,-0.3817907738737596,0.10690141668465268,-0.031634092692397225,1.8123608095172234,-0.5680008064225908,-1.3807346504837672,0,-12.5,0,-0.7,0,0,1354,1357,1447,1500,1500,1500
1747538733.0422413,0.19,-0.15,0.13,-0.3141592653589793,0.13744467859455345,-0.01090830782496456,1.754282236612673,-0.5711808257352475,-1.3623262276593844,0,-12.5,0,-0.7,0,0,1354,1357,1487,1500,1500,1500
1747538733.1418657,0.19,-0.15,0.13,-0.3141592653589793,0.13744467859455345,-0.01090830782496456,1.754282236612673,-0.5711808257352475,-1.3623262276593844,0,-12.5,0,-0.7,0,0,1354,1357,1527,1500,1500,1500
1747538733.2423081,0.22,-0.29,0.13,-0.32179508083645453,0.2628902185816459,0.032724923474893676,1.6891842620832334,-0.5818527047416334,-1.329721130490904,0,-12.5,0,-0.7,0,0,1354,1357,1540,1500,1500,1500
1747538733.3423033,-0.09,-0.29,-0.04,-0.32615840396644036,0.4046982203061852,0.04581489286485115,1.6041867566287413,-0.5940276486076788,-1.2670409955313704,0,-12.5,0,-0.7,0,0,1354,1357,1540,1500,1500,1500
1747538733.4419649,-0.09,-0.29,-0.04,-0.32615840396644036,0.4046982203061852,0.04581489286485115,1.6041867566287413,-0.5940276486076788,-1.2670409955313704,0,-12.5,0,-0.7,0,0,1354,1357,1540,1500,1500,1500
1747538733.5255914,0.09,-0.4,0.07,-0.32506757318394386,0.49632800603588745,0.05672320068981571,1.5128606214830773,-0.6023098736355585,-1.1884193234759377,0,-12.5,0,-0.7,0,0,1354,1357,1540,1500,1500,1500
1747538733.6257539,-0.17,-0.26,0.05,-0.33052172709642613,0.5792311455056182,0.050178215994836975,1.403727969554555,-0.6020113852497472,-1.0856849599513538,0,-12.5,0,-0.7,0,0,1354,1357,1540,1500,1500,1500
1747538733.7254982,-0.17,-0.26,0.05,-0.33052172709642613,0.5792311455056182,0.050178215994836975,1.403727969554555,-0.6020113852497472,-1.0856849599513538,0,-12.5,0,-0.7,0,0,1354,1357,1540,1500,1500,1500
1747538733.8092515,-0.22,-0.25,-0.08,-0.3294308963139297,0.6534076387153771,0.05890486225480862,1.294961874140352,-0.5906817805396459,-0.9779370186098338,0,-12.5,0,-0.7,0,0,1354,1357,1540,1500,1500,1500
1747538733.908632,-0.22,-0.25,-0.08,-0.3294308963139297,0.6534076387153771,0.05890486225480862,1.294961874140352,-0.5906817805396459,-0.9779370186098338,0,-12.5,0,-0.7,0,0,1354,1357,1540,1500,1500,1500
1747538733.9915452,-0.16,-0.22,0.08,-0.33815754257390135,0.6981317007977318,0.05999569303730508,1.175949778902964,-0.5655892453079001,-0.855648745342697,0,-12.5,0,-0.7,0,0,1354,1357,1540,1500,1500,1500
1747538734.091692,-0.16,-0.22,0.08,-0.33815754257390135,0.6981317007977318,0.05999569303730508,1.175949778902964,-0.5655892453079001,-0.855648745342697,0,-12.5,0,-0.7,0,0,1354,1357,1540,1500,1500,1500
1747538734.191985,-0.26,-0.34,0.03,-0.3425208657038872,0.7613998861825263,0.07635815477475191,1.0574704296142343,-0.52593507834486,-0.7304101640951519,0,-12.5,0,-0.7,0,0,1354,1357,1540,1500,1500,1500
1747538734.275706,-0.41000000000000003,-0.66,0.14,-0.34033920413889424,0.8279405639148101,0.09381144729469522,0.9433023085775069,-0.470629124870735,-0.603374971373745,0,-12.5,0,-0.7,0,0,1354,1357,1540,1500,1500,1500
1747538734.3753037,-0.41000000000000003,-0.66,0.14,-0.34033920413889424,0.8279405639148101,0.09381144729469522,0.9433023085775069,-0.470629124870735,-0.603374971373745,0,-12.5,0,-0.7,0,0,1354,1357,1540,1500,1500,1500
1747538734.4748683,-0.34,-0.49,0.03,-0.35124751196385884,0.8748462875621577,0.11126473981463851,0.8365023775958698,-0.3993480644285247,-0.478906983945835,0,-12.5,0,-0.7,0,0,1354,1357,1540,1500,1500,1500
1747538734.575618,-0.27,-0.19,-0.11,-0.3665191429188092,0.9250245035569946,0.11671889372712078,0.7434949691001319,-0.31795372667480215,-0.36687475742863074,0,-12.5,0,-0.7,0,0,1354,1357,1540,1500,1500,1500
1747538734.6745465,-0.27,-0.19,-0.11,-0.3665191429188092,0.9250245035569946,0.11671889372712078,0.7434949691001319,-0.31795372667480215,-0.36687475742863074,0,-12.5,0,-0.7,0,0,1354,1357,1540,1500,1500,1500
1747538734.759003,-0.39,-0.42,0.06,-0.37742745074377376,0.9828385350293068,0.12871803233458182,0.6548186998340784,-0.2166237605197077,-0.25277191055463566,0,-12.5,0,-0.7,0,0,1354,1357,1540,1500,1500,1500
1747538734.859013,-0.39,-0.42,0.06,-0.37742745074377376,0.9828385350293068,0.12871803233458182,0.6548186998340784,-0.2166237605197077,-0.25277191055463566,0,-12.5,0,-0.7,0,0,1354,1357,1540,1500,1500,1500
1747538734.958545,-0.44,-0.42,-0.16,-0.39051742013373125,1.030835089459151,0.14289883250703572,0.5776446764318528,-0.10171545693291831,-0.14416060031690076,0,-12.5,0,-0.387548,0,0,1354,1358,1500,1500,1500,1500
1747538735.043359,-0.43,-0.44,-0.19,-0.40033489717619936,1.0777408131064985,0.17889624832941878,0.5162248993180527,0.01754800136808406,-0.04398095184835307,0,-12.5,0,1e-06,0,0,1354,1359,1460,1500,1500,1500
1747538735.1420288,-0.43,-0.44,-0.19,-0.40033489717619936,1.0777408131064985,0.17889624832941878,0.5162248993180527,0.01754800136808406,-0.04398095184835307,0,-12.5,0,1e-06,0,0,1354,1359,1420,1500,1500,1500
1747538735.2425218,-0.41000000000000003,-0.31,-0.1,-0.40033489717619936,1.0799224746714915,0.19198621771937624,0.4631575402592222,0.15259552974979285,0.06032154550985441,0,-12.5,0,1e-06,0,0,1354,1359,1383,1500,1500,1500
1747538735.3422832,-0.41000000000000003,-0.31,-0.1,-0.40033489717619936,1.0799224746714915,0.19198621771937624,0.4631575402592222,0.15259552974979285,0.06032154550985441,0,-12.5,0,1e-06,0,0,1354,1359,1383,1500,1500,1500
1747538735.4428635,-0.42,-0.33,-0.18,-0.40578905108868163,1.074468320759009,0.22362031041177347,0.42252173153550915,0.2898640917109035,0.16376451699099634,0,-12.5,0,1e-06,0,0,1354,1359,1383,1500,1500,1500
1747538735.5263367,-1.08,-0.61,-0.3,-0.3916082509162277,0.9795660426818175,0.24980024919168842,0.3963615003230719,0.4229491139162008,0.26810081268509944,0,-12.5,0,1e-06,0,0,1354,1359,1383,1500,1500,1500
1747538735.6258135,-1.08,-0.61,-0.3,-0.3916082509162277,0.9795660426818175,0.24980024919168842,0.3963615003230719,0.4229491139162008,0.26810081268509944,0,-12.5,0,1e-06,0,0,1354,1359,1383,1500,1500,1500
1747538735.7261531,-0.5,-0.14,-0.22,-0.35779249665883756,0.7733990247899872,0.26616271092913524,0.38088750671403704,0.5352252904892182,0.3583371121512463,0,-12.5,0,1e-06,0,0,1354,1359,1383,1500,1500,1500
1747538735.8257396,-0.53,-0.15,-0.36,-0.2923426497090502,0.6632251157578453,0.27379852640661045,0.379560452358327,0.6343524070449958,0.4525096204490167,0,-12.5,0,1e-06,0,0,1354,1359,1383,1500,1500,1500
1747538735.9258158,-0.53,-0.15,-0.36,-0.2923426497090502,0.6632251157578453,0.27379852640661045,0.379560452358327,0.6343524070449958,0.4525096204490167,0,-12.5,0,1e-06,0,0,1354,1359,1383,1500,1500,1500
1747538736.009547,-0.38,-0.24,-0.23,-0.2279836335417593,0.5672320068981571,0.2814343418840856,0.3978242434238313,0.7113681516216154,0.5487468466940694,0,-12.5,0,1e-06,0,0,1354,1359,1383,1500,1500,1500
1747538736.109133,-0.38,-0.24,-0.23,-0.2279836335417593,0.5672320068981571,0.2814343418840856,0.3978242434238313,0.7113681516216154,0.5487468466940694,0,-12.5,0,1e-06,0,0,1354,1359,1383,1500,1500,1500
1747538736.209546,-0.27,-0.16,-0.36,-0.17453292519943295,0.5006913291658733,0.2748893571891069,0.4289243913936208,0.7709730354836868,0.6392140468764855,0,-12.5,0,1e-06,0,0,1354,1359,1383,1500,1500,1500
1747538736.2928884,-0.27,-0.16,-0.36,-0.17453292519943295,0.5006913291658733,0.2748893571891069,0.4289243913936208,0.7709730354836868,0.6392140468764855,0,-12.5,0,1e-06,0,0,1354,1359,1383,1500,1500,1500
1747538736.3928914,-0.27,-0.16,-0.25,-0.12544553998709243,0.45160394395353276,0.27379852640661045,0.4781928484930499,0.8232703362630521,0.739019438308017,0,-12.5,0,1e-06,0,0,1354,1359,1383,1500,1500,1500
1747538736.493432,-0.14,-0.12,-0.09,-0.09926560120717749,0.40033489717619936,0.28579766501407144,0.5388472190843184,0.8625250756950854,0.8435319191469847,0,-12.5,0,1e-06,0,0,1354,1359,1383,1500,1500,1500
1747538736.5932374,-0.14,-0.12,-0.09,-0.09926560120717749,0.40033489717619936,0.28579766501407144,0.5388472190843184,0.8625250756950854,0.8435319191469847,0,-12.5,0,1e-06,0,0,1354,1359,1383,1500,1500,1500
1747538736.6924334,0.03,-0.09,-0.11,-0.08290313946973066,0.3523383427463553,0.2912518189265537,0.606925769790531,0.8899968814987766,0.9511804687084481,0,-12.5,0,1e-06,0,0,1354,1359,1383,1500,1500,1500
1747538736.7766857,-0.02,-0.22,-0.16,-0.05672320068981571,0.32506757318394386,0.29670597283903605,0.6810879964967052,0.9071028565324196,1.0595703043908853,0,-0.279849,0,1e-06,0,0,1394,1399,1423,1500,1500,1500
1747538736.876443,-0.02,-0.22,-0.16,-0.05672320068981571,0.32506757318394386,0.29670597283903605,0.6810879964967052,0.9071028565324196,1.0595703043908853,0,0,0,1e-06,0,0,1434,1439,1463,1500,1500,1500
1747538736.9757228,0.28,-0.1,-0.19,-0.017453292519943295,0.31306843457648287,0.31852258848896514,0.7579589938167692,0.9133824902632152,1.164210590983766,0,0,0,1e-06,0,0,1474,1479,1500,1500,1500,1500
1747538737.0586145,0.28,-0.1,-0.19,-0.017453292519943295,0.31306843457648287,0.31852258848896514,0.7579589938167692,0.9133824902632152,1.164210590983766,0,0,0,1e-06,0,0,1500,1500,1500,1500,1500,1500
1747538737.1597016,0.52,-0.11,-0.25,0.05345070834232634,0.3141592653589793,0.34033920413889424,0.8514894131600246,0.9112478499547608,1.2804761374331624,0,0,0,1e-06,0,0,1500,1500,1500,1500,1500,1500
1747538737.2591085,0.45,-0.07,-0.26,0.14726215563702155,0.24216443371421323,0.38942658935123475,0.9485049420707806,0.8941453945861808,1.3844957453682998,0,12.5,0,1e-06,0,0,1540,1540,1540,1500,1500,1500
1747538737.3584223,0.45,-0.07,-0.26,0.14726215563702155,0.24216443371421323,0.38942658935123475,0.9485049420707806,0.8941453945861808,1.3844957453682998,0,12.5,0,1e-06,0,0,1580,1580,1580,1500,1500,1500
1747538737.459309,0.29,-0.17,-0.29,0.20616701789183017,0.20289452554434081,0.4341506514335895,1.0529278405262015,0.8592883845196451,1.4841728134560577,0,12.5,0,1e-06,0,0,1620,1620,1616,1500,1500,1500
1747538737.5423727,0.29,-0.17,-0.29,0.20616701789183017,0.20289452554434081,0.4341506514335895,1.0529278405262015,0.8592883845196451,1.4841728134560577,0,12.5,0,1e-06,0,0,1645,1640,1616,1500,1500,1500
1747538737.6427915,1.09,-0.34,-0.41000000000000003,0.2814343418840856,0.1712604328519436,0.519235452468313,1.1561335845828702,0.8058065684629793,1.572036923547704,0,12.5,0,1e-06,0,0,1645,1640,1616,1500,1500,1500
1747538737.7420416,1.19,0.07,-0.31,0.41015237421866746,0.07963064712224129,0.6228643768054763,1.2599379920019629,0.721989687895444,1.6419876401658935,0,12.5,0,1e-06,0,0,1645,1640,1616,1500,1500,1500
1747538737.8419254,1.19,0.07,-0.31,0.41015237421866746,0.07963064712224129,0.6228643768054763,1.2599379920019629,0.721989687895444,1.6419876401658935,0,12.5,0,1e-06,0,0,1645,1640,1616,1500,1500,1500
1747538737.941702,0.8300000000000001,-0.05,-0.23,0.4919646829059016,-0.002181661564992912,0.4854196982109229,1.3492560563037788,0.6423290810712461,1.6778864495498922,0,12.5,0,1e-06,0,0,1645,1640,1616,1500,1500,1500
1747538738.025415,0.4,0.03,-0.33,0.5126904677733343,-0.019634954084936207,0.35997415822383044,1.4367765425932806,0.5732846308612267,1.6907532498405997,0,12.5,0,1e-06,0,0,1645,1640,1616,1500,1500,1500
1747538738.1259923,0.4,0.03,-0.33,0.5126904677733343,-0.019634954084936207,0.35997415822383044,1.4367765425932806,0.5732846308612267,1.6907532498405997,0,12.5,0,1e-06,0,0,1645,1640,1616,1500,1500,1500
1747538738.2250147,0.24,0.05,-0.15,0.47451139038595835,-0.028361600344907856,0.24652775684419906,1.510293852713684,0.5272361427616632,1.6934526221710502,0,12.5,0,1e-06,0,0,1645,1640,1616,1500,1500,1500
1747538738.3094656,0.24,0.05,-0.15,0.47451139038595835,-0.028361600344907856,0.24652775684419906,1.510293852713684,0.5272361427616632,1.6934526221710502,0,12.5,0,1e-06,0,0,1645,1640,1616,1500,1500,1500
1747538738.4092224,0.43,0.0,-0.18,0.4461497900410505,-0.08944812416470939,0.136353847812057,1.5771950190201334,0.49706246021302924,1.6846260552716759,0,12.5,0,1e-06,0,0,1645,1640,1616,1500,1500,1500
1747538738.492648,0.56,-0.07,-0.16,0.4908738521234052,-0.17780541754692233,0.08072147790473774,1.6372041312165913,0.48226997168054087,1.6624285557806149,0,12.5,0,1e-06,0,0,1645,1640,1616,1500,1500,1500
1747538738.5925477,0.56,-0.07,-0.16,0.4908738521234052,-0.17780541754692233,0.08072147790473774,1.6372041312165913,0.48226997168054087,1.6624285557806149,0,12.5,0,1e-06,0,0,1645,1640,1616,1500,1500,1500
1747538738.692728,0.46,-0.09,-0.11,0.5028729907308662,-0.27598018797160334,0.019634954084936207,1.6969869528884434,0.47711616755200603,1.6234028317740223,0,12.5,0,1e-06,0,0,1645,1640,1616,1500,1500,1500
1747538738.7756748,0.46,-0.09,-0.11,0.5028729907308662,-0.27598018797160334,0.019634954084936207,1.6969869528884434,0.47711616755200603,1.6234028317740223,0,12.5,0,1e-06,0,0,1645,1640,1616,1500,1500,1500
1747538738.8753486,0.52,-0.33,-0.06,0.49960049838337683,-0.33597588100890846,-0.001090830782496456,1.751071511234495,0.48364979738682246,1.570099534951297,0,12.5,0,1e-06,0,0,1645,1640,1616,1500,1500,1500
1747538738.9638143,-0.08,-0.13,-0.07,0.543233729683235,-0.40033489717619936,-0.011999138607461015,1.8022934587804245,0.49625173380071924,1.5064381022355737,0,12.5,0,1e-06,0,0,1645,1640,1616,1500,1500,1500
1747538739.0589075,-0.08,-0.13,-0.07,0.543233729683235,-0.40033489717619936,-0.011999138607461015,1.8022934587804245,0.49625173380071924,1.5064381022355737,0,12.5,0,1e-06,0,0,1645,1640,1616,1500,1500,1500
1747538739.1594148,0.18,-0.32,0.06,0.495237175253391,-0.4232423436086249,-0.011999138607461015,1.84608687734984,0.5119967838776742,1.439154456865907,0,0,0,1e-06,0,0,1605,1600,1576,1500,1500,1500
1747538739.2592516,0.18,-0.32,0.06,0.495237175253391,-0.4232423436086249,-0.011999138607461015,1.84608687734984,0.5119967838776742,1.439154456865907,0,0,0,1e-06,0,0,1565,1560,1536,1500,1500,1500
1747538739.3586714,-0.98,-0.19,0.41000000000000003,0.4145156973486533,-0.4265148359561143,0.00545415391248228,1.8812074972022186,0.5309825591656425,1.3666212193444556,0,0,0,1e-06,0,0,1525,1520,1500,1500,1500,1500
1747538739.458595,-0.36,0.13,-0.04,0.3174317577064687,-0.421060682043632,0.001090830782496456,1.8982455308935118,0.5522534978804597,1.2974528011169084,0,0,0,1e-06,0,0,1500,1500,1500,1500,1500,1500
1747538739.5426004,-0.36,0.13,-0.04,0.3174317577064687,-0.421060682043632,0.001090830782496456,1.8982455308935118,0.5522534978804597,1.2974528011169084,0,0,0,1e-06,0,0,1500,1500,1500,1500,1500,1500
1747538739.6422758,-0.25,0.05,0.03,0.20507618710933373,-0.3621558197888234,-0.025089107997418487,1.9005122930880551,0.5794812615201355,1.2302004590106275,1,0,0,1e-06,0,0,1460,1540,1536,1540,1540,1460
1747538739.7407913,-0.1,-0.1,0.01,0.14835298641951802,-0.32070425005395803,-0.039269908169872414,1.895764753602874,0.6015034104459022,1.176420718806008,1,0,0,1e-06,0,0,1446,1553,1536,1580,1580,1420
1747538739.8262918,-0.1,-0.1,0.01,0.14835298641951802,-0.32070425005395803,-0.039269908169872414,1.895764753602874,0.6015034104459022,1.176420718806008,1,0,0,1e-06,0,0,1446,1553,1536,1620,1596,1403
1747538739.9259086,-0.52,-0.31,0.07,0.14835298641951802,-0.2716168648416175,-0.05672320068981571,1.8868660607236507,0.6224669997731345,1.1248996925204915,1,0,0,1e-06,0,0,1446,1553,1536,1645,1596,1403
1747538740.0094209,-0.52,-0.31,0.07,0.14835298641951802,-0.2716168648416175,-0.05672320068981571,1.8868660607236507,0.6224669997731345,1.1248996925204915,1,0,0,1e-06,0,0,1446,1553,1536,1645,1596,1403
1747538740.109639,-0.4,1.67,0.07,0.14835298641951802,-0.2716168648416175,-0.05672320068981571,1.8997293409995941,0.6552116212903567,1.0903201472182364,1,0,0,1e-06,0,0,1446,1553,1536,1645,1596,1403
1747538740.2094245,-0.4,1.67,0.07,0.14835298641951802,-0.2716168648416175,-0.05672320068981571,1.8997293409995941,0.6552116212903567,1.0903201472182364,1,0,0,1e-06,0,0,1446,1553,1536,1645,1596,1403
1747538740.2926362,0.16,0.24,0.01,0.13962634015954636,-0.12871803233458182,-0.36760997370130566,1.9191212927270795,0.7092982677339172,1.0814080296458977,1,0,0,1e-06,0,0,1446,1553,1536,1645,1596,1403
1747538740.3917665,-0.01,0.05,-0.04,0.09490227807719166,-0.09708393964218458,-0.41996985126113556,1.9423211392595856,0.7706623579887343,1.0891471102829877,1,0,0,1e-06,0,0,1446,1553,1536,1645,1596,1403
1747538740.4926648,-0.01,0.05,-0.04,0.09490227807719166,-0.09708393964218458,-0.41996985126113556,1.9423211392595856,0.7706623579887343,1.0891471102829877,0,0,0,1e-06,0,0,1486,1513,1500,1605,1556,1443
1747538740.5916846,0.13,0.17,-0.14,0.07417649320975901,-0.09708393964218458,-0.4799655442984406,1.9665163737387288,0.8365605625815443,1.105945911617824,0,0,0,1e-06,0,0,1500,1500,1500,1565,1516,1483
1747538740.6813176,0.06,-0.26,-0.09,0.031634092692397225,-0.13308135546456762,-0.41560652813114973,1.9929054611231316,0.9103427598729347,1.1260112449030557,0,0,0,1e-06,0,0,1500,1500,1500,1525,1500,1500
1747538740.7756555,0.06,-0.26,-0.09,0.031634092692397225,-0.13308135546456762,-0.41560652813114973,1.9929054611231316,0.9103427598729347,1.1260112449030557,-1,0,0,1e-06,0,0,1540,1460,1463,1485,1460,1540
1747538740.8758326,-0.04,-0.26,-0.11,0.05672320068981571,-0.15489797111449674,-0.22907446432425577,-2.716063262340387,0.5596493983354341,-1.4437231646833357,-1,0,0,1e-06,0,0,1553,1446,1463,1445,1420,1580
1747538740.9757223,-0.04,-0.26,-0.11,0.05672320068981571,-0.15489797111449674,-0.22907446432425577,-2.716063262340387,0.5596493983354341,-1.4437231646833357,-1,0,0,1e-06,0,0,1553,1446,1463,1405,1403,1596
1747538741.0588107,-0.09,-0.1,0.26,0.11344640137963143,-0.15707963267948966,-0.0916297857297023,1.9955821255318371,0.9943740761559289,1.1070234181392506,-1,0,0,1e-06,0,0,1553,1446,1463,1365,1403,1596
1747538741.1591954,-0.09,-0.1,0.26,0.11344640137963143,-0.15707963267948966,-0.0916297857297023,1.9955821255318371,0.9943740761559289,1.1070234181392506,-1,0,0,1e-06,0,0,1553,1446,1463,1354,1403,1596
1747538741.2429025,0.8300000000000001,0.26,-0.1,-0.18871372537188688,-0.15271630954950383,0.08726646259971647,1.9582386995019703,1.001996153431618,1.0657735369412005,-1,0,0,1e-06,0,0,1553,1446,1463,1354,1403,1596
1747538741.3425655,-0.05,-0.8300000000000001,0.0,-0.6228643768054763,-0.13526301702956053,0.2519819107566813,1.8416557482285631,0.9834582386818486,1.011868325065565,-1,0,0,1e-06,0,0,1553,1446,1463,1354,1403,1596
1747538741.4424372,-0.05,-0.8300000000000001,0.0,-0.6228643768054763,-0.13526301702956053,0.2519819107566813,1.8416557482285631,0.9834582386818486,1.011868325065565,-1,0,0,1e-06,0,0,1553,1446,1463,1354,1403,1596
1747538741.5257585,0.25,-0.47000000000000003,0.01,-0.31852258848896514,-0.12217304763960307,0.5257804371632918,1.732440905843145,0.9351192024810422,0.9589147408268586,-1,0,0,1e-06,0,0,1553,1446,1463,1354,1403,1596
1747538741.6259499,0.25,-0.47000000000000003,0.01,-0.31852258848896514,-0.12217304763960307,0.5257804371632918,1.732440905843145,0.9351192024810422,0.9589147408268586,-1,0,0,1e-06,0,0,1553,1446,1463,1354,1403,1596
1747538741.7260785,0.22,-0.29,-0.16,-0.10035643198967395,-0.1461713248545251,0.6872233929727672,1.6620439927885486,0.8462252984194835,0.9089575130762219,-1,0,0,1e-06,0,0,1553,1446,1463,1354,1403,1596
1747538741.8261156,0.14,-0.3,-0.06,0.020725784867432664,-0.18544123302439752,0.7875798249624412,1.6258261982381115,0.7412935731064005,0.8640774576171547,-1,0,0,1e-06,0,0,1553,1446,1463,1354,1403,1596
1747538741.9254801,0.14,-0.3,-0.06,0.020725784867432664,-0.18544123302439752,0.7875798249624412,1.6258261982381115,0.7412935731064005,0.8640774576171547,-1,0,0,1e-06,0,0,1553,1446,1463,1354,1403,1596
1747538742.0089052,-0.01,-0.37,0.0,0.019634954084936207,-0.19525871006686563,0.8344855486097889,1.6018557357687384,0.616794087721033,0.8192115157353594,-1,0,0,1e-06,0,0,1553,1446,1463,1354,1403,1596
1747538742.1090908,0.22,-0.25,-0.18,0.01090830782496456,-0.23234695667174513,0.8595746566072073,1.582133240460314,0.4861095402117685,0.777997316334332,-1,0,0,1e-06,0,0,1553,1446,1463,1354,1403,1596
1747538742.2089763,0.22,-0.25,-0.18,0.01090830782496456,-0.23234695667174513,0.8595746566072073,1.582133240460314,0.4861095402117685,0.777997316334332,-1,0,0,1e-06,0,0,1553,1446,1463,1354,1403,1596
1747538742.2918494,0.33,-0.2,-0.3,-0.02399827721492203,-0.27379852640661045,0.8770279491271507,1.5635688301356891,0.350941587267005,0.733639764712756,-1,0,0,1e-06,0,0,1553,1446,1463,1354,1403,1596
1747538742.3927064,0.33,-0.2,-0.3,-0.02399827721492203,-0.27379852640661045,0.8770279491271507,1.5635688301356891,0.350941587267005,0.733639764712756,-1,0,0,1e-06,0,0,1553,1446,1463,1354,1403,1596
1747538742.4919806,0.17,-0.3,-0.03,-0.1189005552921137,-0.31306843457648287,0.868301302867179,1.539236286492516,0.2149414154239534,0.6881542582165436,-1,0,0,1e-06,0,0,1553,1446,1463,1354,1403,1596
1747538742.5923228,0.17,-0.39,-0.17,-0.21598449493429828,-0.33052172709642613,0.8617563181722002,1.5079158109307589,0.08784901416383972,0.6467992585440778,-1,0,0,1e-06,0,0,1553,1446,1463,1354,1403,1596
1747538742.6921074,0.17,-0.39,-0.17,-0.21598449493429828,-0.33052172709642613,0.8617563181722002,1.5079158109307589,0.08784901416383972,0.6467992585440778,-1,0,0,1e-06,0,0,1553,1446,1463,1354,1403,1596
1747538742.7756155,0.24,-0.19,-0.33,-0.28907015736156083,-0.32179508083645453,0.8399397025222711,1.4673504808104834,-0.04838147056999638,0.6071838390902097,-1,0,0,1e-06,0,0,1553,1446,1463,1354,1403,1596
1747538742.875111,0.24,-0.19,-0.33,-0.28907015736156083,-0.32179508083645453,0.8399397025222711,1.4673504808104834,-0.04838147056999638,0.6071838390902097,-1,0,0,1e-06,0,0,1553,1446,1463,1354,1403,1596
1747538742.9756632,0.28,-0.35000000000000003,-0.23,-0.3687008044838021,-0.29888763440402893,0.8268497331323136,1.4222246100069353,-0.17472097775361065,0.5765459013173734,-1,0,0,1e-06,0,0,1553,1446,1463,1354,1403,1596
1747538743.0588276,0.27,-0.33,-0.33,-0.4134248665661568,-0.2552544031041707,0.8115781021773633,1.366175259284217,-0.30722531059999214,0.5558256995613403,-1,0,0,1e-06,0,0,1553,1446,1463,1354,1403,1596
1747538743.1588943,0.27,-0.33,-0.33,-0.4134248665661568,-0.2552544031041707,0.8115781021773633,1.366175259284217,-0.30722531059999214,0.5558256995613403,-1,0,0,1e-06,0,0,1553,1446,1463,1354,1403,1596
1747538743.2426639,0.29,-0.31,-0.39,-0.43960480534607177,-0.2301652951067522,0.7973973020049093,1.3037985569154618,-0.43753006653116416,0.5473401641333637,-1,0,0,1e-06,0,0,1553,1446,1463,1354,1403,1596
1747538743.3427002,0.29,-0.31,-0.39,-0.43960480534607177,-0.2301652951067522,0.7973973020049093,1.3037985569154618,-0.43753006653116416,0.5473401641333637,-1,0,0,1e-06,0,0,1553,1446,1463,1354,1403,1596
1747538743.4420812,0.12,-0.42,-0.46,-0.41560652813114973,-0.2181661564992912,0.791943148092427,1.23601452287525,-0.566466767962362,0.5507440428322338,0,0,0,1e-06,0,0,1513,1486,1500,1394,1443,1556
1747538743.5257394,0.11,-0.3,-0.46,-0.433059820651093,-0.20398535632683726,0.7733990247899872,1.1615135902271525,-0.6914232174068451,0.5677897933770011,0,-6.616611,0,1e-06,0,0,1473,1446,1460,1434,1483,1516
1747538743.6259687,0.11,-0.3,-0.46,-0.433059820651093,-0.20398535632683726,0.7733990247899872,1.1615135902271525,-0.6914232174068451,0.5677897933770011,0,-12.5,0,1e-06,0,-0.040469,1433,1406,1420,1474,1500,1500
1747538743.7248895,0.21,-0.29,-0.44,-0.2585268954516601,-0.17889624832941878,0.607592745850526,1.0939821709070021,-0.793869324170536,0.5930931833311225,0,-12.5,0,1e-06,0,-0.088729,1393,1366,1383,1500,1500,1500
1747538743.8093193,0.21,-0.29,-0.44,-0.2585268954516601,-0.17889624832941878,0.607592745850526,1.0939821709070021,-0.793869324170536,0.5930931833311225,0,-12.5,0,1e-06,0,-0.092892,1354,1359,1383,1500,1500,1500
1747538743.9080048,-0.5700000000000001,0.02,-0.54,-0.1189005552921137,-0.2181661564992912,0.4603305902135044,1.0588385050021853,-0.8806627633193354,0.608995668288526,0,-12.5,0,1e-06,0,-0.092892,1354,1359,1383,1500,1500,1500
1747538744.0094564,-0.74,-0.1,-0.46,-0.16907877128695067,-0.38288160465625604,0.30325095753401476,1.0652272825652789,-0.9519612503530278,0.5788415116934115,0,-12.5,0,1e-06,0,-0.09715,1354,1359,1383,1500,1500,1500
1747538744.1084862,-0.74,-0.1,-0.46,-0.16907877128695067,-0.38288160465625604,0.30325095753401476,1.0652272825652789,-0.9519612503530278,0.5788415116934115,0,-12.5,0,1e-06,0,-0.09715,1354,1359,1383,1500,1500,1500
1747538744.208234,-0.8300000000000001,-0.42,-0.3,-0.3108867730114899,-0.18980455615438332,0.1810779098944117,1.0583205215671676,-1.001381157656854,0.5392975284036888,0,-12.5,0,1e-06,0,-0.09715,1354,1359,1383,1500,1500,1500
1747538744.2918587,-0.8300000000000001,-0.42,-0.3,-0.3108867730114899,-0.18980455615438332,0.1810779098944117,1.0583205215671676,-1.001381157656854,0.5392975284036888,0,-12.5,0,1e-06,0,-0.09715,1354,1359,1383,1500,1500,1500
1747538744.3921356,-0.31,-0.42,-0.39,-0.30325095753401476,-0.07417649320975901,0.055632369907319255,1.0316143487227356,-1.0270243137929647,0.5191843080528982,0,-12.5,0,1e-06,0,-0.09715,1354,1359,1383,1500,1500,1500
1747538744.494441,-0.25,-0.06,-0.29,-0.28361600344907856,0.031634092692397225,-0.04581489286485115,0.9953957442403732,-1.0325069564798877,0.5092190143506438,0,-12.5,0,1e-06,0,-0.09715,1354,1359,1383,1500,1500,1500
1747538744.59309,-0.25,-0.06,-0.29,-0.28361600344907856,0.031634092692397225,-0.04581489286485115,0.9953957442403732,-1.0325069564798877,0.5092190143506438,0,-12.5,0,1e-06,0,-0.09715,1354,1359,1383,1500,1500,1500
1747538744.6939037,-0.23,-0.32,-0.29,-0.2825251726665821,0.09381144729469522,-0.09490227807719166,0.952190467549903,-1.0207315096535656,0.5087025839314052,0,-12.5,0,1e-06,0,-0.09715,1354,1359,1383,1500,1500,1500
1747538744.775532,-0.23,-0.32,-0.29,-0.2825251726665821,0.09381144729469522,-0.09490227807719166,0.952190467549903,-1.0207315096535656,0.5087025839314052,0,-12.5,0,1e-06,0,-0.09715,1354,1359,1383,1500,1500,1500
1747538744.874871,-0.31,-0.22,-0.31,-0.2748893571891069,0.15489797111449674,-0.09490227807719166,0.8997050252085017,-1.0002906170583943,0.5198305396758472,0,-12.5,0,1e-06,0,-0.09715,1354,1359,1383,1500,1500,1500
1747538744.9756677,-0.52,-0.11,-0.42,-0.2552544031041707,0.16471544815696484,-0.09381144729469522,0.8506245197964001,-0.9772186077768957,0.534096608445756,0,-12.5,0,1e-06,0,-0.09715,1354,1359,1383,1500,1500,1500
1747538745.0748863,-0.52,-0.11,-0.42,-0.2552544031041707,0.16471544815696484,-0.09381144729469522,0.8506245197964001,-0.9772186077768957,0.534096608445756,0,-12.5,0,1e-06,0,-0.09715,1354,1359,1383,1500,1500,1500
1747538745.175612,-0.13,-0.29,-0.18,-0.2519819107566813,0.15817046346198613,-0.10253809355466686,0.7998682773545626,-0.9495783354972691,0.547276720241206,0,-12.5,0,1e-06,0,-0.09715,1354,1359,1383,1500,1500,1500
1747538745.2595794,0.11,0.0,-0.18,-0.24652775684419906,0.14835298641951802,-0.08399397025222712,0.7536010759492111,-0.9267496315865176,0.5585559749133517,0,-12.5,0,1e-06,0,-0.09715,1354,1359,1383,1500,1500,1500
1747538745.3582966,0.11,0.0,-0.18,-0.24652775684419906,0.14835298641951802,-0.08399397025222712,0.7536010759492111,-0.9267496315865176,0.5585559749133517,0,-12.5,0,1e-06,0,-0.09715,1354,1359,1383,1500,1500,1500
1747538745.458614,-0.06,-0.32,-0.14,-0.2279836335417593,0.1407171709420428,-0.08290313946973066,0.7073426497581141,-0.9036798089473143,0.5693579257832545,0,-12.5,0,1e-06,0,-0.09715,1354,1359,1383,1500,1500,1500
1747538745.5428536,-0.06,-0.32,-0.14,-0.2279836335417593,0.1407171709420428,-0.08290313946973066,0.7073426497581141,-0.9036798089473143,0.5693579257832545,0,-12.5,0,1e-06,0,-0.09715,1354,1359,1383,1500,1500,1500
1747538745.6426506,0.08,-0.22,-0.03,-0.19525871006686563,0.11780972450961724,-0.05781403147231216,0.6665025882458765,-0.8835133122663117,0.5785993007679958,0,-12.5,0,1e-06,0,-0.09715,1354,1359,1383,1500,1500,1500
1747538745.7424304,0.13,-0.28,-0.12,-0.19198621771937624,0.1090830782496456,-0.04036073895236887,0.6298661994254855,-0.8671575347923395,0.5865281275065256,0,-12.5,0,1e-06,0,-0.09715,1354,1359,1383,1500,1500,1500
1747538745.842665,0.13,-0.28,-0.12,-0.19198621771937624,0.1090830782496456,-0.04036073895236887,0.6298661994254855,-0.8671575347923395,0.5865281275065256,0,-12.5,0,1e-06,0,-0.09715,1354,1359,1383,1500,1500,1500
1747538745.9415014,-0.07,-0.06,-0.1,-0.18435040224190105,0.10144726277217041,-0.026179938779914945,0.5941862451269871,-0.8529383198284475,0.594923394730404,0,-12.5,0,1e-06,0,-0.09715,1354,1359,1383,1500,1500,1500
1747538746.025637,-0.07,-0.06,-0.1,-0.18435040224190105,0.10144726277217041,-0.026179938779914945,0.5941862451269871,-0.8529383198284475,0.594923394730404,0,-12.5,0,1e-06,0,-0.09715,1354,1359,1383,1500,1500,1500
1747538746.125178,0.07,-0.12,-0.09,-0.1810779098944117,0.0916297857297023,-0.011999138607461015,0.5604111214193089,-0.8412541101804549,0.603001406095335,0,-12.5,0,1e-06,0,-0.09715,1354,1359,1383,1500,1500,1500
1747538746.2248113,0.06,-0.11,-0.19,-0.16907877128695067,0.08072147790473774,0.016362461737446838,0.52503114785606,-0.8316890904988737,0.6142006142492463,0,-12.5,0,1e-06,0,-0.09715,1354,1359,1383,1500,1500,1500
1747538746.3253753,0.06,-0.11,-0.19,-0.16907877128695067,0.08072147790473774,0.016362461737446838,0.52503114785606,-0.8316890904988737,0.6142006142492463,0,-12.5,0,1e-06,0,-0.09715,1354,1359,1383,1500,1500,1500
1747538746.4259813,0.02,-0.05,-0.17,-0.1407171709420428,0.06544984694978735,0.04254240051736178,0.49206654670218053,-0.8258183485279906,0.6283165294769203,0,-12.5,0,1e-06,0,-0.09715,1354,1359,1383,1500,1500,1500
1747538746.5093753,0.01,0.0,-0.13,-0.11780972450961724,0.050178215994836975,0.05672320068981571,0.46126475031375586,-0.8226783050012041,0.6441236160687959,0,-12.5,0,1e-06,0,-0.09715,1354,1359,1383,1500,1500,1500
1747538746.6099517,0.01,0.0,-0.13,-0.11780972450961724,0.050178215994836975,0.05672320068981571,0.46126475031375586,-0.8226783050012041,0.6441236160687959,0,-10.903319,0,1e-06,0,-0.055557,1354,1359,1383,1500,1500,1500
1747538746.7095475,-0.03,-0.21,-0.01,-0.09272061651219876,0.04363323129985824,0.07308566242726255,0.4298359308722519,-0.8209776186558496,0.6634994769230721,0,0,0,1e-06,-0.030725,0,1394,1399,1423,1500,1500,1500
1747538746.7916293,-0.03,-0.21,-0.01,-0.09272061651219876,0.04363323129985824,0.07308566242726255,0.4298359308722519,-0.8209776186558496,0.6634994769230721,0,0,0,1e-06,-0.195166,0,1434,1439,1463,1500,1460,1540
1747538746.8915174,-0.17,-0.07,-0.23,-0.08508480103472356,0.038179077387375956,0.0916297857297023,0.3981057704773053,-0.8209777061160317,0.68668728813547,0,0,0,0.007013,-0.28,0,1474,1479,1460,1500,1420,1580
1747538746.9918044,0.54,-0.24,-0.08,0.007635815477475192,0.04690572364734761,0.11780972450961724,0.37123458194855036,-0.8290594835119796,0.7125191778416264,0,0,0,1e-06,-0.28,0,1463,1463,1500,1500,1380,1620
1747538747.09203,0.54,-0.24,-0.08,0.007635815477475192,0.04690572364734761,0.11780972450961724,0.37123458194855036,-0.8290594835119796,0.7125191778416264,0,0,0,0,-0.28,0,1463,1463,1536,1500,1354,1645
1747538747.1904447,0.33,0.08,-0.15,-0.05235987755982989,0.001090830782496456,0.12326387842209953,0.35291979750728153,-0.8375723435811877,0.7420968226900754,0,0,0,0,-0.28,0,1463,1463,1536,1500,1354,1645
1747538747.2746925,0.33,0.08,-0.15,-0.05235987755982989,0.001090830782496456,0.12326387842209953,0.35291979750728153,-0.8375723435811877,0.7420968226900754,0,0,0,0,-0.28,0,1463,1463,1536,1500,1354,1645
1747538747.3749838,0.43,0.22,-0.08,-1.1071932442339028,0.008726646259971648,0.03381575425739013,0.28073778228293833,-0.8455186560697567,0.7535436287987556,0,0,0,0,-0.28,0,1463,1463,1536,1500,1354,1645
1747538747.4756083,0.19,-0.03,-0.28,-2.0976675947406846,0.04908738521234052,0.004363323129985824,0.03381852500145782,-0.8415484803505372,0.7549141150913502,0,0,0,0,-0.28,0,1463,1463,1536,1500,1354,1645
1747538747.5576658,0.19,-0.03,-0.28,-2.0976675947406846,0.04908738521234052,0.004363323129985824,0.03381852500145782,-0.8415484803505372,0.7549141150913502,0,0,0,0,-0.28,0,1463,1463,1536,1500,1354,1645
1747538747.6592956,0.01,-0.06,-0.54,-2.333287043759919,0.18435040224190105,0.008726646259971648,-0.3101820372082031,-0.8230836922868825,0.7501518289125931,0,0,0,0,0,0,1500,1500,1500,1500,1394,1605
1747538747.7585347,-0.14,-0.24,-0.73,-2.482730860961934,0.23125612588924865,0.044724062082354694,-0.6499357354783114,-0.7932032932765187,0.7357736633829746,0,0,0,0,0,0,1500,1500,1500,1500,1434,1565
1747538747.8584712,-0.14,-0.24,-0.73,-2.482730860961934,0.23125612588924865,0.044724062082354694,-0.6499357354783114,-0.7932032932765187,0.7357736633829746,0,0,0,0,0,0,1500,1500,1500,1500,1474,1525
1747538747.9593155,-0.21,-0.63,-0.5700000000000001,-1.9056813770213086,0.20725784867432664,0.07526732399225546,-0.9772833512923265,-0.7635786986756403,0.7083287083785932,0,0,0,0,0,0,1500,1500,1500,1500,1500,1500
1747538748.0426614,-0.21,-0.63,-0.5700000000000001,-1.9056813770213086,0.20725784867432664,0.07526732399225546,-0.9772833512923265,-0.7635786986756403,0.7083287083785932,0,0,0,0,0,0,1500,1500,1500,1500,1500,1500
1747538748.141251,-0.08,-0.49,-0.45,-1.1802789066611654,0.16471544815696484,0.11780972450961724,-1.195564968674576,-0.7363775971428353,0.6829614319774173,0,0,0,0,0,0,1500,1500,1500,1500,1500,1500
1747538748.242117,-0.25,-0.27,-0.42,-0.6130468997630083,0.11562806294462433,0.15707963267948966,-1.3190247975667133,-0.7066417836101971,0.6670790188342995,0,5.334293,0,0,0,0,1540,1540,1540,1500,1500,1500
1747538748.3416457,-0.25,-0.27,-0.42,-0.6130468997630083,0.11562806294462433,0.15707963267948966,-1.3190247975667133,-0.7066417836101971,0.6670790188342995,0,12.5,0,0,0,0,1580,1580,1580,1500,1500,1500
1747538748.4409828,-0.24,-0.12,-0.29,-0.2596177262341565,0.0916297857297023,0.18762289458939044,-1.3835400983091504,-0.6724237458768829,0.6597131688256089,0,12.5,0,0,0,0,1620,1620,1616,1500,1500,1500
1747538748.5264254,-0.24,-0.12,-0.29,-0.2596177262341565,0.0916297857297023,0.18762289458939044,-1.3835400983091504,-0.6724237458768829,0.6597131688256089,0,12.5,0,0,0,0,1645,1640,1616,1500,1500,1500
1747538748.6252444,-0.12,0.08,-0.32,0.01090830782496456,0.08290313946973066,0.19962203319685143,-1.4005231448588706,-0.6403794554965473,1.9931621114077158,0,12.5,0,0,0,0,1645,1640,1616,1500,1500,1500
1747538748.725278,1.04,-0.1,-0.42,0.19416787928436915,0.06763150851478027,0.22362031041177347,-1.3839271743180235,-0.6054918148459041,1.9766676517419601,0,12.5,0,0,0,0,1645,1640,1616,1500,1500,1500
1747538748.8080008,1.04,-0.1,-0.42,0.19416787928436915,0.06763150851478027,0.22362031041177347,-1.3839271743180235,-0.6054918148459041,1.9766676517419601,0,12.5,0,0,0,0,1645,1640,1616,1500,1500,1500
1747538748.9085243,0.28,-0.07,-0.33,0.29670597283903605,-0.016362461737446838,0.2181661564992912,-1.3499670473288612,-0.573524123600416,1.9808505758457615,0,12.5,0,0,0,0,1645,1640,1616,1500,1500,1500
1747538748.9971611,0.17,0.07,-0.11,0.3425208657038872,-0.10035643198967395,0.18980455615438332,-1.3158212231698412,-0.5477598953739693,2.0041192673227735,0,12.5,0,0,0,0,1645,1640,1616,1500,1500,1500
1747538749.0924165,0.17,0.07,-0.11,0.3425208657038872,-0.10035643198967395,0.18980455615438332,-1.3158212231698412,-0.5477598953739693,2.0041192673227735,0,12.5,0,0,0,0,1645,1640,1616,1500,1500,1500
1747538749.1926003,-0.29,-0.02,-0.25,0.4177881896961426,-0.15817046346198613,0.13308135546456762,-1.2734562489372636,-0.5303543208661144,2.0363202481114633,0,12.5,0,0,0,0,1645,1640,1616,1500,1500,1500
1747538749.2756095,-0.29,-0.02,-0.25,0.4177881896961426,-0.15817046346198613,0.13308135546456762,-1.2734562489372636,-0.5303543208661144,2.0363202481114633,0,0.070969,0,-0.012408,0,0,1605,1600,1576,1500,1500,1500
1747538749.3751752,-0.31,0.07,-0.15,0.42978732830360367,-0.18762289458939044,0.06763150851478027,-1.2303999444170057,-0.5240109260233456,2.070715693038457,0,0,0,-0.7,0,0,1565,1560,1616,1500,1500,1500
1747538749.4731724,-0.48,-0.14,0.08,0.4406956361285682,-0.22143864884678055,0.011999138607461015,-1.1805763759030585,-0.529132922981004,2.1074313300780396,0,0,0,-0.7,0,0,1525,1520,1645,1500,1500,1500
1747538749.5581443,-0.48,-0.14,0.08,0.4406956361285682,-0.22143864884678055,0.011999138607461015,-1.1805763759030585,-0.529132922981004,2.1074313300780396,0,0,0,-0.7,0,0,1485,1480,1645,1500,1500,1500
1747538749.6583176,0.06,0.14,-0.17,0.33161255787892263,0.10690141668465268,-0.04036073895236887,-1.1267915381842668,-0.5327899813402814,2.116646965151936,0,0,0,-0.7,0,0,1445,1440,1645,1500,1500,1500
1747538749.7583067,0.06,0.14,-0.17,0.33161255787892263,0.10690141668465268,-0.04036073895236887,-1.1267915381842668,-0.5327899813402814,2.116646965151936,0,0,0,-0.7,0,0,1409,1409,1645,1500,1500,1500
1747538749.8581169,-0.16,0.24,-0.13,0.27598018797160334,0.3239767424014474,-0.09926560120717749,-1.0632428581641327,-0.5258190404496936,2.0780106689436564,0,0,0,-0.7,0,0,1409,1409,1645,1500,1500,1500
1747538749.9583192,-0.51,-0.16,-0.23,0.20616701789183017,0.4886921905584123,-0.20507618710933373,-0.9889633286752677,-0.5113168331291358,2.0031153598499785,0,0,0,-0.7,0,0,1409,1409,1645,1500,1500,1500
1747538750.0415459,-0.51,-0.16,-0.23,0.20616701789183017,0.4886921905584123,-0.20507618710933373,-0.9889633286752677,-0.5113168331291358,2.0031153598499785,0,0,0,-0.7,0,0,1409,1409,1645,1500,1500,1500
1747538750.1422927,-0.32,0.02,-0.21,0.20616701789183017,0.6970408700152354,-0.20398535632683726,-0.9127763185640616,-0.48433401100211293,1.9040194778662833,0,0,0,-0.7,0,0,1409,1409,1645,1500,1500,1500
1747538750.2418704,-0.32,0.02,-0.21,0.20616701789183017,0.6970408700152354,-0.20398535632683726,-0.9127763185640616,-0.48433401100211293,1.9040194778662833,0,0,0,-0.7,0,0,1409,1409,1645,1500,1500,1500
1747538750.3415432,-0.21,0.1,-0.31,0.20943951023931956,0.8344855486097889,-0.13199052468207118,-0.8302100124875709,-0.42452100621071703,1.7845569832854578,0,0,0,-0.7,0,0,1409,1409,1645,1500,1500,1500
1747538750.4409451,-0.37,-0.04,-0.28,0.2628902185816459,0.9446594576419308,-0.06763150851478027,-0.7528645492774072,-0.33665732333452775,1.667976356101471,0,0,0,-0.7,0,0,1409,1409,1645,1500,1500,1500
1747538750.525056,-0.37,-0.04,-0.28,0.2628902185816459,0.9446594576419308,-0.06763150851478027,-0.7528645492774072,-0.33665732333452775,1.667976356101471,0,0,0,-0.7,0,0,1409,1409,1645,1500,1500,1500
1747538750.6242304,-0.14,0.21,-0.39,0.2977968036215325,1.0450158896316049,-0.04145156973486533,-0.6823484997951185,-0.23297794770864144,1.5630310183712743,0,0,0,-0.7,0,0,1409,1409,1645,1500,1500,1500
1747538750.724742,-0.14,0.21,-0.39,0.2977968036215325,1.0450158896316049,-0.04145156973486533,-0.6823484997951185,-0.23297794770864144,1.5630310183712743,0,0,0,-0.7,0,0,1409,1409,1645,1500,1500,1500
1747538750.808509,-0.21,0.11,-0.33,0.31525009614147576,1.1475539831862718,-0.031634092692397225,-0.6153395796565897,-0.10108588251422784,1.454608236073149,0,-5.746281,0,-0.7,0,0,1369,1369,1605,1500,1500,1500
1747538750.9092507,-0.08,-0.13,-0.31,0.3272492347489368,1.215185491701052,-0.008726646259971648,-0.563046021029673,0.05004842567307783,1.350472570216037,0,-11.096939,0,0,0,-0.017449,1354,1359,1565,1500,1500,1500
1747538751.0085914,-0.08,-0.13,-0.31,0.3272492347489368,1.215185491701052,-0.008726646259971648,-0.563046021029673,0.05004842567307783,1.350472570216037,0,-12.5,0,0,0,-0.023353,1354,1359,1525,1500,1500,1500
1747538751.1079443,-0.87,0.09,-0.29,0.2716168648416175,1.1944597068336194,0.04363323129985824,-0.5294242532441661,0.20269660140644202,1.2591981215190966,0,-12.5,0,0,0,-0.023353,1354,1359,1485,1500,1500,1500
1747538751.2084947,-0.5,0.06,-0.23,0.22471114119426994,1.030835089459151,0.14180800172453928,-0.512076241413695,0.35977847950559694,1.1820974301933829,0,-12.5,0,0,0,-0.023353,1354,1359,1445,1500,1500,1500
1747538751.292351,-0.5,0.06,-0.23,0.22471114119426994,1.030835089459151,0.14180800172453928,-0.512076241413695,0.35977847950559694,1.1820974301933829,0,-12.5,0,0,0,-0.025512,1354,1359,1405,1500,1500,1500
1747538751.3916023,-0.35000000000000003,0.07,-0.33,0.17780541754692233,0.868301302867179,0.2792526803190927,-0.4997309985031943,0.4950730708531008,1.1390116593537132,0,-12.5,0,0,0,-0.025512,1354,1359,1383,1500,1500,1500
1747538751.492091,-0.35000000000000003,0.07,-0.33,0.17780541754692233,0.868301302867179,0.2792526803190927,-0.4997309985031943,0.4950730708531008,1.1390116593537132,0,-12.5,0,0,0,-0.027766,1354,1359,1383,1500,1500,1500
1747538751.5913246,-0.2,-0.09,-0.42,0.09272061651219876,0.6828600698427815,0.32615840396644036,-0.4885626459712851,0.625063994557337,1.1208668129421793,0,-12.5,0,0,0,-0.027766,1354,1359,1383,1500,1500,1500
1747538751.6915894,-0.22,-0.11,-0.3,0.05235987755982989,0.40906154343617096,0.3119776037939864,-0.475938466996702,0.7251611823686057,1.1261788164779454,0,-8.37155,0,0,0,-0.027766,1354,1359,1383,1500,1500,1500
