time,ay,ax,az,gy,gx,gz,roll,pitch,yaw,cmd_fx,cmd_fy,cmd_fz,cmd_tx,cmd_ty,cmd_tz,pwm_1,pwm_2,pwm_3,pwm_4,pwm_5,pwm_6
1747553769.7632048,0.0,0.0,0.0,0.0,0.0,0.0,0.0,0.0,0.0,0,0,0,0,0,0,1500,1500,1500,1500,1500,1500
1747553769.8582103,-0.06,-0.26,0.12,-0.019634954084936207,-0.004363323129985824,-0.019634954084936207,2.0233910065712197,-0.1582000899096764,-0.2510967989863863,0,0,0,0,0,0,1500,1500,1500,1500,1500,1500
1747553769.959995,-0.06,-0.26,0.12,-0.019634954084936207,-0.004363323129985824,-0.019634954084936207,2.0233910065712197,-0.1582000899096764,-0.2510967989863863,0,0,0,0,0,0,1500,1500,1500,1500,1500,1500
1747553770.0427582,-0.02,-0.25,0.05,-0.013089969389957472,-0.009817477042468103,-0.019634954084936207,2.020391774720113,-0.15540245865606953,-0.25019651273408944,0,0,0,0,0,0,1500,1500,1500,1500,1500,1500
1747553770.143014,-0.02,-0.25,0.05,-0.013089969389957472,-0.009817477042468103,-0.019634954084936207,2.020391774720113,-0.15540245865606953,-0.25019651273408944,0,0,0,0,0,0,1500,1500,1500,1500,1500,1500
1747553770.2454412,0.0,-0.29,0.16,-0.013089969389957472,-0.009817477042468103,-0.011999138607461015,2.0191139224562002,-0.15306944949362014,-0.2491497603492735,0,0,0,0,0,0,1500,1500,1500,1500,1500,1500
1747553770.3429747,-0.01,-0.07,-0.02,0.003272492347489368,0.002181661564992912,0.007635815477475192,2.0191184703490017,-0.15249662964417243,-0.24892547054599368,0,0,0,0,0,0,1500,1500,1500,1500,1500,1500
1747553770.444007,-0.01,-0.07,-0.02,0.003272492347489368,0.002181661564992912,0.007635815477475192,2.0191184703490017,-0.15249662964417243,-0.24892547054599368,0,0,0,0,0,0,1500,1500,1500,1500,1500,1500
1747553770.525722,0.01,-0.04,0.01,0.004363323129985824,0.001090830782496456,0.009817477042468103,2.0191584216693794,-0.15266548439127614,-0.2489698516335326,0,0,0,0,0,0,1500,1500,1500,1500,1500,1500
1747553770.6259563,0.01,-0.04,0.01,0.004363323129985824,0.001090830782496456,0.009817477042468103,2.0191584216693794,-0.15266548439127614,-0.2489698516335326,0,0,0,0,0,0,1500,1500,1500,1500,1500,1500
1747553770.7295148,-0.02,-0.04,-0.01,0.004363323129985824,0.0,0.009817477042468103,2.0191139224562002,-0.15306944949362014,-0.2491497603492735,0,0,0,0,0,0,1500,1500,1500,1500,1500,1500
1747553770.8276427,-0.01,0.0,0.01,0.001090830782496456,-0.003272492347489368,0.008726646259971648,2.019254656721195,-0.15411210157385516,-0.24968009138747735,0,0,0,0,0,0,1500,1500,1500,1500,1500,1500
1747553770.9271066,-0.01,0.0,0.01,0.001090830782496456,-0.003272492347489368,0.008726646259971648,2.019254656721195,-0.15411210157385516,-0.24968009138747735,0,0,0,0,0,0,1500,1500,1500,1500,1500,1500
1747553771.0107305,-0.01,-0.05,0.03,0.002181661564992912,0.003272492347489368,0.008726646259971648,2.0192948460330835,-0.15428098341918714,-0.24972456248063604,0,0,0,0,0,0,1500,1500,1500,1500,1500,1500
1747553771.1049373,-0.01,-0.04,-0.05,0.007635815477475192,0.009817477042468103,0.01090830782496456,2.0193683618183864,-0.15490184596394382,-0.25005756357489106,0,0,0,0,0,0,1500,1500,1500,1500,1500,1500
1747553771.2100036,-0.01,-0.04,-0.05,0.007635815477475192,0.009817477042468103,0.01090830782496456,2.0193683618183864,-0.15490184596394382,-0.25005756357489106,0,0,0,0,0,0,1500,1500,1500,1500,1500,1500
1747553771.2938447,0.0,-0.03,0.04,0.007635815477475192,0.007635815477475192,0.011999138607461015,2.019494295522962,-0.15608424313403255,-0.25035188945508574,0,0,0,0,0,0,1500,1500,1500,1500,1500,1500
1747553771.393544,0.0,-0.03,0.04,0.007635815477475192,0.007635815477475192,0.011999138607461015,2.019494295522962,-0.15608424313403255,-0.25035188945508574,0,0,0,0,0,0,1500,1500,1500,1500,1500,1500
1747553771.4772604,-0.04,-0.08,0.04,-0.002181661564992912,-0.00545415391248228,0.002181661564992912,2.019494295522962,-0.15608424313403255,-0.25035188945508574,0,0,0,0,0,0,1500,1500,1500,1500,1500,1500
1747553771.5768244,-0.04,-0.08,0.04,-0.002181661564992912,-0.00545415391248228,0.002181661564992912,2.019494295522962,-0.15608424313403255,-0.25035188945508574,0,0,0,0,0,0,1500,1500,1500,1500,1500,1500
1747553771.6766276,0.0,-0.05,0.01,0.003272492347489368,-0.01090830782496456,0.001090830782496456,2.019526895423577,-0.15615029865780478,-0.25046051265289787,0,0,0,0,0,0,1500,1500,1500,1500,1500,1500
1747553771.760903,-0.03,-0.07,0.0,0.004363323129985824,-0.004363323129985824,0.001090830782496456,2.0195359202982552,-0.15590779423027176,-0.250761264648609,0,0,0,0,0,0,1500,1500,1500,1500,1500,1500
1747553771.8605824,-0.03,-0.07,0.0,0.004363323129985824,-0.004363323129985824,0.001090830782496456,2.0195359202982552,-0.15590779423027176,-0.250761264648609,0,0,0,0,0,0,1500,1500,1500,1500,1500,1500
1747553771.9606745,0.0,-0.03,-0.06,0.0,0.00545415391248228,0.002181661564992912,2.0195359202982552,-0.15590779423027176,-0.250761264648609,0,0,0,0,0,0,1500,1500,1500,1500,1500,1500
1747553772.0697863,0.0,-0.05,0.0,-0.004363323129985824,0.0,0.001090830782496456,2.0195359202982552,-0.15590779423027176,-0.250761264648609,0,0,0,0,0,0,1500,1500,1500,1500,1500,1500
1747553772.1781507,0.0,-0.05,0.0,-0.004363323129985824,0.0,0.001090830782496456,2.0195359202982552,-0.15590779423027176,-0.250761264648609,0,0,0,0,0,0,1500,1500,1500,1500,1500,1500
1747553772.2606134,-0.02,-0.07,-0.03,-0.003272492347489368,0.003272492347489368,-0.001090830782496456,2.0195359202982552,-0.15590779423027176,-0.250761264648609,0,0,0,0,0,0,1500,1500,1500,1500,1500,1500
1747553772.3595467,-0.02,-0.07,-0.03,-0.003272492347489368,0.003272492347489368,-0.001090830782496456,2.0195359202982552,-0.15590779423027176,-0.250761264648609,0,0,0,0,0,0,1500,1500,1500,1500,1500,1500
1747553772.4584467,-0.01,-0.02,-0.02,-0.004363323129985824,-0.002181661564992912,-0.003272492347489368,2.0195359202982552,-0.15590779423027176,-0.250761264648609,0,0,0,0,0,0,1500,1500,1500,1500,1500,1500
1747553772.5421844,-0.01,-0.06,0.0,-0.004363323129985824,-0.001090830782496456,-0.003272492347489368,2.0195359202982552,-0.15590779423027176,-0.250761264648609,0,0,0,0,0,0,1500,1500,1500,1500,1500,1500
1747553772.642075,-0.01,-0.06,0.0,-0.004363323129985824,-0.001090830782496456,-0.003272492347489368,2.0195359202982552,-0.15590779423027176,-0.250761264648609,0,0,0,0,0,0,1500,1500,1500,1500,1500,1500
1747553772.7279716,0.0,-0.03,-0.09,0.001090830782496456,-0.002181661564992912,0.003272492347489368,2.0195359202982552,-0.15590779423027176,-0.250761264648609,0,0,0,0,0,0,1500,1500,1500,1500,1500,1500
1747553772.8288367,0.0,-0.03,-0.09,0.001090830782496456,-0.002181661564992912,0.003272492347489368,2.0195359202982552,-0.15590779423027176,-0.250761264648609,0,0,0,0,0,0,1500,1500,1500,1500,1500,1500
1747553772.927876,0.0,-0.02,0.02,0.0,0.002181661564992912,0.001090830782496456,2.0195359202982552,-0.15590779423027176,-0.250761264648609,0,0,0,0,0,0,1500,1500,1500,1500,1500,1500
1747553773.0087612,0.0,-0.02,0.02,0.0,0.002181661564992912,0.001090830782496456,2.0195359202982552,-0.15590779423027176,-0.250761264648609,0,0,0,0,0,0,1500,1500,1500,1500,1500,1500
1747553773.1083817,-0.05,-0.07,0.0,-0.00545415391248228,-0.00545415391248228,0.002181661564992912,2.0195359202982552,-0.15590779423027176,-0.250761264648609,0,0,0,0,0,0,1500,1500,1500,1500,1500,1500
1747553773.2077427,-0.02,-0.04,-0.1,0.001090830782496456,-0.00545415391248228,-0.003272492347489368,2.019560668582387,-0.1558709966338135,-0.25093393925887825,0,0,0,0,0,0,1500,1500,1500,1500,1500,1500
1747553773.2935085,-0.02,-0.04,-0.1,0.001090830782496456,-0.00545415391248228,-0.003272492347489368,2.019560668582387,-0.1558709966338135,-0.25093393925887825,0,0,0,0,0,0,1500,1500,1500,1500,1500,1500
1747553773.3917818,0.0,-0.06,0.01,-0.003272492347489368,0.008726646259971648,0.001090830782496456,2.019560668582387,-0.1558709966338135,-0.25093393925887825,0,0,0,0,0,0,1500,1500,1500,1500,1500,1500
1747553773.4915612,-0.04,-0.07,-0.07,0.0,0.014180800172453928,-0.001090830782496456,2.019519036318086,-0.15604744451652292,-0.25052455311925886,0,0,0,0,0,0,1500,1500,1500,1500,1500,1500
1747553773.5918,-0.04,-0.07,-0.07,0.0,0.014180800172453928,-0.001090830782496456,2.019519036318086,-0.15604744451652292,-0.25052455311925886,0,0,0,0,0,0,1500,1500,1500,1500,1500,1500
1747553773.6922908,-0.01,-0.04,-0.01,-0.00545415391248228,0.009817477042468103,-0.003272492347489368,2.019494295522962,-0.15608424313403255,-0.25035188945508574,0,0,0,0,0,0.037745,1500,1500,1500,1500,1500,1500
1747553773.7759836,-0.01,-0.04,-0.01,-0.00545415391248228,0.009817477042468103,-0.003272492347489368,2.019494295522962,-0.15608424313403255,-0.25035188945508574,0,0,0,0,0,0.092902,1500,1500,1500,1500,1500,1500
1747553773.876549,-0.02,-0.05,0.04,-0.001090830782496456,-0.001090830782496456,0.001090830782496456,2.019494295522962,-0.15608424313403255,-0.25035188945508574,0,0,0,0,0,0.134662,1538,1461,1500,1500,1500,1500
1747553773.9669359,-0.02,-0.04,-0.01,0.0,-0.002181661564992912,0.006544984694978736,2.019494295522962,-0.15608424313403255,-0.25035188945508574,0,0,0,0,0,0.144992,1538,1461,1500,1500,1500,1500
1747553774.0579464,-0.02,-0.04,-0.01,0.0,-0.002181661564992912,0.006544984694978736,2.019494295522962,-0.15608424313403255,-0.25035188945508574,0,0,0,0,0,0.1503,1538,1460,1500,1500,1500,1500
1747553774.1585913,-0.02,-0.02,0.0,0.006544984694978736,-0.001090830782496456,0.014180800172453928,2.019410676440384,-0.1563192947135409,-0.25048754494966624,0,0,0,0,0,0.202366,1539,1459,1500,1500,1500,1500
1747553774.243231,-0.02,-0.02,0.0,0.006544984694978736,-0.001090830782496456,0.014180800172453928,2.019410676440384,-0.1563192947135409,-0.25048754494966624,0,0,0,0,0,0.314012,1544,1452,1500,1500,1500,1500
1747553774.3418286,-0.08,-0.07,0.03,0.017453292519943295,0.0,0.05781403147231216,2.021398155252419,-0.1616594126357532,-0.2530474268065587,0,0,0,0,0,0.404939,1548,1447,1500,1500,1500,1500
1747553774.4396062,-0.07,-0.04,0.01,0.026179938779914945,0.003272492347489368,0.08944812416470939,2.0255196790670547,-0.1719401849881764,-0.25812989296867894,0,0,0,0,0,0.422712,1548,1446,1500,1500,1500,1500
1747553774.5260289,-0.07,-0.04,0.01,0.026179938779914945,0.003272492347489368,0.08944812416470939,2.0255196790670547,-0.1719401849881764,-0.25812989296867894,0,0,0,0,0,0.440866,1549,1446,1500,1500,1500,1500
1747553774.626431,-0.1,-0.08,-0.01,0.032724923474893676,-0.003272492347489368,0.12980886311707826,2.0313675735754972,-0.1866049279463343,-0.26545503609713317,0,0,0,0,0,0.450086,1549,1445,1500,1500,1500,1500
1747553774.726721,-0.1,-0.08,-0.01,0.032724923474893676,-0.003272492347489368,0.12980886311707826,2.0313675735754972,-0.1866049279463343,-0.26545503609713317,0,0,0,0,0,0.468813,1550,1444,1500,1500,1500,1500
1747553774.8249311,-0.05,0.0,0.06,0.020725784867432664,-0.019634954084936207,0.1407171709420428,2.0373865130924416,-0.20437080916092076,-0.2768409798170794,0,0,0,0,0,0.677075,1558,1435,1500,1500,1500,1500
1747553774.9262397,-0.07,-0.04,0.0,0.003272492347489368,-0.03599741582238305,0.15817046346198613,2.0415351565187927,-0.2225391940481602,-0.29136536887278164,0,0,0,0,0,0.7,1559,1434,1500,1500,1500,1500
1747553775.0263703,-0.07,-0.04,0.0,0.003272492347489368,-0.03599741582238305,0.15817046346198613,2.0415351565187927,-0.2225391940481602,-0.29136536887278164,0,0,0,0,0,0.7,1559,1434,1500,1500,1500,1500
1747553775.1261835,0.0,0.01,-0.04,-0.016362461737446838,-0.05345070834232634,0.19962203319685143,2.0453712936228863,-0.2442228992023067,-0.311310191627737,0,0,0,0,0,0.7,1559,1434,1500,1500,1500,1500
1747553775.2229364,-0.06,-0.02,0.01,-0.04036073895236887,-0.06763150851478027,0.2203478180642841,2.0471570104667025,-0.26757957157852114,-0.33424850751827634,0,0,0,0,0,0.7,1559,1434,1500,1500,1500,1500
1747553775.308536,-0.06,-0.02,0.01,-0.04036073895236887,-0.06763150851478027,0.2203478180642841,2.0471570104667025,-0.26757957157852114,-0.33424850751827634,0,0,0,0,0,0.7,1559,1434,1500,1500,1500,1500
1747553775.4079778,-0.01,0.0,-0.01,-0.05781403147231216,-0.07853981633974483,0.22689280275926285,2.0471203447683526,-0.2933606440368903,-0.36137704103867996,0,0,0,0,0,0.7,1559,1434,1500,1500,1500,1500
1747553775.491971,-0.01,0.0,-0.01,-0.05781403147231216,-0.07853981633974483,0.22689280275926285,2.0471203447683526,-0.2933606440368903,-0.36137704103867996,0,0,0,0,0,0.7,1559,1434,1500,1500,1500,1500
1747553775.5916004,-0.07,-0.01,0.05,-0.08835729338221293,-0.08508480103472356,0.22907446432425577,2.044841840432444,-0.3174782925685856,-0.38885758102360796,0,0,0,0,0,0.7,1559,1434,1500,1500,1500,1500
1747553775.6918821,-0.07,-0.01,0.05,-0.08835729338221293,-0.08508480103472356,0.22907446432425577,2.044841840432444,-0.3174782925685856,-0.38885758102360796,0,0,0,0,0,0.7,1559,1434,1500,1500,1500,1500
1747553775.7752507,0.0,0.0,-0.04,-0.1189005552921137,-0.08944812416470939,0.22362031041177347,2.0386003523434764,-0.3424444992254733,-0.4184551337414166,0,0,0,0,0,0.7,1559,1434,1500,1500,1500,1500
1747553775.8753057,-0.02,-0.01,0.01,-0.15162547876700738,-0.07963064712224129,0.21707532571679475,2.0275859926678392,-0.36728895890159474,-0.4470055920375281,0,0,0,0,0,0.7,1559,1434,1500,1500,1500,1500
1747553775.9749088,-0.02,-0.01,0.01,-0.15162547876700738,-0.07963064712224129,0.21707532571679475,2.0275859926678392,-0.36728895890159474,-0.4470055920375281,0,0,0,0,0,0.7,1559,1434,1500,1500,1500,1500
1747553776.0753005,-0.05,-0.05,-0.01,-0.17235126363444003,-0.06217735460229799,0.21162117180431245,2.0121054902345437,-0.3928810480784431,-0.4734470569980444,0,0,0,0,0,0.7,1559,1434,1500,1500,1500,1500
1747553776.1697285,-0.07,0.0,0.01,-0.18871372537188688,-0.050178215994836975,0.20725784867432664,1.99279922116393,-0.4188633932143672,-0.4968440068625904,0,0,0,0,0,0.7,1559,1434,1500,1500,1500,1500
1747553776.2755575,-0.07,0.0,0.01,-0.18871372537188688,-0.050178215994836975,0.20725784867432664,1.99279922116393,-0.4188633932143672,-0.4968440068625904,0,0,0,0,0,0.7,1559,1434,1500,1500,1500,1500
1747553776.3750405,-0.06,-0.02,-0.05,-0.19744037163185854,-0.039269908169872414,0.20289452554434081,1.9726275346663702,-0.443193535846161,-0.5167697083065532,0,0,0,0,0,0.7,1559,1434,1500,1500,1500,1500
1747553776.4755292,-0.06,-0.02,-0.05,-0.19744037163185854,-0.039269908169872414,0.20289452554434081,1.9726275346663702,-0.443193535846161,-0.5167697083065532,0,0,0,0,0,0.7,1559,1434,1500,1500,1500,1500
1747553776.5581667,-0.08,-0.04,-0.01,-0.19744037163185854,-0.03599741582238305,0.19525871006686563,1.9502251172747513,-0.4696219429318638,-0.5354604240257861,0,0,0,0,0,0.7,1559,1434,1500,1500,1500,1500
1747553776.6585333,-0.1,-0.06,0.01,-0.18871372537188688,-0.02399827721492203,0.18544123302439752,1.9295031109936867,-0.49396926768436455,-0.5507025545522818,0,0,0,0,0,0.7,1559,1434,1500,1500,1500,1500
1747553776.7426105,-0.1,-0.06,0.01,-0.18871372537188688,-0.02399827721492203,0.18544123302439752,1.9295031109936867,-0.49396926768436455,-0.5507025545522818,0,0,0,0,0,0.7,1559,1434,1500,1500,1500,1500
1747553776.8420317,-0.07,-0.12,-0.01,-0.18871372537188688,-0.020725784867432664,0.1712604328519436,1.906958552034336,-0.518922767391912,-0.5653028547990481,0,0,0,0,0,0.7,1559,1434,1500,1500,1500,1500
1747553776.94255,-0.07,-0.12,-0.01,-0.18871372537188688,-0.020725784867432664,0.1712604328519436,1.906958552034336,-0.518922767391912,-0.5653028547990481,0,0,0,0,0,0.7,1559,1434,1500,1500,1500,1500
1747553777.0251884,-0.1,-0.13,0.06,-0.19416787928436915,-0.017453292519943295,0.16689710972195776,1.8837024257025785,-0.5426114551379331,-0.5785800918568067,0,0,0,0,0,0.7,1559,1434,1500,1500,1500,1500
1747553777.1307235,-0.08,-0.1,-0.02,-0.19634954084936207,-0.014180800172453928,0.16253378659197193,1.8593717881623129,-0.5659444501936919,-0.5904302397370264,0,0,0,0,0,0.7,1559,1434,1500,1500,1500,1500
1747553777.2216306,-0.08,-0.1,-0.02,-0.19634954084936207,-0.014180800172453928,0.16253378659197193,1.8593717881623129,-0.5659444501936919,-0.5904302397370264,0,0,0,0,0,0.7,1559,1434,1500,1500,1500,1500
1747553777.317761,0.11,-0.05,0.01,-0.19634954084936207,-0.008726646259971648,0.15817046346198613,1.834284178033859,-0.5894789125214908,-0.6005940639116464,0,0,0,0,0,0.7,1559,1434,1500,1500,1500,1500
1747553777.410924,0.11,-0.05,0.01,-0.19634954084936207,-0.008726646259971648,0.15817046346198613,1.834284178033859,-0.5894789125214908,-0.6005940639116464,0,0,0,0,0,0.7,1559,1434,1500,1500,1500,1500
1747553777.493838,0.08,-0.03,0.0,-0.1810779098944117,0.002181661564992912,0.15707963267948966,1.810644921226263,-0.6117015749290915,-0.6076144589253446,0,0,0,0,0,0.7,1559,1434,1500,1500,1500,1500
1747553777.5951931,0.08,-0.08,0.07,-0.17016960206944712,0.002181661564992912,0.14289883250703572,1.7871164617835664,-0.6343838578972805,-0.6140699789209109,0,0,0,0,0,0.7,1559,1434,1500,1500,1500,1500
1747553777.6960006,0.08,-0.08,0.07,-0.17016960206944712,0.002181661564992912,0.14289883250703572,1.7871164617835664,-0.6343838578972805,-0.6140699789209109,0,0,0,0,0,0.7,1559,1434,1500,1500,1500,1500
1747553777.7982824,0.0,-0.14,0.02,-0.15162547876700738,0.004363323129985824,0.13308135546456762,1.7667188660115831,-0.6545398583802418,-0.6193012022531473,0,0,0,0,0,0.7,1559,1434,1500,1500,1500,1500
1747553777.896241,0.0,-0.14,0.02,-0.15162547876700738,0.004363323129985824,0.13308135546456762,1.7667188660115831,-0.6545398583802418,-0.6193012022531473,0,0,0,0,0,0.7,1559,1434,1500,1500,1500,1500
1747553777.978823,0.06,-0.06,-0.02,-0.12871803233458182,0.008726646259971648,0.12108221685710661,1.74712676999396,-0.6740741573999062,-0.6233122945594386,0,0,0,0,0,0.7,1559,1434,1500,1500,1500,1500
1747553778.0777676,0.03,-0.08,0.0,-0.11126473981463851,0.009817477042468103,0.11562806294462433,1.7313023592083459,-0.6912757602148887,-0.6258858642209818,0,0,0,0,0,0.7,1559,1434,1500,1500,1500,1500
1747553778.1769764,0.03,-0.08,0.0,-0.11126473981463851,0.009817477042468103,0.11562806294462433,1.7313023592083459,-0.6912757602148887,-0.6258858642209818,0,0,0,0,0,0.7,1559,1434,1500,1500,1500,1500
1747553778.259549,0.02,-0.08,-0.03,-0.09599310885968812,0.009817477042468103,0.11453723216212788,1.7171892043325536,-0.7093058281203892,-0.6287202389860977,0,0,0,0,0,0.7,1559,1434,1500,1500,1500,1500
1747553778.360231,0.02,-0.08,-0.03,-0.09599310885968812,0.009817477042468103,0.11453723216212788,1.7171892043325536,-0.7093058281203892,-0.6287202389860977,0,0,0,0,0,0.7,1559,1434,1500,1500,1500,1500
1747553778.458521,0.04,-0.07,0.12,-0.0719948316447661,0.004363323129985824,0.10799224746714914,1.7063470670733263,-0.7268672732663207,-0.6318457496902269,0,0,0,0,0,0.7,1559,1434,1500,1500,1500,1500
1747553778.5429215,0.04,-0.09,0.05,-0.05999569303730508,0.00545415391248228,0.09053895494720585,1.6980631073828867,-0.7421286633207642,-0.6345837064840494,0,0,0,0,0,0.7,1559,1434,1500,1500,1500,1500
1747553778.643912,0.04,-0.09,0.05,-0.05999569303730508,0.00545415391248228,0.09053895494720585,1.6980631073828867,-0.7421286633207642,-0.6345837064840494,0,0,0,0,0,0.7,1559,1434,1500,1500,1500,1500
1747553778.7271326,0.03,-0.11,0.08,-0.04036073895236887,0.006544984694978736,0.0818123086872342,1.6917985351469529,-0.7545592885544407,-0.6365293183870632,0,0,0,0,0,0.7,1559,1434,1500,1500,1500,1500
1747553778.826029,0.03,-0.11,0.08,-0.04036073895236887,0.006544984694978736,0.0818123086872342,1.6917985351469529,-0.7545592885544407,-0.6365293183870632,0,0,0,0,0,0.7,1559,1434,1500,1500,1500,1500
1747553778.9274828,0.08,-0.05,0.12,-0.014180800172453928,0.007635815477475192,0.07853981633974483,1.688236247856465,-0.7675091155883037,-0.6376020466613601,0,0,0,0,0,0.7,1559,1434,1500,1500,1500,1500
1747553779.0099285,0.09,-0.05,0.07,-0.001090830782496456,0.008726646259971648,0.07308566242726255,1.6884546531120885,-0.778561640894341,-0.6393305517133442,0,0,0,0,0,0.7,1559,1434,1500,1500,1500,1500
1747553779.1098495,0.09,-0.05,0.07,-0.001090830782496456,0.008726646259971648,0.07308566242726255,1.6884546531120885,-0.778561640894341,-0.6393305517133442,0,0,0,0,0,0.7,1559,1434,1500,1500,1500,1500
1747553779.1971316,0.07,-0.08,0.08,0.015271630954950384,0.002181661564992912,0.07308566242726255,1.6902020030618525,-0.7894907198765178,-0.6413066881932187,0,0,0,0,0,0.7,1559,1434,1500,1500,1500,1500
1747553779.2981482,0.07,-0.08,0.08,0.015271630954950384,0.002181661564992912,0.07308566242726255,1.6902020030618525,-0.7894907198765178,-0.6413066881932187,0,0,0,0,0,0.7,1559,1434,1500,1500,1500,1500
1747553779.397874,0.03,-0.06,0.12,0.026179938779914945,0.0,0.07417649320975901,1.6944556610261188,-0.800203050133022,-0.643158166102255,0,0,0,0,0,0.7,1559,1434,1500,1500,1500,1500
1747553779.4983819,0.06,-0.03,0.15,0.025089107997418487,-0.002181661564992912,0.06763150851478027,1.7003449250324563,-0.8112151425833427,-0.6451724840543949,0,0,0,0,0,0.7,1559,1434,1500,1500,1500,1500
1747553779.597402,0.06,-0.03,0.15,0.025089107997418487,-0.002181661564992912,0.06763150851478027,1.7003449250324563,-0.8112151425833427,-0.6451724840543949,0,0,0,0,0,0.7,1559,1434,1500,1500,1500,1500
1747553779.6982937,0.01,-0.05,0.11,0.032724923474893676,0.001090830782496456,0.06326818538479445,1.706909736530381,-0.8214411417822679,-0.6471011320078454,0,0,0,0,0,0.7,1559,1434,1500,1500,1500,1500
1747553779.7983305,0.03,-0.01,0.15,0.032724923474893676,0.004363323129985824,0.0545415391248228,1.7137257988053818,-0.8303249181242671,-0.6489781911089509,0,0,0,0,0,0.7,1559,1434,1500,1500,1500,1500
1747553779.8947303,0.03,-0.01,0.15,0.032724923474893676,0.004363323129985824,0.0545415391248228,1.7137257988053818,-0.8303249181242671,-0.6489781911089509,0,0,0,0,0,0.7,1559,1434,1500,1500,1500,1500
1747553779.9780192,0.04,-0.01,0.08,0.03490658503988659,0.00545415391248228,0.05672320068981571,1.7196681742888742,-0.8382521454807543,-0.6505937445313047,0,0,0,0,0,0.7,1559,1434,1500,1500,1500,1500
1747553780.0778213,0.04,-0.01,0.08,0.03490658503988659,0.00545415391248228,0.05672320068981571,1.7196681742888742,-0.8382521454807543,-0.6505937445313047,0,0,0,0,0,0.7,1559,1434,1500,1500,1500,1500
1747553780.176934,0.02,0.0,0.18,0.02945243112740431,0.009817477042468103,0.050178215994836975,1.7256136743821673,-0.8464305347445563,-0.6520593524726769,0,0,0,0,0,0.7,1559,1434,1500,1500,1500,1500
1747553780.260602,0.0,-0.02,0.11,0.03490658503988659,0.007635815477475192,0.04799655442984406,1.7314657050748987,-0.8537699691465356,-0.6533088713956998,0,0,0,0,0,0.7,1559,1434,1500,1500,1500,1500
1747553780.3610806,0.0,-0.02,0.11,0.03490658503988659,0.007635815477475192,0.04799655442984406,1.7314657050748987,-0.8537699691465356,-0.6533088713956998,0,0,0,0,0,0.7,1559,1434,1500,1500,1500,1500
1747553780.4489436,-0.02,-0.02,0.16,0.02945243112740431,0.002181661564992912,0.04036073895236887,1.7371908657935573,-0.8605069175400519,-0.654974573012494,0,0,0,0,0,0.7,1559,1434,1500,1500,1500,1500
1747553780.5468636,-0.02,-0.02,0.16,0.02945243112740431,0.002181661564992912,0.04036073895236887,1.7371908657935573,-0.8605069175400519,-0.654974573012494,0,0,0,0,0.029216,0.7,1559,1434,1500,1500,1500,1500
1747553780.6476243,-0.02,0.03,0.1,0.028361600344907856,0.0,0.025089107997418487,1.7427013339931572,-0.8656337246975636,-0.6563462197863199,0,0,0,0,0.066719,0.7,1559,1434,1500,1500,1500,1500
1747553780.7468445,0.0,0.01,0.18,0.0272707695624114,0.003272492347489368,0.019634954084936207,1.7471504195989291,-0.8685237800088794,-0.6570532306686293,0,0,0,0,0.073661,0.7,1559,1434,1500,1500,1500,1500
1747553780.8507917,0.0,0.01,0.18,0.0272707695624114,0.003272492347489368,0.019634954084936207,1.7471504195989291,-0.8685237800088794,-0.6570532306686293,0,0,0,0,0.073661,0.7,1559,1434,1500,1500,1500,1500
1747553780.9482465,0.01,0.05,0.15,0.030543261909900768,0.008726646259971648,0.017453292519943295,1.7522743976459154,-0.871317960820056,-0.6578523138970148,0,0,0,0,0.073661,0.7,1559,1434,1500,1500,1500,1500
1747553781.046794,0.04,0.05,0.23,0.0272707695624114,0.004363323129985824,0.016362461737446838,1.757192558403656,-0.8736660096220565,-0.6585575659925244,0,0,0,0,0.073661,0.7,1559,1434,1500,1500,1500,1500
1747553781.1481087,0.04,0.05,0.23,0.0272707695624114,0.004363323129985824,0.016362461737446838,1.757192558403656,-0.8736660096220565,-0.6585575659925244,0,0,0,0,0.073661,0.7,1559,1434,1500,1500,1500,1500
1747553781.2466571,0.03,0.05,0.17,0.025089107997418487,-0.00545415391248228,0.011999138607461015,1.7614647229508984,-0.8758029953065608,-0.6591035001199428,0,0,0,0,0.00126,0.7,1559,1434,1500,1500,1500,1500
1747553781.3403385,0.01,0.0,0.17,0.02399827721492203,-0.004363323129985824,0.013089969389957472,1.7656686272609672,-0.8778051821192195,-0.6598439376150176,0,0,0,0,0,0.7,1559,1434,1500,1500,1500,1500
1747553781.44504,0.01,0.0,0.17,0.02399827721492203,-0.004363323129985824,0.013089969389957472,1.7656686272609672,-0.8778051821192195,-0.6598439376150176,0,0,0,0,0,0.7,1559,1434,1500,1500,1500,1500
1747553781.5479186,-0.02,0.0,0.18,0.02181661564992912,0.002181661564992912,-0.001090830782496456,1.7689969409213206,-0.8779206270357721,-0.6597689061474132,0,0,0,0,0,0.7,1559,1434,1500,1500,1500,1500
1747553781.648192,-0.02,0.0,0.18,0.02181661564992912,0.002181661564992912,-0.001090830782496456,1.7689969409213206,-0.8779206270357721,-0.6597689061474132,0,0,0,0,0,0.7,1559,1434,1500,1500,1500,1500
1747553781.7482026,-0.06,0.03,0.16,0.017453292519943295,-0.003272492347489368,-0.014180800172453928,1.7717674315648622,-0.8775027314283397,-0.6596355906581962,0,0,0,0,0,0.7,1559,1434,1500,1500,1500,1500
1747553781.847806,-0.05,0.07,0.23,0.018544123302439753,0.0,-0.017453292519943295,1.7739702862466151,-0.8751187183738643,-0.658929646869975,0,0,0,0,0,0.7,1559,1434,1500,1500,1500,1500
1747553781.946219,-0.05,0.07,0.23,0.018544123302439753,0.0,-0.017453292519943295,1.7739702862466151,-0.8751187183738643,-0.658929646869975,0,0,0,0,0,0.7,1559,1434,1500,1500,1500,1500
1747553782.0475497,-0.01,0.06,0.18,0.008726646259971648,-0.00545415391248228,-0.019634954084936207,1.7751433206995975,-0.8722163727380475,-0.6582413650031885,0,0,0,0,0,0.7,1559,1434,1500,1500,1500,1500
1747553782.1478567,0.01,0.07,0.2,0.00545415391248228,-0.002181661564992912,-0.017453292519943295,1.774559000073471,-0.8695256247122601,-0.6573765123033881,0,0,0,0,0,0.7,1559,1434,1500,1500,1500,1500
1747553782.2486224,0.01,0.07,0.2,0.00545415391248228,-0.002181661564992912,-0.017453292519943295,1.774559000073471,-0.8695256247122601,-0.6573765123033881,0,0,0,0,0,0.7,1559,1434,1500,1500,1500,1500
1747553782.3471112,-0.01,0.06,0.14,0.007635815477475192,-0.002181661564992912,-0.013089969389957472,1.7740247876009985,-0.8676728781231217,-0.6567483806309531,0,0,0,0,0,0.7,1559,1434,1500,1500,1500,1500
1747553782.4323916,-0.01,0.06,0.14,0.007635815477475192,-0.002181661564992912,-0.013089969389957472,1.7740247876009985,-0.8676728781231217,-0.6567483806309531,0,0,0,0,0,0.7,1559,1434,1500,1500,1500,1500
1747553782.5247467,-0.05,0.08,0.19,0.006544984694978736,0.002181661564992912,-0.019634954084936207,1.7734682583414816,-0.8651976121709187,-0.6559546966450263,0,0,0,0,0,0.7,1559,1434,1500,1500,1500,1500
1747553782.6273878,-0.06,0.05,0.15,0.002181661564992912,0.0,-0.02945243112740431,1.7726118461501637,-0.8613186278219163,-0.6547380760385036,0,0,0,0,0,0.7,1559,1434,1500,1500,1500,1500
1747553782.7265189,-0.06,0.05,0.15,0.002181661564992912,0.0,-0.02945243112740431,1.7726118461501637,-0.8613186278219163,-0.6547380760385036,0,0,0,0,0,0.7,1559,1434,1500,1500,1500,1500
1747553782.8273344,-0.04,0.05,0.16,0.0,-0.001090830782496456,-0.03599741582238305,1.7713100772301658,-0.8561301664925943,-0.6529797758276659,0,0,0,0,0,0.7,1559,1434,1500,1500,1500,1500
1747553782.9254868,-0.01,0.06,0.14,-0.002181661564992912,-0.002181661564992912,-0.0272707695624114,1.7702809341540022,-0.8513134799868254,-0.6515901912761274,0,0,0,0,0,0.7,1559,1434,1500,1500,1500,1500
1747553783.012227,-0.01,0.06,0.14,-0.002181661564992912,-0.002181661564992912,-0.0272707695624114,1.7702809341540022,-0.8513134799868254,-0.6515901912761274,0,0,0,0,0,0.7,1559,1434,1500,1500,1500,1500
1747553783.111572,-0.04,0.06,0.23,-0.003272492347489368,-0.00545415391248228,-0.028361600344907856,1.7718996923646815,-0.8614084025993635,-0.6419848505406427,0,0,0,0,0,0.7,1559,1434,1500,1500,1500,1500
1747553783.2097466,-0.04,0.06,0.23,-0.003272492347489368,-0.00545415391248228,-0.028361600344907856,1.7718996923646815,-0.8614084025993635,-0.6419848505406427,0,0,0,0,0,0.7,1559,1434,1500,1500,1500,1500
1747553783.3096125,-0.04,0.07,0.14,-0.004363323129985824,-0.002181661564992912,-0.030543261909900768,1.7690924683833418,-0.8433628374840175,-0.6499243535998325,0,0,0,0,0,0.7,1559,1434,1500,1500,1500,1500
1747553783.4096024,-0.06,0.09,0.17,-0.004363323129985824,0.00545415391248228,-0.031634092692397225,1.7677645231524004,-0.8383215444065321,-0.6482734961059196,0,-0.008311,0,0,0,0.7,1559,1434,1500,1500,1500,1500
1747553783.497974,-0.06,0.09,0.17,-0.004363323129985824,0.00545415391248228,-0.031634092692397225,1.7677645231524004,-0.8383215444065321,-0.6482734961059196,0,-0.056222,0,0,0,0.7,1559,1434,1500,1500,1500,1500
1747553783.5955224,-0.04,0.12,0.11,0.002181661564992912,-0.003272492347489368,-0.028361600344907856,1.7646766714456354,-0.8330889380471629,-0.6454533031040975,0,-0.992096,0,0,0,0.7,1555,1431,1500,1500,1500,1500
1747553783.6938815,-0.04,0.12,0.11,0.002181661564992912,-0.003272492347489368,-0.028361600344907856,1.7646766714456354,-0.8330889380471629,-0.6454533031040975,0,-3.288233,0,0,0,0.568173,1540,1427,1460,1500,1500,1500
1747553783.7785304,-0.03,0.05,0.11,-0.00545415391248228,-0.003272492347489368,-0.026179938779914945,1.7606851076121541,-0.8282064108454819,-0.6418932250406039,0,-4.681267,0,0,0,0.468813,1500,1425,1450,1500,1500,1500
1747553783.8780572,-0.08,0.16,0.14,-0.015271630954950384,0.009817477042468103,-0.037088246604879506,1.7565718620419626,-0.8228120561038356,-0.6384401080045549,0,-4.937296,0,0,0,0.468813,1500,1424,1449,1500,1500,1500
1747553783.9635673,-0.08,0.16,0.14,-0.015271630954950384,0.009817477042468103,-0.037088246604879506,1.7565718620419626,-0.8228120561038356,-0.6384401080045549,0,-4.937296,0,0,0,0.468813,1500,1424,1449,1500,1500,1500
1747553784.0648475,-0.05,0.01,0.15,-0.02181661564992912,0.006544984694978736,-0.0818123086872342,1.7467620759129556,-0.812323101140578,-0.6308482597227532,0,-4.937296,0,0,0,0.468813,1500,1424,1449,1500,1500,1500
1747553784.1619458,-0.05,0.01,0.15,-0.02181661564992912,0.006544984694978736,-0.0818123086872342,1.7467620759129556,-0.812323101140578,-0.6308482597227532,0,-4.937296,0,0,0,0.468813,1500,1424,1449,1500,1500,1500
1747553784.245385,-0.09,0.05,0.04,-0.0272707695624114,-0.001090830782496456,-0.07635815477475191,1.7380487812267391,-0.7988012291319865,-0.6260850524075072,0,-4.937296,0,0,0,0.468813,1500,1424,1449,1500,1500,1500
1747553784.342333,-0.08,0.01,0.19,-0.03381575425739013,0.001090830782496456,-0.07090400086226964,1.7289314893782657,-0.7865589966096446,-0.6220942213125802,0,-5.887076,0,0,0,0.396196,1460,1423,1446,1500,1500,1500
1747553784.4464288,-0.08,0.01,0.19,-0.03381575425739013,0.001090830782496456,-0.07090400086226964,1.7289314893782657,-0.7865589966096446,-0.6220942213125802,0,-6.319686,0,0,0,0.387548,1455,1422,1444,1500,1500,1500
1747553784.5437207,-0.08,0.0,0.17,-0.032724923474893676,-0.004363323129985824,-0.061086523819801536,1.7209133021866216,-0.7765771111145437,-0.6191011279446778,0,-7.074784,0,0,0,0.337665,1448,1421,1442,1500,1500,1500
1747553784.6427538,-0.08,0.0,0.17,-0.032724923474893676,-0.004363323129985824,-0.061086523819801536,1.7209133021866216,-0.7765771111145437,-0.6191011279446778,0,-8.712783,0,0,0,0.227987,1435,1420,1436,1500,1500,1500
1747553784.7453482,-0.05,0.0,0.06,-0.020725784867432664,-0.015271630954950384,-0.03490658503988659,1.7146324325864162,-0.7684348126440445,-0.6173014974352518,0,-11.096939,0,0,0,0.12964,1422,1416,1430,1500,1500,1500
1747553784.8439279,-0.12,0.11,0.11,-0.04581489286485115,-0.011999138607461015,-0.07635815477475191,1.707701076206732,-0.7587057343642633,-0.6159790009171242,0,-12.29445,0,0,0,0.092902,1414,1416,1426,1500,1500,1500
1747553784.9331067,-0.12,0.11,0.11,-0.04581489286485115,-0.011999138607461015,-0.07635815477475191,1.707701076206732,-0.7587057343642633,-0.6159790009171242,0,-12.5,0,0,0,0.069355,1413,1415,1425,1500,1500,1500
1747553785.0309443,-0.26,0.11,0.12,-0.06326818538479445,-0.006544984694978736,-0.11344640137963143,1.6977372006690918,-0.7429721631418432,-0.6135441988646951,0,-12.5,0,0,0,0.06227,1413,1415,1425,1500,1500,1500
1747553785.128675,-0.12,0.0,0.19,-0.08726646259971647,0.004363323129985824,-0.16253378659197193,1.6815958555220094,-0.7193449171491262,-0.6090345177887905,0,-12.5,0,0,0,0.06227,1413,1415,1425,1500,1500,1500
1747553785.214182,-0.12,0.0,0.19,-0.08726646259971647,0.004363323129985824,-0.16253378659197193,1.6815958555220094,-0.7193449171491262,-0.6090345177887905,0,-10.332679,0,0,0,0.190128,1428,1416,1432,1500,1500,1500
1747553785.313598,-0.06,0.02,0.05,-0.07853981633974483,0.002181661564992912,-0.16471544815696484,1.6649113061784395,-0.6929241136576743,-0.6048072018304127,0,-2.780225,0,0,0,0.643402,1468,1426,1459,1500,1500,1500
1747553785.4152334,-0.06,0.02,0.05,-0.07853981633974483,0.002181661564992912,-0.16471544815696484,1.6649113061784395,-0.6929241136576743,-0.6048072018304127,0,-0.070916,0,0,0,0.7,1508,1434,1499,1500,1500,1500
1747553785.513261,0.28,-0.11,-0.04,-0.03381575425739013,-0.002181661564992912,-0.10144726277217041,1.653364973251613,-0.6717558500343549,-0.6019924842047004,0,-0.070916,0,0,0,0.7,1548,1434,1500,1500,1500,1500
1747553785.6134286,0.18,-0.21,0.09,0.016362461737446838,0.015271630954950384,-0.013089969389957472,1.6505796476434091,-0.6657772543170896,-0.599637412531181,0,-0.070916,0,0,0,0.7,1559,1434,1500,1500,1500,1500
1747553785.712825,0.18,-0.21,0.09,0.016362461737446838,0.015271630954950384,-0.013089969389957472,1.6505796476434091,-0.6657772543170896,-0.599637412531181,0,-0.056222,0,0,0,0.7,1559,1434,1500,1500,1500,1500
1747553785.8153317,-0.03,-0.01,0.11,0.055632369907319255,0.02945243112740431,0.032724923474893676,1.6531109830676622,-0.6685734828399138,-0.5941965903375817,0,-0.056222,0,0,0,0.7,1559,1434,1500,1500,1500,1500
1747553785.9130511,0.03,0.0,0.0,0.10471975511965978,0.008726646259971648,0.11562806294462433,1.6619992343483792,-0.6798763039459319,-0.5900512672554391,0,-0.056222,0,0,0,0.7,1559,1434,1500,1500,1500,1500
1747553785.9950418,0.03,0.0,0.0,0.10471975511965978,0.008726646259971648,0.11562806294462433,1.6619992343483792,-0.6798763039459319,-0.5900512672554391,0,-0.056222,0,0,0,0.7,1559,1434,1500,1500,1500,1500
1747553786.0935764,0.01,-0.02,0.11,0.11562806294462433,-0.001090830782496456,0.18216874067690814,1.6810080713018112,-0.7035391222903672,-0.5927072537143533,0,-0.056222,0,0,0,0.7,1559,1434,1500,1500,1500,1500
1747553786.192968,0.01,-0.02,0.11,0.11562806294462433,-0.001090830782496456,0.18216874067690814,1.6810080713018112,-0.7035391222903672,-0.5927072537143533,0,-0.056222,0,0,0,0.7,1559,1434,1500,1500,1500,1500
1747553786.2781205,0.0,0.0,0.07,0.11999138607461016,-0.01090830782496456,0.22471114119426994,1.701125558522128,-0.7334403336441795,-0.5973471692459026,0,-0.056222,0,0,0,0.7,1559,1434,1500,1500,1500,1500
1747553786.3685083,0.01,0.07,0.05,0.12108221685710661,-0.008726646259971648,0.2596177262341565,1.7254045499555213,-0.7706012451566828,-0.6058325436907304,0,-0.056222,0,0,0,0.7,1559,1434,1500,1500,1500,1500
1747553786.461515,0.01,0.07,0.05,0.12108221685710661,-0.008726646259971648,0.2596177262341565,1.7254045499555213,-0.7706012451566828,-0.6058325436907304,0,-0.056222,0,0,0,0.7,1559,1434,1500,1500,1500,1500
1747553786.559872,-0.01,0.04,-0.02,0.10253809355466686,-0.006544984694978736,0.27598018797160334,1.7507689042586716,-0.811000516464421,-0.6173859878827705,0,-0.056222,0,0,0,0.7,1559,1434,1500,1500,1500,1500
1747553786.6607122,-0.01,0.04,-0.02,0.10253809355466686,-0.006544984694978736,0.27598018797160334,1.7507689042586716,-0.811000516464421,-0.6173859878827705,0,-0.056222,0,0,0,0.7,1559,1434,1500,1500,1500,1500
1747553786.761297,-0.01,0.12,0.1,0.08072147790473774,-0.001090830782496456,0.27379852640661045,1.773268300319573,-0.8525874351055542,-0.6292124196693003,0,-0.056222,0,0,0,0.7,1559,1434,1500,1500,1500,1500
1747553786.8599687,-0.03,0.12,0.01,0.050178215994836975,0.002181661564992912,0.2552544031041707,1.7919283558502153,-0.8896597419058638,-0.6415179402684067,0,-0.056222,0,0,0,0.7,1559,1434,1500,1500,1500,1500
1747553786.9596581,-0.03,0.12,0.01,0.050178215994836975,0.002181661564992912,0.2552544031041707,1.7919283558502153,-0.8896597419058638,-0.6415179402684067,0,-0.056222,0,0,0,0.7,1559,1434,1500,1500,1500,1500
1747553787.0413907,-0.06,0.1,0.04,0.022907446432425576,0.006544984694978736,0.2279836335417593,1.8082739292728334,-0.9261336602485014,-0.6554544616652836,0,-0.056222,0,0,0,0.7,1559,1434,1500,1500,1500,1500
1747553787.1432197,-0.06,0.1,0.04,0.022907446432425576,0.006544984694978736,0.2279836335417593,1.8082739292728334,-0.9261336602485014,-0.6554544616652836,0,-0.056222,0,0,0,0.7,1559,1434,1500,1500,1500,1500
1747553787.2278981,-0.04,0.16,0.06,-0.001090830782496456,0.007635815477475192,0.20180369476184434,1.8189408856058964,-0.9567175558651992,-0.6667344295168892,0,-0.056222,0,0,0,0.7,1559,1434,1500,1500,1500,1500
1747553787.3270419,-0.09,0.13,0.03,-0.009817477042468103,0.01090830782496456,0.17998707911191522,1.8271844764049305,-0.9851223390978491,-0.6772360103552362,0,-0.056222,0,0,0,0.7,1559,1434,1500,1500,1500,1500
1747553787.4277632,-0.09,0.13,0.03,-0.009817477042468103,0.01090830782496456,0.17998707911191522,1.8271844764049305,-0.9851223390978491,-0.6772360103552362,0,-0.056222,0,0,0,0.7,1559,1434,1500,1500,1500,1500
1747553787.5152082,-0.01,0.14,0.04,-0.018544123302439753,0.016362461737446838,0.16471544815696484,1.830787383540619,-1.0097633821044432,-0.6853135985328996,0,-0.056222,0,0,0,0.7,1559,1434,1500,1500,1500,1500
1747553787.613414,-0.01,0.14,0.04,-0.018544123302439753,0.016362461737446838,0.16471544815696484,1.830787383540619,-1.0097633821044432,-0.6853135985328996,0,-0.056222,0,0,0,0.7,1559,1434,1500,1500,1500,1500
1747553787.7080402,-0.07,0.16,0.05,-0.02399827721492203,0.008726646259971648,0.14726215563702155,1.8344639231311897,-1.0299068270670353,-0.6936226954667389,0,-0.056222,0,0,0,0.7,1559,1434,1500,1500,1500,1500
1747553787.816085,-0.04,0.13,0.03,-0.018544123302439753,0.007635815477475192,0.12871803233458182,1.838185337692471,-1.049216209048987,-0.7020877654858454,0,-0.056222,0,0,0,0.7,1559,1434,1500,1500,1500,1500
1747553787.909744,-0.04,0.13,0.03,-0.018544123302439753,0.007635815477475192,0.12871803233458182,1.838185337692471,-1.049216209048987,-0.7020877654858454,0,-0.056222,0,0,0,0.7,1559,1434,1500,1500,1500,1500
1747553788.013081,-0.04,0.17,-0.01,-0.019634954084936207,0.008726646259971648,0.11780972450961724,1.8424067788430374,-1.06661046304561,-0.7106730867337652,0,-0.056222,0,0,0,0.7,1559,1434,1500,1500,1500,1500
1747553788.11345,-0.06,0.15,0.1,-0.013089969389957472,0.003272492347489368,0.10799224746714914,1.846414630552432,-1.0812572995565541,-0.7183012221770331,0,-0.056222,0,0,0,0.7,1559,1434,1500,1500,1500,1500
1747553788.212854,-0.06,0.15,0.1,-0.013089969389957472,0.003272492347489368,0.10799224746714914,1.846414630552432,-1.0812572995565541,-0.7183012221770331,0,-0.249818,0,0,0,0.7,1558,1434,1500,1500,1500,1500
1747553788.314925,-0.03,0.14,0.06,-0.008726646259971648,0.002181661564992912,0.09053895494720585,1.850853582274675,-1.094931103263888,-0.7256108834804667,0,-0.070916,0,0,0,0.7,1559,1434,1500,1500,1500,1500
1747553788.4032986,-0.05,0.13,0.04,-0.01090830782496456,-0.004363323129985824,0.0719948316447661,1.8546417166443434,-1.1056073696156612,-0.7315454362297468,0,-0.070916,0,0,0,0.7,1559,1434,1500,1500,1500,1500
1747553788.5130956,-0.05,0.13,0.04,-0.01090830782496456,-0.004363323129985824,0.0719948316447661,1.8546417166443434,-1.1056073696156612,-0.7315454362297468,0,-0.003841,0,0,0,0.7,1559,1434,1500,1500,1500,1500
1747553788.612899,-0.03,0.13,0.05,-0.007635815477475192,-0.006544984694978736,0.05781403147231216,1.8588305147102802,-1.1145539258091786,-0.7370511362725464,0,0,0,0,0,0.7,1559,1434,1500,1500,1500,1500
1747553788.7141922,-0.03,0.13,0.05,-0.007635815477475192,-0.006544984694978736,0.05781403147231216,1.8588305147102802,-1.1145539258091786,-0.7370511362725464,0,0,0,0,0,0.7,1559,1434,1500,1500,1500,1500
1747553788.8132508,-0.07,0.12,0.04,-0.015271630954950384,-0.003272492347489368,0.04581489286485115,1.8611913526922148,-1.1216388853720627,-0.7411744613993864,0,0,0,0,0,0.7,1561,1432,1500,1500,1500,1500
1747553788.9119716,-0.06,0.11,0.02,-0.011999138607461015,0.001090830782496456,0.037088246604879506,1.863016391945639,-1.1269544816013122,-0.7443752757680778,0,0,0,0,0,0.7,1564,1429,1500,1500,1500,1500
1747553788.9936671,-0.06,0.11,0.02,-0.011999138607461015,0.001090830782496456,0.037088246604879506,1.863016391945639,-1.1269544816013122,-0.7443752757680778,0,0,0,0,0,0.7,1564,1429,1500,1500,1500,1500
1747553789.0924675,-0.06,0.11,0.09,-0.01090830782496456,-0.003272492347489368,0.032724923474893676,1.864146514395432,-1.1310159977754553,-0.7466112563047981,0,0,0,0,0,0.7,1567,1425,1500,1500,1500,1500
1747553789.1884513,0.01,0.05,0.01,-0.009817477042468103,0.002181661564992912,0.05672320068981571,1.8677336348619256,-1.1376722845206033,-0.7507995054325531,0,0,0,0,0,0.7,1570,1422,1500,1500,1500,1500
1747553789.2771544,0.01,0.05,0.01,-0.009817477042468103,0.002181661564992912,0.05672320068981571,1.8677336348619256,-1.1376722845206033,-0.7507995054325531,0,0,0,0,0,0.7,1570,1422,1500,1500,1500,1500
1747553789.3780138,-0.05,0.08,0.06,0.004363323129985824,-0.009817477042468103,0.10035643198967395,1.8735492642154359,-1.147301486586791,-0.7573944232681767,0,0,0,0,0,0.7,1573,1419,1500,1500,1500,1500
1747553789.4637165,-0.05,0.08,0.06,0.004363323129985824,-0.009817477042468103,0.10035643198967395,1.8735492642154359,-1.147301486586791,-0.7573944232681767,0,0,0,0,0,0.7,1573,1419,1500,1500,1500,1500
1747553789.5645437,-0.13,0.14,0.07,0.0,-0.014180800172453928,0.14835298641951802,1.8895810322617665,-1.1654555756721756,-0.7749753742560326,0,0,0,0,0,0.7,1576,1415,1500,1500,1500,1500
1747553789.6623778,-0.13,0.14,0.07,0.0,-0.014180800172453928,0.14835298641951802,1.8895810322617665,-1.1654555756721756,-0.7749753742560326,0,0,0,0,0,0.7,1579,1410,1500,1500,1500,1500
1747553789.762299,-0.08,0.11,-0.03,-0.008726646259971648,-0.006544984694978736,0.18435040224190105,1.9103421887165237,-1.1884449537804858,-0.7973446409670518,0,0,0,0,0,0.7,1579,1410,1500,1500,1500,1500
1747553789.863541,-0.11,0.08,-0.05,-0.014180800172453928,-0.00545415391248228,0.21271200258680892,1.9368202933803855,-1.2171768992714966,-0.8273470679362118,0,0,0,0,0,0.7,1579,1410,1500,1500,1500,1500
1747553789.9627857,-0.11,0.08,-0.05,-0.014180800172453928,-0.00545415391248228,0.21271200258680892,1.9368202933803855,-1.2171768992714966,-0.8273470679362118,0,0,0,0,0,0.7,1579,1410,1500,1500,1500,1500
1747553790.0627222,-0.04,0.08,0.03,-0.0272707695624114,0.003272492347489368,0.23125612588924865,1.9698566512161817,-1.2492099643584025,-0.8661376669794587,0,0,0,0,0,0.7,1583,1406,1500,1500,1500,1500
1747553790.1633651,-0.15,0.2,0.02,-0.039269908169872414,-0.006544984694978736,0.2301652951067522,2.011103861447642,-1.2821935889944807,-0.9148881321651843,0,0,0,0,0,0.7,1587,1402,1500,1500,1500,1500
1747553790.2632296,-0.15,0.2,0.02,-0.039269908169872414,-0.006544984694978736,0.2301652951067522,2.011103861447642,-1.2821935889944807,-0.9148881321651843,0,-1.812565,0,0,0,0.7,1576,1389,1460,1500,1500,1500
1747553790.361268,-0.13,0.11,0.05,-0.05672320068981571,-0.02181661564992912,0.2585268954516601,2.068225616917519,-1.3140732473794006,-0.982311622753156,0,-5.887076,0,0,0,0.413778,1536,1381,1421,1500,1500,1500
1747553790.4635112,-0.13,0.18,0.02,-0.0916297857297023,-0.013089969389957472,0.32506757318394386,2.1543330811079664,-1.3474775051376993,-1.0823641912835,0,-6.920357,0,0,0,0.329685,1496,1379,1416,1500,1500,1500
1747553790.5659049,-0.13,0.18,0.02,-0.0916297857297023,-0.013089969389957472,0.32506757318394386,2.1543330811079664,-1.3474775051376993,-1.0823641912835,0,-6.920357,0,0,0,0.329685,1456,1379,1416,1500,1500,1500
1747553790.6611698,-0.37,0.17,0.0,-0.16580627893946132,0.031634092692397225,0.26725354171163174,2.241137536059121,-1.3829527778265218,-1.1922539498374851,0,-6.920357,0,0,0,0.329685,1427,1379,1416,1500,1500,1500
1747553790.7575383,-0.26,0.0,0.01,-0.19525871006686563,-0.007635815477475192,0.210530341021816,2.3278651953338234,-1.4090078725088795,-1.3079093902065766,0,-7.388752,0,0,0,0.269282,1418,1380,1413,1500,1500,1500
1747553790.861307,-0.26,0.0,0.01,-0.19525871006686563,-0.007635815477475192,0.210530341021816,2.3278651953338234,-1.4090078725088795,-1.3079093902065766,0,-9.237412,0,0,0,0.166796,1395,1376,1403,1500,1500,1500
1747553790.9624133,-0.4,0.19,0.09,-0.2476185876266955,0.007635815477475192,0.07635815477475191,2.382481468551513,-1.4230507079439771,-1.3997086541910095,0,-9.237412,0,0,0,0.166796,1395,1376,1403,1500,1500,1500
1747553791.0634577,-0.4,0.19,0.09,-0.2476185876266955,0.007635815477475192,0.07635815477475191,2.382481468551513,-1.4230507079439771,-1.3997086541910095,0,-6.616611,0,0,0,0.370539,1433,1379,1418,1500,1500,1500
1747553791.1626258,-0.33,0.21,-0.02,-0.272707695624114,0.025089107997418487,-0.03490658503988659,2.3354231819016227,-1.4250714100182496,-1.3929080125022255,0,-6.467298,0,0,0,0.378996,1435,1379,1419,1500,1500,1500
1747553791.2624989,-0.21,-0.05,-0.01,-0.2301652951067522,0.03381575425739013,-0.037088246604879506,2.2382517926570937,-1.4204325275720662,-1.333117346898924,0,-2.314819,0,0,0,0.632369,1475,1390,1447,1500,1500,1500
1747553791.3642187,-0.21,-0.05,-0.01,-0.2301652951067522,0.03381575425739013,-0.037088246604879506,2.2382517926570937,-1.4204325275720662,-1.333117346898924,0,0,0,0,0,0.7,1515,1402,1487,1500,1500,1500
1747553791.463428,0.18,-0.07,-0.09,-0.17562375598192942,0.04581489286485115,0.050178215994836975,2.180207401519143,-1.4250386271579907,-1.3057355970530957,0,0,0,0,0,0.7,1555,1402,1500,1500,1500,1500
1747553791.566751,0.04,0.07,0.04,-0.16253378659197193,0.10035643198967395,0.06544984694978735,2.1283677285238,-1.4397947978525367,-1.2789995743432998,0,0,0,0,0,0.7,1587,1402,1500,1500,1500,1500
1747553791.659567,0.04,0.07,0.04,-0.16253378659197193,0.10035643198967395,0.06544984694978735,2.1283677285238,-1.4397947978525367,-1.2789995743432998,0,0,0,0,0,0.7,1587,1402,1500,1500,1500,1500
1747553791.745041,0.17,-0.37,-0.29,-0.14180800172453928,0.1461713248545251,0.04690572364734761,2.01147535096274,-1.4553572586440016,-1.1824707554369123,0,0,0,0,0,0.7,1587,1402,1500,1500,1500,1500
1747553791.8423407,0.17,-0.37,-0.29,-0.14180800172453928,0.1461713248545251,0.04690572364734761,2.01147535096274,-1.4553572586440016,-1.1824707554369123,0,0,0,0,0,0.7,1587,1402,1500,1500,1500,1500
1747553791.9441612,0.08,-0.21,-0.08,-0.061086523819801536,0.12980886311707826,0.11999138607461016,1.8596118984812953,-1.475755345171334,-1.045526525299725,0,0,0,0,0,0.7,1587,1402,1500,1500,1500,1500
1747553792.0297658,-0.04,-0.15,0.01,0.009817477042468103,0.06981317007977318,0.2945243112740431,1.8256659115192166,-1.5135418251017918,-1.0140429991394129,0,0,0,0,0,0.7,1587,1402,1500,1500,1500,1500
1747553792.1289737,-0.04,-0.15,0.01,0.009817477042468103,0.06981317007977318,0.2945243112740431,1.8256659115192166,-1.5135418251017918,-1.0140429991394129,0,0,0,0,0,0.7,1587,1402,1500,1500,1500,1500
1747553792.2298748,0.09,-0.01,-0.09,0.044724062082354694,0.04799655442984406,0.39269908169872414,2.9742028960308593,-1.5662979036239149,-2.1586721918251244,0,0,0,0,0,0.7,1587,1402,1500,1500,1500,1500
1747553792.329946,0.05,-0.05,-0.08,0.06435901616729091,0.03381575425739013,0.44505895925855404,-1.5671202386802974,-1.505647396239477,2.392180116103225,0,0,0,0,0,0.7,1587,1402,1500,1500,1500,1500
1747553792.4297736,0.05,-0.05,-0.08,0.06435901616729091,0.03381575425739013,0.44505895925855404,-1.5671202386802974,-1.505647396239477,2.392180116103225,0,0,0,0,0,0.7,1587,1402,1500,1500,1500,1500
1747553792.5302813,0.05,-0.04,-0.02,0.061086523819801536,0.028361600344907856,0.47778388273344774,-1.5671202386802974,-1.505647396239477,2.392180116103225,0,0,0,0,0,0.7,1587,1402,1500,1500,1500,1500
1747553792.6298237,0.05,-0.04,-0.02,0.061086523819801536,0.028361600344907856,0.47778388273344774,-1.5671202386802974,-1.505647396239477,2.392180116103225,0,0,0,0,0,0.7,1587,1402,1500,1500,1500,1500
1747553792.7297788,0.01,0.06,-0.03,0.04799655442984406,0.031634092692397225,0.49741883681838395,-1.513641721104697,-1.3623573419771096,2.3557463915489927,0,0,0,0,0,0.7,1587,1402,1500,1500,1500,1500
1747553792.8281388,0.0,0.04,-0.05,0.039269908169872414,0.030543261909900768,0.4985096676008804,-1.507272826371044,-1.2853427208165478,2.3561245746122963,0,0,0,0,0,0.7,1587,1402,1500,1500,1500,1500
1747553792.9296558,0.0,0.04,-0.05,0.039269908169872414,0.030543261909900768,0.4985096676008804,-1.507272826371044,-1.2853427208165478,2.3561245746122963,0,0,0,0,0,0.7,1587,1402,1500,1500,1500,1500
1747553793.028148,-0.04,0.07,0.0,0.019634954084936207,0.0272707695624114,0.4908738521234052,-1.5044094387879017,-1.2142444179257355,2.3575067005003993,0,0,0,0,0,0.7,1587,1402,1500,1500,1500,1500
1747553793.129913,0.03,0.06,-0.05,0.015271630954950384,0.019634954084936207,0.47669305195095124,-1.5057652252542149,-1.1396648339370443,2.3618951677389153,0,0,0,0,0,0.7,1587,1402,1500,1500,1500,1500
1747553793.2279274,0.03,0.06,-0.05,0.015271630954950384,0.019634954084936207,0.47669305195095124,-1.5057652252542149,-1.1396648339370443,2.3618951677389153,0,0,0,0,0,0.7,1587,1402,1500,1500,1500,1500
1747553793.3274276,0.0,0.13,-0.02,0.007635815477475192,0.01090830782496456,0.4690572364734761,-1.5101378717555436,-1.0706607112868802,2.367148302327883,0,0,0,0,0,0.7,1587,1402,1500,1500,1500,1500
1747553793.4195702,0.03,0.05,-0.1,-0.015271630954950384,-0.001090830782496456,0.46469391334349025,-1.5163935290057342,-0.998360630406081,2.3738906476681585,0,0,0,0,0,0.7,1587,1402,1500,1500,1500,1500
1747553793.509741,0.03,0.05,-0.1,-0.015271630954950384,-0.001090830782496456,0.46469391334349025,-1.5163935290057342,-0.998360630406081,2.3738906476681585,0,0,0,0,0.07848,0.7,1587,1402,1500,1500,1539,1539
1747553793.6083086,0.01,0.19,-0.02,-0.03599741582238305,0.004363323129985824,0.46142142099600086,-1.524846434232585,-0.926663520773898,2.379884682711916,0,0,0,-0.000216,0.28,0.7,1587,1402,1500,1500,1557,1557
1747553793.710364,0.01,0.19,-0.02,-0.03599741582238305,0.004363323129985824,0.46142142099600086,-1.524846434232585,-0.926663520773898,2.379884682711916,0,0,0,-0.000216,0.28,0,1547,1442,1500,1500,1557,1557
1747553793.8112102,0.15,0.13,-0.04,-0.05235987755982989,0.009817477042468103,0.4537856055185257,-1.5360120646019935,-0.8557944259769534,2.384338319034177,0,0,0,-0.000216,0.28,0,1507,1482,1500,1500,1557,1557
1747553793.9129188,0.1,0.28,0.0,0.13308135546456762,0.00545415391248228,0.2923426497090502,-1.5270674691167914,-0.7941921971040576,2.3877327297013125,0,0,0,-0.001254,0.28,0,1500,1500,1500,1500,1557,1557
1747553793.9929245,0.1,0.28,0.0,0.13308135546456762,0.00545415391248228,0.2923426497090502,-1.5270674691167914,-0.7941921971040576,2.3877327297013125,0,0,0,-0.001791,0.28,0,1500,1500,1500,1500,1557,1557
1747553794.0918748,-0.02,0.21,0.12,0.20616701789183017,0.001090830782496456,-0.02181661564992912,-1.5033000178890954,-0.7812555035398983,2.3888362960482468,0,0,0,-0.001791,0.28,0,1500,1500,1500,1500,1557,1557
1747553794.1938083,-0.02,0.21,0.12,0.20616701789183017,0.001090830782496456,-0.02181661564992912,-1.5033000178890954,-0.7812555035398983,2.3888362960482468,0,0,0,-0.001791,0.28,0,1500,1500,1500,1500,1557,1557
1747553794.2922823,-0.27,0.2,-0.02,0.3534291735288517,-0.025089107997418487,-0.22907446432425577,-1.458531269779756,-0.8037208013930935,2.3871750732290624,0,0,0,-0.001791,0.28,0,1500,1500,1500,1500,1557,1557
1747553794.3946905,0.06,0.24,-0.07,0.4821472058634335,-0.07963064712224129,-0.2683443724941282,-1.3988800466825424,-0.8409921988664499,2.3905804638564927,0,0,0,-0.002423,0.28,0,1500,1500,1500,1500,1557,1557
1747553794.479631,0.06,0.24,-0.07,0.4821472058634335,-0.07963064712224129,-0.2683443724941282,-1.3988800466825424,-0.8409921988664499,2.3905804638564927,0,0,0,-0.005907,0.28,0,1500,1500,1500,1500,1557,1557
1747553794.578338,0.0,0.15,-0.14,0.5377795757707527,-0.1341721862470641,-0.31306843457648287,-1.3272271676321503,-0.8898056721532143,2.401413815587171,0,0,0,-0.012408,0.28,0,1500,1500,1500,1500,1557,1557
1747553794.6756709,-0.05,0.28,-0.07,0.5508695451607103,-0.19416787928436915,-0.385063266221249,-1.2573611041650194,-0.950608491271937,2.4194556883630223,0,0,0,-0.012408,0.28,0,1500,1500,1500,1500,1557,1557
1747553794.759685,-0.05,0.28,-0.07,0.5508695451607103,-0.19416787928436915,-0.385063266221249,-1.2573611041650194,-0.950608491271937,2.4194556883630223,0,0,0,-0.013995,0.28,0,1500,1500,1500,1500,1557,1557
1747553794.8589015,-0.03,0.29,-0.14,0.5377795757707527,-0.24434609527920614,-0.4461497900410505,-1.19290391892144,-1.0198252121630604,2.4370309438360946,0,0,0,-0.013995,0.28,0,1500,1500,1500,1500,1557,1557
1747553794.9595292,-0.03,0.29,-0.14,0.5377795757707527,-0.24434609527920614,-0.4461497900410505,-1.19290391892144,-1.0198252121630604,2.4370309438360946,0,0,0,-0.013995,0.28,0,1500,1500,1500,1500,1557,1557
1747553795.0581517,-0.06,0.27,-0.16,0.5225079448158024,-0.28579766501407144,-0.4886921905584123,-1.1280690172985353,-1.1048486042100043,2.4561540175615035,0,0,0,-0.013995,0.28,0,1500,1500,1500,1500,1557,1557
1747553795.157575,-0.06,0.33,-0.15,0.5115996369908379,-0.32288591161895097,-0.5235987755982988,-1.0623569620050755,-1.1971250904101978,2.471649075758316,0,0,0,-0.019327,0.28,0,1500,1500,1500,1500,1557,1557
1747553795.2570963,-0.06,0.33,-0.15,0.5115996369908379,-0.32288591161895097,-0.5235987755982988,-1.0623569620050755,-1.1971250904101978,2.471649075758316,0,0,0,-0.023359,0.28,0,1500,1500,1500,1500,1557,1557
1747553795.3582025,-0.05,1.51,-0.17,0.5028729907308662,-0.346884188833873,-0.5421428989007386,-0.9949890854453795,-1.2910874435919408,2.4781649268140433,0,0,0,-0.023359,0.28,0.440866,1540,1460,1500,1500,1557,1557
1747553795.4586856,-0.03,0.23,-0.23,0.507236313860852,-0.38069994309126315,-0.5399612373357457,-0.905585729058476,-1.3945804512344537,2.4670055900445416,0,0,0,-0.023359,0.28,0.7,1580,1420,1500,1500,1557,1557
1747553795.5455787,-0.03,0.23,-0.23,0.507236313860852,-0.38069994309126315,-0.5399612373357457,-0.905585729058476,-1.3945804512344537,2.4670055900445416,0,0,0,-0.023359,0.28,0.7,1586,1401,1500,1500,1557,1557
1747553795.6452787,-0.27,0.53,-0.24,0.5017821599483697,-0.40033489717619936,-0.5235987755982988,-0.7304943394014093,-1.4985939338282792,2.3707514082892027,0,0,0,-0.023359,0.28,0.7,1586,1401,1500,1500,1557,1557
1747553795.7307804,-0.27,0.53,-0.24,0.5017821599483697,-0.40033489717619936,-0.5235987755982988,-0.7304943394014093,-1.4985939338282792,2.3707514082892027,0,0,0,-0.023359,0.28,0.7,1586,1401,1500,1500,1557,1557
1747553795.8356986,0.02,0.0,-0.3,0.5214171140333059,-0.3861540970037454,-0.34470252726888007,1.8029193863028028,-1.5424750677917303,-0.08766225805276928,0,0,0,-0.030123,0.28,0.7,1586,1400,1500,1500,1557,1557
1747553795.9417124,0.06,0.1,-0.15,0.5246896063807953,-0.4014257279586958,0.050178215994836975,2.6336606295192944,-1.4879414680126204,-0.8351430561108474,0,0,0,-0.030123,0.28,0.7,1586,1400,1500,1500,1557,1557
1747553796.0300741,0.06,0.1,-0.15,0.5246896063807953,-0.4014257279586958,0.050178215994836975,2.6336606295192944,-1.4879414680126204,-0.8351430561108474,0,0,0,-0.030123,0.28,0.7,1586,1400,1500,1500,1557,1557
1747553796.1308734,0.02,0.16,-0.33,0.45160394395353276,-0.3741549583962844,0.2923426497090502,3.094287923260029,-1.4330315473710815,-1.221654132262796,0,0,0,-0.030123,0.28,0.7,1586,1400,1500,1500,1557,1557
1747553796.2312493,0.02,0.16,-0.33,0.45160394395353276,-0.3741549583962844,0.2923426497090502,3.094287923260029,-1.4330315473710815,-1.221654132262796,0,0,0,-0.030123,0.28,0.7,1586,1400,1500,1500,1557,1557
1747553796.331553,0.07,0.27,-0.25,0.33052172709642613,-0.33815754257390135,0.43524148221608594,-2.8675848990038912,-1.3733691835538988,-1.4903509866864708,0,0,0,-0.030123,0.28,0.7,1586,1400,1500,1500,1557,1557
1747553796.430004,0.09,0.24,-0.15,0.19634954084936207,-0.2792526803190927,0.5148721293383273,-2.6367078308490313,-1.2999829701613468,-1.687663731452425,0,0,0,-0.030123,0.28,0.7,1586,1400,1500,1500,1557,1557
1747553796.5297863,0.09,0.24,-0.15,0.19634954084936207,-0.2792526803190927,0.5148721293383273,-2.6367078308490313,-1.2999829701613468,-1.687663731452425,0,0,0,-0.030123,0.28,0.7,1586,1400,1500,1500,1557,1557
1747553796.6303976,0.13,0.29,-0.12,0.09272061651219876,-0.2279836335417593,0.5541420375081997,-2.487426691721077,-1.2269056547573012,-1.8243593815541008,0,0,0,0,0,0.7,1587,1402,1500,1500,1517,1517
1747553796.714864,0.13,0.29,-0.12,0.09272061651219876,-0.2279836335417593,0.5541420375081997,-2.487426691721077,-1.2269056547573012,-1.8243593815541008,0,-2.314819,0,0,0,0.610588,1565,1392,1460,1500,1500,1500
1747553796.8140857,0.19,0.21,-0.19,0.007635815477475192,-0.16907877128695067,0.5705044992456465,-2.374258465221533,-1.147586093361544,-1.9389338370505456,0,-11.489294,0,0,0,0.080699,1525,1372,1420,1500,1500,1500
1747553796.9113393,-0.09,0.3,-0.06,-0.3010692959690218,-0.1090830782496456,0.5661411761156606,-2.315721365681161,-1.0696854052426426,-2.0342533058857724,0,-12.5,0,0,0,0.003974,1485,1364,1385,1500,1500,1500
1747553796.9936218,-0.09,0.3,-0.06,-0.3010692959690218,-0.1090830782496456,0.5661411761156606,-2.315721365681161,-1.0696854052426426,-2.0342533058857724,0,-12.5,0,0,0,0,1445,1364,1385,1500,1500,1500
1747553797.0956073,0.02,-0.01,-0.11,-0.5268712679457882,-0.009817477042468103,0.5443245604657315,-2.300037269303891,-1.0059326153644528,-2.125177365961474,0,-12.5,0,0,0,0,1405,1364,1385,1500,1500,1500
1747553797.1977663,-0.06,-0.08,-0.08,-0.6523168079328807,-0.08072147790473774,0.5137812985558308,-2.317348466092618,-0.941839768009986,-2.216567673687229,0,-12.5,0,0,0,0,1365,1364,1385,1500,1500,1500
1747553797.2968266,-0.06,-0.08,-0.08,-0.6523168079328807,-0.08072147790473774,0.5137812985558308,-2.317348466092618,-0.941839768009986,-2.216567673687229,0,-12.5,0,0,0,0,1361,1364,1385,1500,1500,1500
1747553797.3953657,-0.22,0.04,-0.05,-0.7428557628800865,-0.12871803233458182,0.4243331743911214,-2.3776964043256523,-0.8753139611766984,-2.278884437315575,0,-12.5,0,0,0,0,1361,1364,1385,1500,1500,1500
1747553797.4814317,-0.22,0.04,-0.05,-0.7428557628800865,-0.12871803233458182,0.4243331743911214,-2.3776964043256523,-0.8753139611766984,-2.278884437315575,0,-12.5,0,0,0,0,1361,1364,1385,1500,1500,1500
1747553797.5830402,-0.15,0.11,-0.11,-0.8333947178272924,-0.02945243112740431,0.1308996938995747,-2.4655337130302364,-0.8364521274677006,-2.313671048421478,0,-12.5,0,0,0,0,1361,1364,1385,1500,1500,1500
1747553797.6778286,0.06,-0.23,-0.09,-0.8181230868723419,0.06763150851478027,-0.07417649320975901,-2.593107621790478,-0.8381883887531246,-2.316492261272169,0,-12.5,0,0,0,0,1361,1364,1385,1500,1500,1500
1747553797.7624366,0.06,-0.23,-0.09,-0.8181230868723419,0.06763150851478027,-0.07417649320975901,-2.593107621790478,-0.8381883887531246,-2.316492261272169,0,-12.5,0,0,0,0,1361,1364,1385,1500,1500,1500
1747553797.861411,0.07,-0.17,-0.04,-0.7254024703601433,0.15926129424448257,-0.13744467859455345,-2.710928405216148,-0.8602856635336436,-2.3068751941359658,0,-12.5,0,0,0,0,1361,1364,1385,1500,1500,1500
1747553797.9609456,0.07,-0.17,-0.04,-0.7254024703601433,0.15926129424448257,-0.13744467859455345,-2.710928405216148,-0.8602856635336436,-2.3068751941359658,0,-12.5,0,0,0,0,1361,1364,1385,1500,1500,1500
1747553798.0619824,0.0,-0.1,0.04,-0.6872233929727672,0.22252947962927702,-0.18216874067690814,-2.834409280653986,-0.8973982297994516,-2.288105443884133,0,-12.5,0,0,0,0,1361,1364,1385,1500,1500,1500
1747553798.1608548,0.03,-0.12,-0.03,-0.6206827152404835,0.26070855701665296,-0.2007128639793479,-2.9512841285215496,-0.9379515644782443,-2.259373821700656,0,-12.5,0,0,0,0,1361,1364,1385,1500,1500,1500
1747553798.2456746,0.03,-0.12,-0.03,-0.6206827152404835,0.26070855701665296,-0.2007128639793479,-2.9512841285215496,-0.9379515644782443,-2.259373821700656,0,-12.5,0,0,0,0,1361,1364,1385,1500,1500,1500
