time,ax,ay,az,gx,gy,gz,roll,pitch,yaw,cmd_fx,cmd_fy,cmd_fz,cmd_tx,cmd_ty,cmd_tz,pwm_1,pwm_2,pwm_3,pwm_4,pwm_5,pwm_6
1747449357.8563192,0.0,0.0,0.0,0.0,0.0,0.0,0.0,0.0,0.0,0,0,0,0,0,0,1500,1500,1500,1500,1500,1500
1747449357.9587345,0.02,0.0,-0.36,-0.001090830782496456,0.0,-0.001090830782496456,-0.004908047833782397,0.1170103284754727,-0.0002874719376849213,0,0,0,0,0,0,1500,1500,1500,1500,1500,1500
1747449358.0616312,0.02,0.0,-0.36,-0.001090830782496456,0.0,-0.001090830782496456,-0.004908047833782397,0.1170103284754727,-0.0002874719376849213,0,0,0,0,0,0,1500,1500,1500,1500,1500,1500
1747449358.1621668,0.03,0.0,-0.28,-0.001090830782496456,0.001090830782496456,-0.001090830782496456,-0.004908047833782397,0.1170103284754727,-0.0002874719376849213,0,0,0,0,0,0,1500,1500,1500,1500,1500,1500
1747449358.2587643,0.05,0.01,-0.35000000000000003,-0.00545415391248228,-0.004363323129985824,0.001090830782496456,-0.004908047833782397,0.1170103284754727,-0.0002874719376849213,0,0,0,0,0,0,1500,1500,1500,1500,1500,1500
1747449358.355058,0.05,0.01,-0.35000000000000003,-0.00545415391248228,-0.004363323129985824,0.001090830782496456,-0.004908047833782397,0.1170103284754727,-0.0002874719376849213,0,0,0,0,0,0,1500,1500,1500,1500,1500,1500
1747449358.448879,0.01,0.0,-0.36,0.002181661564992912,-0.003272492347489368,0.0,-0.004908047833782397,0.1170103284754727,-0.0002874719376849213,0,0,0,0,0,0,1500,1500,1500,1500,1500,1500
1747449358.55653,0.02,-0.02,-0.29,-0.002181661564992912,0.002181661564992912,0.0,-0.004908047833782397,0.1170103284754727,-0.0002874719376849213,0,0,0,0,0,0,1500,1500,1500,1500,1500,1500
1747449358.6488411,0.02,-0.02,-0.29,-0.002181661564992912,0.002181661564992912,0.0,-0.004908047833782397,0.1170103284754727,-0.0002874719376849213,0,0,0,0,0,0,1500,1500,1500,1500,1500,1500
1747449358.7443128,0.01,0.0,-0.33,-0.003272492347489368,-0.003272492347489368,0.001090830782496456,-0.004908047833782397,0.1170103284754727,-0.0002874719376849213,0,0,0,0,0,0,1500,1500,1500,1500,1500,1500
1747449358.840133,0.01,0.0,-0.33,-0.003272492347489368,-0.003272492347489368,0.001090830782496456,-0.004908047833782397,0.1170103284754727,-0.0002874719376849213,0,0,0,0,0,0,1500,1500,1500,1500,1500,1500
1747449358.942897,0.04,-0.01,-0.34,0.0,0.006544984694978736,-0.001090830782496456,-0.004908047833782397,0.1170103284754727,-0.0002874719376849213,0,0,0,0,0,0,1500,1500,1500,1500,1500,1500
1747449359.0439491,0.04,-0.03,-0.28,-0.00545415391248228,-0.002181661564992912,0.0,-0.004908047833782397,0.1170103284754727,-0.0002874719376849213,0,0,0,0,0,0,1500,1500,1500,1500,1500,1500
1747449359.1429698,0.04,-0.03,-0.28,-0.00545415391248228,-0.002181661564992912,0.0,-0.004908047833782397,0.1170103284754727,-0.0002874719376849213,0,0,0,0,0,0,1500,1500,1500,1500,1500,1500
1747449359.2394147,0.06,-0.04,-0.32,0.0,0.001090830782496456,-0.002181661564992912,-0.004908047833782397,0.1170103284754727,-0.0002874719376849213,0,0,0,0,0,0,1500,1500,1500,1500,1500,1500
1747449359.3431542,0.0,0.02,-0.29,0.002181661564992912,0.001090830782496456,-0.002181661564992912,-0.004908047833782397,0.1170103284754727,-0.0002874719376849213,0,0,0,0,0,0,1500,1500,1500,1500,1500,1500
1747449359.4388444,0.0,0.02,-0.29,0.002181661564992912,0.001090830782496456,-0.002181661564992912,-0.004908047833782397,0.1170103284754727,-0.0002874719376849213,0,0,0,0,0,0,1500,1500,1500,1500,1500,1500
1747449359.544387,0.02,0.02,-0.32,0.0,-0.001090830782496456,0.0,-0.004908047833782397,0.1170103284754727,-0.0002874719376849213,0,0,0,0,0,0,1500,1500,1500,1500,1500,1500
1747449359.6446638,0.02,-0.02,-0.34,0.002181661564992912,0.001090830782496456,-0.001090830782496456,-0.004908047833782397,0.1170103284754727,-0.0002874719376849213,0,0,0,0,0,0,1500,1500,1500,1500,1500,1500
1747449359.7423491,0.02,-0.02,-0.34,0.002181661564992912,0.001090830782496456,-0.001090830782496456,-0.004908047833782397,0.1170103284754727,-0.0002874719376849213,0,0,0,0,0,0,1500,1500,1500,1500,1500,1500
1747449359.8440924,0.0,-0.02,-0.3,0.003272492347489368,-0.001090830782496456,-0.001090830782496456,-0.004908047833782397,0.1170103284754727,-0.0002874719376849213,0,0,0,0,0,0,1500,1500,1500,1500,1500,1500
1747449359.9435744,0.0,-0.02,-0.3,0.003272492347489368,-0.001090830782496456,-0.001090830782496456,-0.004908047833782397,0.1170103284754727,-0.0002874719376849213,0,0,0,0,0,0,1500,1500,1500,1500,1500,1500
1747449360.0491447,0.02,0.0,-0.31,-0.004363323129985824,0.001090830782496456,0.0,-0.004908047833782397,0.1170103284754727,-0.0002874719376849213,0,0,0,0,0,0,1500,1500,1500,1500,1500,1500
1747449360.1522956,0.03,0.0,-0.32,-0.002181661564992912,0.002181661564992912,0.001090830782496456,-0.004908047833782397,0.1170103284754727,-0.0002874719376849213,0,0,0,0,0,0,1500,1500,1500,1500,1500,1500
1747449360.2549458,0.03,0.0,-0.32,-0.002181661564992912,0.002181661564992912,0.001090830782496456,-0.004908047833782397,0.1170103284754727,-0.0002874719376849213,0,0,0,0,0,0,1500,1500,1500,1500,1500,1500
1747449360.3509326,0.04,0.0,-0.25,0.0,-0.001090830782496456,-0.001090830782496456,-0.004908047833782397,0.1170103284754727,-0.0002874719376849213,0,0,0,0,0,0,1500,1500,1500,1500,1500,1500
1747449360.4412215,0.01,0.0,-0.35000000000000003,0.002181661564992912,0.0,0.0,-0.004908047833782397,0.1170103284754727,-0.0002874719376849213,0,0,0,0,0,0,1500,1500,1500,1500,1500,1500
1747449360.5424817,0.01,0.0,-0.35000000000000003,0.002181661564992912,0.0,0.0,-0.004908047833782397,0.1170103284754727,-0.0002874719376849213,0,0,0,0,0,0,1500,1500,1500,1500,1500,1500
1747449360.641642,0.02,-0.02,-0.28,0.001090830782496456,0.001090830782496456,-0.001090830782496456,-0.004908047833782397,0.1170103284754727,-0.0002874719376849213,0,0,0,0,0,0,1500,1500,1500,1500,1500,1500
1747449360.734605,0.04,-0.01,-0.33,0.001090830782496456,0.002181661564992912,-0.001090830782496456,-0.004908047833782397,0.1170103284754727,-0.0002874719376849213,0,0,0,0,0,0,1500,1500,1500,1500,1500,1500
1747449360.8435752,0.04,-0.01,-0.33,0.001090830782496456,0.002181661564992912,-0.001090830782496456,-0.004908047833782397,0.1170103284754727,-0.0002874719376849213,0,0,0,0,0,0,1500,1500,1500,1500,1500,1500
1747449360.955888,0.05,0.0,-0.32,0.0,-0.002181661564992912,0.001090830782496456,-0.004908047833782397,0.1170103284754727,-0.0002874719376849213,0,0,0,0,0,0,1500,1500,1500,1500,1500,1500
1747449361.055564,0.03,0.01,-0.3,-0.004363323129985824,-0.001090830782496456,0.001090830782496456,-0.004908047833782397,0.1170103284754727,-0.0002874719376849213,0,0,0,0,0,0,1500,1500,1500,1500,1500,1500
1747449361.1488519,0.03,0.01,-0.3,-0.004363323129985824,-0.001090830782496456,0.001090830782496456,-0.004908047833782397,0.1170103284754727,-0.0002874719376849213,0,0,0,0,0,0,1500,1500,1500,1500,1500,1500
1747449361.2444031,0.03,0.0,-0.31,0.0,-0.001090830782496456,0.0,-0.004908047833782397,0.1170103284754727,-0.0002874719376849213,0,0,0,0,0,0,1500,1500,1500,1500,1500,1500
1747449361.3456888,0.03,0.0,-0.31,0.0,-0.001090830782496456,0.0,-0.004908047833782397,0.1170103284754727,-0.0002874719376849213,0,0,0,0,0,0,1500,1500,1500,1500,1500,1500
1747449361.4429674,0.03,0.0,-0.27,-0.001090830782496456,0.001090830782496456,0.001090830782496456,-0.004908047833782397,0.1170103284754727,-0.0002874719376849213,0,0,0,0,0,0,1500,1500,1500,1500,1500,1500
1747449361.5463662,0.04,-0.01,-0.37,-0.004363323129985824,-0.006544984694978736,0.001090830782496456,-0.004908047833782397,0.1170103284754727,-0.0002874719376849213,0,0,0,0,0,0,1500,1500,1500,1500,1500,1500
1747449361.6458468,0.04,-0.01,-0.37,-0.004363323129985824,-0.006544984694978736,0.001090830782496456,-0.004908047833782397,0.1170103284754727,-0.0002874719376849213,0,0,0,0,0,0,1500,1500,1500,1500,1500,1500
1747449361.7459064,0.06,-0.04,-0.3,-0.003272492347489368,-0.002181661564992912,-0.001090830782496456,-0.004908047833782397,0.1170103284754727,-0.0002874719376849213,0,0,0,0,0,0,1500,1500,1500,1500,1500,1500
1747449361.850181,0.04,-0.02,-0.31,0.0,-0.003272492347489368,-0.001090830782496456,-0.004908047833782397,0.1170103284754727,-0.0002874719376849213,0,0,0,0,0,0,1500,1500,1500,1500,1500,1500
1747449361.943942,0.04,-0.02,-0.31,0.0,-0.003272492347489368,-0.001090830782496456,-0.004908047833782397,0.1170103284754727,-0.0002874719376849213,0,0,0,0,0,0,1500,1500,1500,1500,1500,1500
1747449362.043843,0.01,-0.01,-0.27,-0.002181661564992912,0.002181661564992912,0.002181661564992912,-0.004908047833782397,0.1170103284754727,-0.0002874719376849213,0,0,0,0,0,0,1500,1500,1500,1500,1500,1500
1747449362.1547017,0.01,-0.01,-0.27,-0.002181661564992912,0.002181661564992912,0.002181661564992912,-0.004908047833782397,0.1170103284754727,-0.0002874719376849213,0,0,0,0,0,0,1500,1500,1500,1500,1500,1500
1747449362.2785542,0.05,0.0,-0.29,0.0,-0.002181661564992912,-0.001090830782496456,-0.004908047833782397,0.1170103284754727,-0.0002874719376849213,0,0,0,0,0,0,1500,1500,1500,1500,1500,1500
1747449362.3906863,0.0,0.0,-0.35000000000000003,0.002181661564992912,0.003272492347489368,-0.001090830782496456,-0.004908047833782397,0.1170103284754727,-0.0002874719376849213,0,0,0,0,0,0,1500,1500,1500,1500,1500,1500
1747449362.4946637,0.02,0.0,-0.3,0.001090830782496456,-0.003272492347489368,0.001090830782496456,-0.004908047833782397,0.1170103284754727,-0.0002874719376849213,0,0,0,0,0,0,1500,1500,1500,1500,1500,1500
1747449362.5983195,0.02,0.0,-0.3,0.001090830782496456,-0.003272492347489368,0.001090830782496456,-0.004908047833782397,0.1170103284754727,-0.0002874719376849213,0,0,0,0,0,0,1500,1500,1500,1500,1500,1500
1747449362.6938694,0.05,-0.02,-0.3,0.0,-0.001090830782496456,0.0,-0.004908047833782397,0.1170103284754727,-0.0002874719376849213,0,0,0,0,0,0,1500,1500,1500,1500,1500,1500
1747449362.7941463,0.05,-0.02,-0.3,0.0,-0.001090830782496456,0.0,-0.004908047833782397,0.1170103284754727,-0.0002874719376849213,0,0,0,0,0,0,1500,1500,1500,1500,1500,1500
1747449362.8935208,0.02,0.02,-0.38,0.002181661564992912,0.002181661564992912,0.0,-0.004908047833782397,0.1170103284754727,-0.0002874719376849213,0,0,0,0,0,0,1500,1500,1500,1500,1500,1500
1747449362.993809,0.05,0.02,-0.28,-0.001090830782496456,0.003272492347489368,0.0,-0.004908047833782397,0.1170103284754727,-0.0002874719376849213,0,0,0,0,0,0,1500,1500,1500,1500,1500,1500
1747449363.0807235,0.05,0.02,-0.28,-0.001090830782496456,0.003272492347489368,0.0,-0.004908047833782397,0.1170103284754727,-0.0002874719376849213,0,0,0,0,0,0,1500,1500,1500,1500,1500,1500
1747449363.176422,0.01,-0.02,-0.34,0.00545415391248228,-0.00545415391248228,0.0,-0.004908047833782397,0.1170103284754727,-0.0002874719376849213,0,0,0,0,0,0,1500,1500,1500,1500,1500,1500
1747449363.2751667,0.0,0.01,-0.3,-0.003272492347489368,-0.002181661564992912,0.0,-0.004908047833782397,0.1170103284754727,-0.0002874719376849213,0,0,0,0,0,0,1500,1500,1500,1500,1500,1500
1747449363.37835,0.0,0.01,-0.3,-0.003272492347489368,-0.002181661564992912,0.0,-0.004908047833782397,0.1170103284754727,-0.0002874719376849213,0,0,0,0,0,0,1500,1500,1500,1500,1500,1500
1747449363.4788733,0.02,-0.02,-0.28,0.001090830782496456,0.0,-0.002181661564992912,-0.004908047833782397,0.1170103284754727,-0.0002874719376849213,0,0,0,0,0,0,1500,1500,1500,1500,1500,1500
1747449363.5782888,0.02,-0.02,-0.28,0.001090830782496456,0.0,-0.002181661564992912,-0.004908047833782397,0.1170103284754727,-0.0002874719376849213,0,0,0,0,0,0,1500,1500,1500,1500,1500,1500
1747449363.6778395,0.01,-0.01,-0.36,-0.002181661564992912,-0.001090830782496456,0.0,-0.004908047833782397,0.1170103284754727,-0.0002874719376849213,0,0,0,0,0,0,1500,1500,1500,1500,1500,1500
1747449363.7774389,0.02,0.0,-0.31,0.002181661564992912,0.002181661564992912,-0.001090830782496456,-0.004908047833782397,0.1170103284754727,-0.0002874719376849213,0,0,0,0,0,0,1500,1500,1500,1500,1500,1500
1747449363.879103,0.02,0.0,-0.31,0.002181661564992912,0.002181661564992912,-0.001090830782496456,-0.004908047833782397,0.1170103284754727,-0.0002874719376849213,0,0,0,0,0,0,1500,1500,1500,1500,1500,1500
1747449363.9788675,0.0,0.03,-0.37,0.0,0.003272492347489368,0.0,-0.004908047833782397,0.1170103284754727,-0.0002874719376849213,0,0,0,0,0,0,1500,1500,1500,1500,1500,1500
1747449364.0789075,0.07,-0.02,-0.35000000000000003,0.0,-0.002181661564992912,0.0,-0.004908047833782397,0.1170103284754727,-0.0002874719376849213,0,0,0,0,0,0,1500,1500,1500,1500,1500,1500
1747449364.1793108,0.07,-0.02,-0.35000000000000003,0.0,-0.002181661564992912,0.0,-0.004908047833782397,0.1170103284754727,-0.0002874719376849213,0,0,0,0,0,0,1500,1500,1500,1500,1500,1500
1747449364.2756603,0.06,-0.01,-0.3,0.002181661564992912,0.0,0.002181661564992912,-0.004908047833782397,0.1170103284754727,-0.0002874719376849213,0,0,0,0,0,0,1500,1500,1500,1500,1500,1500
1747449364.3706863,0.04,0.0,-0.34,0.0,0.002181661564992912,0.001090830782496456,-0.004908047833782397,0.1170103284754727,-0.0002874719376849213,0,0,0,0,0,0,1500,1500,1500,1500,1500,1500
1747449364.4786646,0.04,0.0,-0.34,0.0,0.002181661564992912,0.001090830782496456,-0.004908047833782397,0.1170103284754727,-0.0002874719376849213,0,0,0,0,0,0,1500,1500,1500,1500,1500,1500
1747449364.5760536,0.02,0.01,-0.3,-0.002181661564992912,0.002181661564992912,0.0,-0.004908047833782397,0.1170103284754727,-0.0002874719376849213,0,0,0,0,0,0,1500,1500,1500,1500,1500,1500
1747449364.675929,0.02,0.01,-0.3,-0.002181661564992912,0.002181661564992912,0.0,-0.004908047833782397,0.1170103284754727,-0.0002874719376849213,0,0,0,0,0,0,1500,1500,1500,1500,1500,1500
1747449364.7778492,0.06,0.0,-0.3,-0.001090830782496456,0.0,0.0,-0.004908047833782397,0.1170103284754727,-0.0002874719376849213,0,0,0,0,0,0,1500,1500,1500,1500,1500,1500
1747449364.895387,0.03,-0.08,-0.31,0.001090830782496456,-0.003272492347489368,0.001090830782496456,-0.004908047833782397,0.1170103284754727,-0.0002874719376849213,0,0,0,0,0,0,1500,1500,1500,1500,1500,1500
1747449364.9906049,0.03,-0.08,-0.31,0.001090830782496456,-0.003272492347489368,0.001090830782496456,-0.004908047833782397,0.1170103284754727,-0.0002874719376849213,0,0,0,0,0,0,1500,1500,1500,1500,1500,1500
1747449365.08903,0.04,-0.02,-0.31,-0.003272492347489368,0.001090830782496456,-0.002181661564992912,-0.004908047833782397,0.1170103284754727,-0.0002874719376849213,0,0,0,0,0,0,1500,1500,1500,1500,1500,1500
1747449365.202576,0.05,0.0,-0.33,-0.001090830782496456,0.0,-0.001090830782496456,-0.004908047833782397,0.1170103284754727,-0.0002874719376849213,0,0,0,0,0,0,1500,1500,1500,1500,1500,1500
1747449365.3103397,0.05,0.0,-0.33,-0.001090830782496456,0.0,-0.001090830782496456,-0.004908047833782397,0.1170103284754727,-0.0002874719376849213,0,0,0,0,0,0,1500,1500,1500,1500,1500,1500
1747449365.4086936,0.0,0.02,-0.29,-0.004363323129985824,-0.004363323129985824,-0.001090830782496456,-0.004908047833782397,0.1170103284754727,-0.0002874719376849213,0,0,0,0,0,0,1500,1500,1500,1500,1500,1500
1747449365.5099063,0.05,0.0,-0.32,-0.003272492347489368,0.0,-0.002181661564992912,-0.004908047833782397,0.1170103284754727,-0.0002874719376849213,0,0,0,0,0,0,1500,1500,1500,1500,1500,1500
1747449365.6087437,0.05,0.0,-0.32,-0.003272492347489368,0.0,-0.002181661564992912,-0.004908047833782397,0.1170103284754727,-0.0002874719376849213,0,0,0,0,0,0,1500,1500,1500,1500,1500,1500
1747449365.7065697,0.02,0.0,-0.33,0.001090830782496456,-0.001090830782496456,0.001090830782496456,-0.004908047833782397,0.1170103284754727,-0.0002874719376849213,0,0,0,0,0,0,1500,1500,1500,1500,1500,1500
1747449365.8437057,0.01,0.05,-0.33,-0.00545415391248228,-0.002181661564992912,0.0,-0.004908047833782397,0.1170103284754727,-0.0002874719376849213,0,0,0,0,0,0,1500,1500,1500,1500,1500,1500
1747449365.961764,0.01,0.05,-0.33,-0.00545415391248228,-0.002181661564992912,0.0,-0.004908047833782397,0.1170103284754727,-0.0002874719376849213,0,0,0,0,0,0,1500,1500,1500,1500,1500,1500
1747449366.0539446,0.09,-0.03,-0.35000000000000003,-0.001090830782496456,-0.001090830782496456,0.0,-0.004908047833782397,0.1170103284754727,-0.0002874719376849213,0,0,0,0,0,0,1500,1500,1500,1500,1500,1500
1747449366.163713,0.01,0.0,-0.28,0.002181661564992912,0.002181661564992912,0.002181661564992912,-0.004908047833782397,0.1170103284754727,-0.0002874719376849213,0,0,0,0,0,0,1500,1500,1500,1500,1500,1500
1747449366.2503076,0.01,0.0,-0.28,0.002181661564992912,0.002181661564992912,0.002181661564992912,-0.004908047833782397,0.1170103284754727,-0.0002874719376849213,0,0,0,0,0,0,1500,1500,1500,1500,1500,1500
1747449366.3464572,0.02,0.0,-0.33,0.002181661564992912,0.0,0.0,-0.004908047833782397,0.1170103284754727,-0.0002874719376849213,0,0,0,0,0,0,1500,1500,1500,1500,1500,1500
1747449366.439552,0.04,-0.04,-0.27,0.001090830782496456,0.001090830782496456,0.0,-0.004908047833782397,0.1170103284754727,-0.0002874719376849213,0,0,0,0,0,0,1500,1500,1500,1500,1500,1500
1747449366.5753229,0.04,-0.04,-0.27,0.001090830782496456,0.001090830782496456,0.0,-0.004908047833782397,0.1170103284754727,-0.0002874719376849213,0,0,0,0,0,0,1500,1500,1500,1500,1500,1500
1747449366.6748085,0.02,0.0,-0.27,0.003272492347489368,0.001090830782496456,-0.001090830782496456,-0.004908047833782397,0.1170103284754727,-0.0002874719376849213,0,0,0,0,0,0,1500,1500,1500,1500,1500,1500
1747449366.777941,0.06,-0.01,-0.34,-0.001090830782496456,0.0,-0.001090830782496456,-0.004908047833782397,0.1170103284754727,-0.0002874719376849213,0,0,0,0,0,0,1500,1500,1500,1500,1500,1500
1747449366.8936782,0.06,-0.01,-0.34,-0.001090830782496456,0.0,-0.001090830782496456,-0.004908047833782397,0.1170103284754727,-0.0002874719376849213,0,0,0,0,0,0,1500,1500,1500,1500,1500,1500
1747449366.9878237,0.01,0.01,-0.29,-0.001090830782496456,0.002181661564992912,0.001090830782496456,-0.004908047833782397,0.1170103284754727,-0.0002874719376849213,0,0,0,0,0,0,1500,1500,1500,1500,1500,1500
1747449367.095843,0.08,0.0,-0.33,0.002181661564992912,0.0,-0.001090830782496456,-0.004908047833782397,0.1170103284754727,-0.0002874719376849213,0,0,0,0,0,0,1500,1500,1500,1500,1500,1500
1747449367.196982,0.08,0.0,-0.33,0.002181661564992912,0.0,-0.001090830782496456,-0.004908047833782397,0.1170103284754727,-0.0002874719376849213,0,0,0,0,0,0,1500,1500,1500,1500,1500,1500
1747449367.2949317,0.05,-0.01,-0.34,-0.001090830782496456,0.0,0.0,-0.004908047833782397,0.1170103284754727,-0.0002874719376849213,0,0,0,0,0,0,1500,1500,1500,1500,1500,1500
1747449367.4091332,0.02,0.0,-0.28,0.001090830782496456,0.001090830782496456,-0.004363323129985824,-0.004908047833782397,0.1170103284754727,-0.0002874719376849213,0,0,0,0,0,0,1500,1500,1500,1500,1500,1500
1747449367.5110972,0.02,0.0,-0.28,0.001090830782496456,0.001090830782496456,-0.004363323129985824,-0.004908047833782397,0.1170103284754727,-0.0002874719376849213,0,0,0,0,0,0,1500,1500,1500,1500,1500,1500
1747449367.6289198,0.02,-0.01,-0.32,0.003272492347489368,0.002181661564992912,0.0,-0.004908047833782397,0.1170103284754727,-0.0002874719376849213,0,0,0,0,0,0,1500,1500,1500,1500,1500,1500
1747449367.7222245,0.01,-0.03,-0.27,0.001090830782496456,0.0,-0.003272492347489368,-0.004908047833782397,0.1170103284754727,-0.0002874719376849213,0,0,0,0,0,0,1500,1500,1500,1500,1500,1500
1747449367.8265302,0.01,-0.03,-0.27,0.001090830782496456,0.0,-0.003272492347489368,-0.004908047833782397,0.1170103284754727,-0.0002874719376849213,0,0,0,0,0,0,1500,1500,1500,1500,1500,1500
1747449367.9283857,0.0,0.04,-0.32,-0.002181661564992912,0.0,-0.001090830782496456,-0.004908047833782397,0.1170103284754727,-0.0002874719376849213,0,0,0,0,0,0,1500,1500,1500,1500,1500,1500
1747449368.026028,0.01,0.01,-0.32,0.004363323129985824,-0.002181661564992912,0.0,-0.004908047833782397,0.1170103284754727,-0.0002874719376849213,0,0,0,0,0,0,1500,1500,1500,1500,1500,1500
1747449368.1280947,0.01,0.01,-0.32,0.004363323129985824,-0.002181661564992912,0.0,-0.004908047833782397,0.1170103284754727,-0.0002874719376849213,0,0,0,0,0,0,1500,1500,1500,1500,1500,1500
1747449368.2259781,-0.01,0.03,-0.31,-0.001090830782496456,-0.003272492347489368,0.0,-0.004908047833782397,0.1170103284754727,-0.0002874719376849213,0,0,0,0,0,0,1500,1500,1500,1500,1500,1500
1747449368.3213098,0.04,0.0,-0.32,-0.001090830782496456,0.001090830782496456,0.001090830782496456,-0.004908047833782397,0.1170103284754727,-0.0002874719376849213,0,0,0,0,0,0,1500,1500,1500,1500,1500,1500
1747449368.4123926,0.04,0.0,-0.32,-0.001090830782496456,0.001090830782496456,0.001090830782496456,-0.004908047833782397,0.1170103284754727,-0.0002874719376849213,0,0,0,0,0,0,1500,1500,1500,1500,1500,1500
1747449368.5103834,0.04,0.0,-0.27,0.003272492347489368,0.001090830782496456,-0.003272492347489368,-0.004908047833782397,0.1170103284754727,-0.0002874719376849213,0,0,0,0,0,0,1500,1500,1500,1500,1500,1500
1747449368.6048448,0.04,0.0,-0.27,0.003272492347489368,0.001090830782496456,-0.003272492347489368,-0.004908047833782397,0.1170103284754727,-0.0002874719376849213,0,0,0,0,0,0,1500,1500,1500,1500,1500,1500
1747449368.710133,0.02,0.01,-0.3,-0.001090830782496456,-0.004363323129985824,-0.002181661564992912,-0.004908047833782397,0.1170103284754727,-0.0002874719376849213,0,0,0,0,0,0,1500,1500,1500,1500,1500,1500
1747449368.8099315,0.06,0.0,-0.31,-0.003272492347489368,-0.001090830782496456,0.0,-0.004908047833782397,0.1170103284754727,-0.0002874719376849213,0,0,0,0,0,0,1500,1500,1500,1500,1500,1500
1747449368.9222553,0.06,0.0,-0.31,-0.003272492347489368,-0.001090830782496456,0.0,-0.004908047833782397,0.1170103284754727,-0.0002874719376849213,0,0,0,0,0,0,1500,1500,1500,1500,1500,1500
1747449369.0279813,0.03,-0.02,-0.32,-0.001090830782496456,0.0,0.002181661564992912,-0.004908047833782397,0.1170103284754727,-0.0002874719376849213,0,0,0,0,0,0,1500,1500,1500,1500,1500,1500
1747449369.141602,0.08,-0.04,-0.32,0.0,0.002181661564992912,0.0,-0.004908047833782397,0.1170103284754727,-0.0002874719376849213,0,0,0,0,0,0,1500,1500,1500,1500,1500,1500
1747449369.2447999,0.08,-0.04,-0.32,0.0,0.002181661564992912,0.0,-0.004908047833782397,0.1170103284754727,-0.0002874719376849213,0,0,0,0,0,0,1500,1500,1500,1500,1500,1500
1747449369.3429098,0.05,0.0,-0.28,0.0,-0.002181661564992912,0.0,-0.004908047833782397,0.1170103284754727,-0.0002874719376849213,0,0,0,0,0,0,1500,1500,1500,1500,1500,1500
1747449369.4436073,0.01,0.0,-0.36,-0.001090830782496456,0.001090830782496456,0.001090830782496456,-0.004908047833782397,0.1170103284754727,-0.0002874719376849213,0,0,0,0,0,0,1500,1500,1500,1500,1500,1500
1747449369.538205,0.01,0.0,-0.36,-0.001090830782496456,0.001090830782496456,0.001090830782496456,-0.004908047833782397,0.1170103284754727,-0.0002874719376849213,0,0,0,0,0,0,1500,1500,1500,1500,1500,1500
1747449369.644689,0.03,-0.03,-0.27,0.0,0.003272492347489368,0.0,-0.004908047833782397,0.1170103284754727,-0.0002874719376849213,0,0,0,0,0,0,1500,1500,1500,1500,1500,1500
1747449369.7443507,0.05,0.01,-0.38,0.001090830782496456,-0.001090830782496456,0.0,-0.004908047833782397,0.1170103284754727,-0.0002874719376849213,0,0,0,0,0,0,1500,1500,1500,1500,1500,1500
1747449369.8412666,0.05,0.01,-0.38,0.001090830782496456,-0.001090830782496456,0.0,-0.004908047833782397,0.1170103284754727,-0.0002874719376849213,0,0,0,0,0,0,1500,1500,1500,1500,1500,1500
1747449369.94472,0.06,0.01,-0.3,0.003272492347489368,-0.002181661564992912,0.001090830782496456,-0.004908047833782397,0.1170103284754727,-0.0002874719376849213,0,0,0,0,0,0,1500,1500,1500,1500,1500,1500
1747449370.044169,0.06,0.01,-0.3,0.003272492347489368,-0.002181661564992912,0.001090830782496456,-0.004908047833782397,0.1170103284754727,-0.0002874719376849213,0,0,0,0,0,0,1500,1500,1500,1500,1500,1500
1747449370.148145,0.02,0.0,-0.3,0.003272492347489368,0.001090830782496456,0.001090830782496456,-0.004908047833782397,0.1170103284754727,-0.0002874719376849213,0,0,0,0,0,0,1500,1500,1500,1500,1500,1500
1747449370.2404125,0.03,0.0,-0.34,0.001090830782496456,0.00545415391248228,-0.001090830782496456,-0.004908047833782397,0.1170103284754727,-0.0002874719376849213,0,0,0,0,0,0,1500,1500,1500,1500,1500,1500
1747449370.3350072,0.03,0.0,-0.34,0.001090830782496456,0.00545415391248228,-0.001090830782496456,-0.004908047833782397,0.1170103284754727,-0.0002874719376849213,0,0,0,0,0,0,1500,1500,1500,1500,1500,1500
1747449370.4627113,0.03,-0.02,-0.32,0.0,-0.002181661564992912,0.001090830782496456,-0.004908047833782397,0.1170103284754727,-0.0002874719376849213,0,0,0,0,0,0,1500,1500,1500,1500,1500,1500
1747449370.552459,0.01,0.0,-0.27,-0.001090830782496456,0.002181661564992912,0.001090830782496456,-0.004908047833782397,0.1170103284754727,-0.0002874719376849213,0,0,0,0,0,0,1500,1500,1500,1500,1500,1500
1747449370.6507359,0.01,0.0,-0.27,-0.001090830782496456,0.002181661564992912,0.001090830782496456,-0.004908047833782397,0.1170103284754727,-0.0002874719376849213,0,0,0,0,0,0,1500,1500,1500,1500,1500,1500
1747449370.7371128,0.06,0.0,-0.33,0.0,-0.003272492347489368,-0.001090830782496456,-0.004908047833782397,0.1170103284754727,-0.0002874719376849213,0,0,0,0,0,0,1500,1500,1500,1500,1500,1500
1747449370.839118,0.06,0.0,-0.33,0.0,-0.003272492347489368,-0.001090830782496456,-0.004908047833782397,0.1170103284754727,-0.0002874719376849213,0,0,0,0,0,0,1500,1500,1500,1500,1500,1500
1747449370.9441862,0.03,-0.01,-0.27,-0.001090830782496456,-0.001090830782496456,0.001090830782496456,-0.004908047833782397,0.1170103284754727,-0.0002874719376849213,0,0,0,0,0,0,1500,1500,1500,1500,1500,1500
1747449371.0404742,0.02,0.0,-0.36,0.004363323129985824,0.001090830782496456,0.0,-0.004908047833782397,0.1170103284754727,-0.0002874719376849213,0,0,0,0,0,0,1500,1500,1500,1500,1500,1500
1747449371.1418142,0.02,0.0,-0.36,0.004363323129985824,0.001090830782496456,0.0,-0.004908047833782397,0.1170103284754727,-0.0002874719376849213,0,0,0,0,0,0,1500,1500,1500,1500,1500,1500
1747449371.241222,0.02,0.01,-0.35000000000000003,0.003272492347489368,0.0,-0.001090830782496456,-0.004908047833782397,0.1170103284754727,-0.0002874719376849213,0,0,0,0,0,0,1500,1500,1500,1500,1500,1500
1747449371.3371754,0.03,0.04,-0.29,0.001090830782496456,0.001090830782496456,-0.001090830782496456,-0.004908047833782397,0.1170103284754727,-0.0002874719376849213,0,0,0,0,0,0,1500,1500,1500,1500,1500,1500
1747449371.4266565,0.03,0.04,-0.29,0.001090830782496456,0.001090830782496456,-0.001090830782496456,-0.004908047833782397,0.1170103284754727,-0.0002874719376849213,0,0,0,0,0,0,1500,1500,1500,1500,1500,1500
1747449371.5264547,0.02,0.0,-0.32,-0.002181661564992912,0.002181661564992912,0.003272492347489368,-0.004908047833782397,0.1170103284754727,-0.0002874719376849213,0,0,0,0,0,0,1500,1500,1500,1500,1500,1500
1747449371.6261811,0.03,-0.02,-0.28,0.0,-0.002181661564992912,0.0,-0.004908047833782397,0.1170103284754727,-0.0002874719376849213,0,0,0,0,0,0,1500,1500,1500,1500,1500,1500
1747449371.7251923,0.03,-0.02,-0.28,0.0,-0.002181661564992912,0.0,-0.004908047833782397,0.1170103284754727,-0.0002874719376849213,0,0,0,0,0,0,1500,1500,1500,1500,1500,1500
1747449371.8296018,-0.01,0.0,-0.3,-0.002181661564992912,0.001090830782496456,0.001090830782496456,-0.004908047833782397,0.1170103284754727,-0.0002874719376849213,0,0,0,0,0,0,1500,1500,1500,1500,1500,1500
1747449371.9228592,-0.01,0.0,-0.3,-0.002181661564992912,0.001090830782496456,0.001090830782496456,-0.004908047833782397,0.1170103284754727,-0.0002874719376849213,0,0,0,0,0,0,1500,1500,1500,1500,1500,1500
1747449372.0238988,0.04,0.0,-0.33,0.0,0.0,0.002181661564992912,-0.004908047833782397,0.1170103284754727,-0.0002874719376849213,0,0,0,0,0,0,1500,1500,1500,1500,1500,1500
1747449372.125157,0.01,0.0,-0.29,0.001090830782496456,0.0,0.003272492347489368,-0.004908047833782397,0.1170103284754727,-0.0002874719376849213,0,0,0,0,0,0,1500,1500,1500,1500,1500,1500
1747449372.228554,0.01,0.0,-0.29,0.001090830782496456,0.0,0.003272492347489368,-0.004908047833782397,0.1170103284754727,-0.0002874719376849213,0,0,0,0,0,0,1500,1500,1500,1500,1500,1500
1747449372.3270915,0.01,0.0,-0.35000000000000003,-0.001090830782496456,-0.004363323129985824,0.001090830782496456,-0.004908047833782397,0.1170103284754727,-0.0002874719376849213,0,0,0,0,0,0,1500,1500,1500,1500,1500,1500
1747449372.4251487,0.02,0.0,-0.33,-0.001090830782496456,0.002181661564992912,-0.002181661564992912,-0.004908047833782397,0.1170103284754727,-0.0002874719376849213,0,0,0,0,0,0,1500,1500,1500,1500,1500,1500
1747449372.5258272,0.02,0.0,-0.33,-0.001090830782496456,0.002181661564992912,-0.002181661564992912,-0.004908047833782397,0.1170103284754727,-0.0002874719376849213,0,0,0,0,0,0,1500,1500,1500,1500,1500,1500
1747449372.6271284,0.04,0.0,-0.31,0.0,0.00545415391248228,0.001090830782496456,-0.004908047833782397,0.1170103284754727,-0.0002874719376849213,0,0,0,0,0,0,1500,1500,1500,1500,1500,1500
1747449372.726751,0.04,0.0,-0.31,0.0,0.00545415391248228,0.001090830782496456,-0.004908047833782397,0.1170103284754727,-0.0002874719376849213,0,0,0,0,0,0,1500,1500,1500,1500,1500,1500
1747449372.825856,0.02,0.0,-0.34,0.002181661564992912,0.003272492347489368,0.002181661564992912,-0.004908047833782397,0.1170103284754727,-0.0002874719376849213,0,0,0,0,0,0,1500,1500,1500,1500,1500,1500
1747449372.9296114,0.01,0.0,-0.32,-0.001090830782496456,-0.002181661564992912,0.001090830782496456,-0.004908047833782397,0.1170103284754727,-0.0002874719376849213,0,0,0,0,0,0,1500,1500,1500,1500,1500,1500
1747449373.0204113,0.01,0.0,-0.32,-0.001090830782496456,-0.002181661564992912,0.001090830782496456,-0.004908047833782397,0.1170103284754727,-0.0002874719376849213,0,0,0,0,0,0,1500,1500,1500,1500,1500,1500
1747449373.1193311,0.01,0.0,-0.34,-0.003272492347489368,-0.003272492347489368,0.002181661564992912,-0.004908047833782397,0.1170103284754727,-0.0002874719376849213,0,0,0,0,0,0,1500,1500,1500,1500,1500,1500
1747449373.2097757,0.04,-0.01,-0.31,0.001090830782496456,-0.1407171709420428,0.0,-0.004908047833782397,0.1170103284754727,-0.0002874719376849213,0,0,0,0,0,0,1500,1500,1500,1500,1500,1500
1747449373.310429,0.04,-0.01,-0.31,0.001090830782496456,-0.1407171709420428,0.0,-0.004908047833782397,0.1170103284754727,-0.0002874719376849213,0,0,0,0,0,0,1500,1500,1500,1500,1500,1500
1747449373.4190664,0.04,0.03,-0.36,-0.001090830782496456,-0.003272492347489368,0.001090830782496456,-0.004908047833782397,0.1170103284754727,-0.0002874719376849213,0,0,0,0,0,0,1500,1500,1500,1500,1500,1500
1747449373.5163922,-0.02,0.01,-0.32,0.0,0.002181661564992912,0.001090830782496456,-0.004908047833782397,0.1170103284754727,-0.0002874719376849213,0,0,0,0,0,0,1500,1500,1500,1500,1500,1500
1747449373.6127024,-0.02,0.01,-0.32,0.0,0.002181661564992912,0.001090830782496456,-0.004908047833782397,0.1170103284754727,-0.0002874719376849213,0,0,0,0,0,0,1500,1500,1500,1500,1500,1500
1747449373.710151,0.02,-0.03,-0.29,-0.003272492347489368,0.0,0.001090830782496456,-0.004908047833782397,0.1170103284754727,-0.0002874719376849213,0,0,0,0,0,0,1500,1500,1500,1500,1500,1500
1747449373.8049104,0.02,-0.03,-0.29,-0.003272492347489368,0.0,0.001090830782496456,-0.004908047833782397,0.1170103284754727,-0.0002874719376849213,0,0,0,0,0,0,1500,1500,1500,1500,1500,1500
1747449373.8949313,0.01,0.03,-0.36,0.0,-0.003272492347489368,0.001090830782496456,-0.004908047833782397,0.1170103284754727,-0.0002874719376849213,0,0,0,0,0,0,1500,1500,1500,1500,1500,1500
1747449373.994357,0.01,0.03,-0.28,0.001090830782496456,-0.002181661564992912,-0.001090830782496456,-0.004908047833782397,0.1170103284754727,-0.0002874719376849213,0,0,0,0,0,0,1500,1500,1500,1500,1500,1500
1747449374.0949206,0.01,0.03,-0.28,0.001090830782496456,-0.002181661564992912,-0.001090830782496456,-0.004908047833782397,0.1170103284754727,-0.0002874719376849213,0,0,0,0,0,0,1500,1500,1500,1500,1500,1500
1747449374.1945286,0.0,0.03,-0.33,-0.003272492347489368,-0.001090830782496456,0.0,-0.004908047833782397,0.1170103284754727,-0.0002874719376849213,0,0,0,0,0,0,1500,1500,1500,1500,1500,1500
1747449374.29632,0.0,0.03,-0.33,-0.003272492347489368,-0.001090830782496456,0.0,-0.004908047833782397,0.1170103284754727,-0.0002874719376849213,0,0,0,0,0,0,1500,1500,1500,1500,1500,1500
1747449374.4068701,0.01,0.0,-0.26,0.001090830782496456,-0.003272492347489368,-0.003272492347489368,-0.004908047833782397,0.1170103284754727,-0.0002874719376849213,0,0,0,0,0,0,1500,1500,1500,1500,1500,1500
1747449374.5114222,0.04,0.0,-0.3,-0.002181661564992912,-0.002181661564992912,0.002181661564992912,-0.004908047833782397,0.1170103284754727,-0.0002874719376849213,0,0,0,0,0,0,1500,1500,1500,1500,1500,1500
1747449374.6179557,0.04,0.0,-0.3,-0.002181661564992912,-0.002181661564992912,0.002181661564992912,-0.004908047833782397,0.1170103284754727,-0.0002874719376849213,0,0,0,0,0,0,1500,1500,1500,1500,1500,1500
1747449374.7124076,0.01,-0.01,-0.35000000000000003,-0.001090830782496456,0.0,-0.003272492347489368,-0.004908047833782397,0.1170103284754727,-0.0002874719376849213,0,0,0,0,0,0,1500,1500,1500,1500,1500,1500
1747449374.8118768,0.01,0.0,-0.29,-0.002181661564992912,0.003272492347489368,0.001090830782496456,-0.004908047833782397,0.1170103284754727,-0.0002874719376849213,0,0,0,0,0,0,1500,1500,1500,1500,1500,1500
1747449374.906337,0.01,0.0,-0.29,-0.002181661564992912,0.003272492347489368,0.001090830782496456,-0.004908047833782397,0.1170103284754727,-0.0002874719376849213,0,0,0,0,0,0,1500,1500,1500,1500,1500,1500
1747449375.0063057,0.01,0.0,-0.32,0.002181661564992912,0.003272492347489368,-0.001090830782496456,-0.004908047833782397,0.1170103284754727,-0.0002874719376849213,0,0,0,0,0,0,1500,1500,1500,1500,1500,1500
1747449375.0983753,0.01,-0.02,-0.3,0.0,0.003272492347489368,-0.002181661564992912,-0.004908047833782397,0.1170103284754727,-0.0002874719376849213,0,0,0,0,0,0,1500,1500,1500,1500,1500,1500
1747449375.1926482,0.01,-0.02,-0.3,0.0,0.003272492347489368,-0.002181661564992912,-0.004908047833782397,0.1170103284754727,-0.0002874719376849213,0,0,0,0,0,0,1500,1500,1500,1500,1500,1500
1747449375.2945054,0.04,-0.01,-0.28,0.0,0.001090830782496456,0.001090830782496456,-0.004908047833782397,0.1170103284754727,-0.0002874719376849213,0,0,0,0,0,0,1500,1500,1500,1500,1500,1500
1747449375.395415,0.04,-0.01,-0.28,0.0,0.001090830782496456,0.001090830782496456,-0.004908047833782397,0.1170103284754727,-0.0002874719376849213,0,0,0,0,0,0,1500,1500,1500,1500,1500,1500
1747449375.4898486,0.04,-0.03,-0.33,0.0,0.003272492347489368,0.0,-0.004908047833782397,0.1170103284754727,-0.0002874719376849213,0,0,0,0,0,0,1500,1500,1500,1500,1500,1500
1747449375.5937822,0.0,0.0,-0.28,0.0,0.00545415391248228,-0.001090830782496456,-0.004908047833782397,0.1170103284754727,-0.0002874719376849213,0,0,0,0,0,0,1500,1500,1500,1500,1500,1500
1747449375.6897545,0.0,0.0,-0.28,0.0,0.00545415391248228,-0.001090830782496456,-0.004908047833782397,0.1170103284754727,-0.0002874719376849213,0,0,0,0,0,0,1500,1500,1500,1500,1500,1500
1747449375.7918184,0.03,0.0,-0.38,-0.001090830782496456,0.001090830782496456,0.002181661564992912,-0.004908047833782397,0.1170103284754727,-0.0002874719376849213,0,0,0,0,0,0,1500,1500,1500,1500,1500,1500
1747449375.8948889,0.02,-0.02,-0.27,0.0,0.001090830782496456,0.0,-0.004908047833782397,0.1170103284754727,-0.0002874719376849213,0,0,0,0,0,0,1500,1500,1500,1500,1500,1500
1747449375.995775,0.02,-0.02,-0.27,0.0,0.001090830782496456,0.0,-0.004908047833782397,0.1170103284754727,-0.0002874719376849213,0,0,0,0,0,0,1500,1500,1500,1500,1500,1500
1747449376.111626,0.03,0.0,-0.32,0.0,-0.001090830782496456,-0.001090830782496456,-0.004908047833782397,0.1170103284754727,-0.0002874719376849213,0,0,0,0,0,0,1500,1500,1500,1500,1500,1500
1747449376.2101989,0.04,0.0,-0.33,0.0,0.00545415391248228,-0.001090830782496456,-0.004908047833782397,0.1170103284754727,-0.0002874719376849213,0,0,0,0,0,0,1500,1500,1500,1500,1500,1500
1747449376.30907,0.04,0.0,-0.33,0.0,0.00545415391248228,-0.001090830782496456,-0.004908047833782397,0.1170103284754727,-0.0002874719376849213,0,0,0,0,0,0,1500,1500,1500,1500,1500,1500
1747449376.4103208,0.06,0.0,-0.28,0.001090830782496456,0.002181661564992912,-0.003272492347489368,-0.004908047833782397,0.1170103284754727,-0.0002874719376849213,0,0,0,0,0,0,1500,1500,1500,1500,1500,1500
1747449376.5124547,0.06,0.0,-0.28,0.001090830782496456,0.002181661564992912,-0.003272492347489368,-0.004908047833782397,0.1170103284754727,-0.0002874719376849213,0,0,0,0,0,0,1500,1500,1500,1500,1500,1500
1747449376.613991,0.06,-0.02,-0.35000000000000003,0.002181661564992912,0.001090830782496456,-0.001090830782496456,-0.004908047833782397,0.1170103284754727,-0.0002874719376849213,0,0,0,0,0,0,1500,1500,1500,1500,1500,1500
1747449376.7106404,0.02,-0.03,-0.31,-0.001090830782496456,-0.001090830782496456,-0.001090830782496456,-0.004908047833782397,0.1170103284754727,-0.0002874719376849213,0,0,0,0,0,0,1500,1500,1500,1500,1500,1500
1747449376.8054051,0.02,-0.03,-0.31,-0.001090830782496456,-0.001090830782496456,-0.001090830782496456,-0.004908047833782397,0.1170103284754727,-0.0002874719376849213,0,0,0,0,0,0,1500,1500,1500,1500,1500,1500
1747449376.9068146,0.03,0.0,-0.36,0.002181661564992912,-0.001090830782496456,-0.002181661564992912,-0.004908047833782397,0.1170103284754727,-0.0002874719376849213,0,0,0,0,0,0,1500,1500,1500,1500,1500,1500
1747449377.0052373,0.03,-0.01,-0.35000000000000003,0.001090830782496456,-0.002181661564992912,0.001090830782496456,-0.004908047833782397,0.1170103284754727,-0.0002874719376849213,0,0,0,0,0,0,1500,1500,1500,1500,1500,1500
1747449377.1078491,0.03,-0.01,-0.35000000000000003,0.001090830782496456,-0.002181661564992912,0.001090830782496456,-0.004908047833782397,0.1170103284754727,-0.0002874719376849213,0,0,0,0,0,0,1500,1500,1500,1500,1500,1500
1747449377.2646213,0.05,-0.03,-0.27,-0.001090830782496456,-0.001090830782496456,0.001090830782496456,-0.004908047833782397,0.1170103284754727,-0.0002874719376849213,0,0,0,0,0,0,1500,1500,1500,1500,1500,1500
1747449377.388756,0.04,-0.01,-0.33,0.00545415391248228,0.001090830782496456,-0.001090830782496456,-0.004908047833782397,0.1170103284754727,-0.0002874719376849213,0,0,0,0,0,0,1500,1500,1500,1500,1500,1500
1747449377.502691,0.02,0.0,-0.3,0.0,0.003272492347489368,0.0,-0.004908047833782397,0.1170103284754727,-0.0002874719376849213,0,0,0,0,0,0,1500,1500,1500,1500,1500,1500
1747449377.6037784,0.02,0.0,-0.3,0.0,0.003272492347489368,0.0,-0.004908047833782397,0.1170103284754727,-0.0002874719376849213,0,0,0,0,0,0,1500,1500,1500,1500,1500,1500
1747449377.68816,0.02,0.02,-0.28,-0.003272492347489368,0.001090830782496456,0.001090830782496456,-0.004908047833782397,0.1170103284754727,-0.0002874719376849213,0,0,0,0,0,0,1500,1500,1500,1500,1500,1500
1747449377.782762,0.03,0.0,-0.34,-0.002181661564992912,0.0,0.0,-0.004908047833782397,0.1170103284754727,-0.0002874719376849213,0,0,0,0,0,0,1500,1500,1500,1500,1500,1500
1747449377.887066,0.03,0.0,-0.34,-0.002181661564992912,0.0,0.0,-0.004908047833782397,0.1170103284754727,-0.0002874719376849213,0,0,0,0,0,0,1500,1500,1500,1500,1500,1500
1747449377.994373,0.01,0.01,-0.29,0.003272492347489368,-0.00545415391248228,0.001090830782496456,-0.004908047833782397,0.1170103284754727,-0.0002874719376849213,0,0,0,0,0,0,1500,1500,1500,1500,1500,1500
1747449378.0926309,0.01,0.01,-0.29,0.003272492347489368,-0.00545415391248228,0.001090830782496456,-0.004908047833782397,0.1170103284754727,-0.0002874719376849213,0,0,0,0,0,0,1500,1500,1500,1500,1500,1500
1747449378.2011433,0.03,0.02,-0.35000000000000003,0.004363323129985824,0.002181661564992912,0.0,-0.004908047833782397,0.1170103284754727,-0.0002874719376849213,0,0,0,0,0,0,1500,1500,1500,1500,1500,1500
1747449378.305873,0.03,-0.01,-0.3,0.002181661564992912,0.002181661564992912,0.0,-0.004908047833782397,0.1170103284754727,-0.0002874719376849213,0,0,0,0,0,0,1500,1500,1500,1500,1500,1500
1747449378.3981643,0.03,-0.01,-0.3,0.002181661564992912,0.002181661564992912,0.0,-0.004908047833782397,0.1170103284754727,-0.0002874719376849213,0,0,0,0,0,0,1500,1500,1500,1500,1500,1500
1747449378.4860222,0.02,0.01,-0.31,-0.003272492347489368,0.003272492347489368,0.001090830782496456,-0.004908047833782397,0.1170103284754727,-0.0002874719376849213,0,0,0,0,0,0,1500,1500,1500,1500,1500,1500
1747449378.59147,0.02,0.01,-0.35000000000000003,-0.001090830782496456,0.0,0.0,-0.004908047833782397,0.1170103284754727,-0.0002874719376849213,0,0,0,0,0,0,1500,1500,1500,1500,1500,1500
1747449378.7042549,0.02,0.01,-0.35000000000000003,-0.001090830782496456,0.0,0.0,-0.004908047833782397,0.1170103284754727,-0.0002874719376849213,0,0,0,0,0,0,1500,1500,1500,1500,1500,1500
1747449378.8045723,0.05,0.0,-0.28,0.0,-0.001090830782496456,0.0,-0.004908047833782397,0.1170103284754727,-0.0002874719376849213,0,0,0,0,0,0,1500,1500,1500,1500,1500,1500
1747449378.8901837,0.02,-0.02,-0.37,-0.001090830782496456,0.003272492347489368,0.0,-0.004908047833782397,0.1170103284754727,-0.0002874719376849213,0,0,0,0,0,0,1500,1500,1500,1500,1500,1500
1747449379.0137691,0.02,-0.02,-0.37,-0.001090830782496456,0.003272492347489368,0.0,-0.004908047833782397,0.1170103284754727,-0.0002874719376849213,0,0,0,0,0,0,1500,1500,1500,1500,1500,1500
1747449379.1134005,0.01,-0.03,-0.27,0.002181661564992912,0.0,0.0,-0.004908047833782397,0.1170103284754727,-0.0002874719376849213,0,0,0,0,0,0,1500,1500,1500,1500,1500,1500
1747449379.2057922,0.04,0.0,-0.28,-0.001090830782496456,0.002181661564992912,0.0,-0.004908047833782397,0.1170103284754727,-0.0002874719376849213,0,0,0,0,0,0,1500,1500,1500,1500,1500,1500
1747449379.3114834,0.04,0.0,-0.28,-0.001090830782496456,0.002181661564992912,0.0,-0.004908047833782397,0.1170103284754727,-0.0002874719376849213,0,0,0,0,0,0,1500,1500,1500,1500,1500,1500
1747449379.4087815,0.03,0.0,-0.3,-0.002181661564992912,0.003272492347489368,0.0,-0.004908047833782397,0.1170103284754727,-0.0002874719376849213,0,0,0,0,0,0,1500,1500,1500,1500,1500,1500
1747449379.5104458,0.03,0.0,-0.3,-0.002181661564992912,0.003272492347489368,0.0,-0.004908047833782397,0.1170103284754727,-0.0002874719376849213,0,0,0,0,0,0,1500,1500,1500,1500,1500,1500
1747449379.6072946,0.03,0.0,-0.32,0.002181661564992912,0.003272492347489368,0.001090830782496456,-0.004908047833782397,0.1170103284754727,-0.0002874719376849213,0,0,0,0,0,0,1500,1500,1500,1500,1500,1500
1747449379.705346,0.06,0.0,-0.39,0.0,0.0,0.0,-0.004908047833782397,0.1170103284754727,-0.0002874719376849213,0,0,0,0,0,0,1500,1500,1500,1500,1500,1500
1747449379.8196774,0.06,0.0,-0.39,0.0,0.0,0.0,-0.004908047833782397,0.1170103284754727,-0.0002874719376849213,0,0,0,0,0,0,1500,1500,1500,1500,1500,1500
1747449379.9120576,0.0,0.02,-0.29,-0.003272492347489368,0.001090830782496456,0.001090830782496456,-0.004908047833782397,0.1170103284754727,-0.0002874719376849213,0,0,0,0,0,0,1500,1500,1500,1500,1500,1500
1747449380.0133734,0.02,0.0,-0.3,-0.002181661564992912,0.001090830782496456,0.0,-0.004908047833782397,0.1170103284754727,-0.0002874719376849213,0,0,0,0,0,0,1500,1500,1500,1500,1500,1500
1747449380.119886,0.02,0.0,-0.3,-0.002181661564992912,0.001090830782496456,0.0,-0.004908047833782397,0.1170103284754727,-0.0002874719376849213,0,0,0,0,0,0,1500,1500,1500,1500,1500,1500
1747449380.2064137,0.02,0.01,-0.35000000000000003,-0.001090830782496456,-0.003272492347489368,-0.002181661564992912,-0.004908047833782397,0.1170103284754727,-0.0002874719376849213,0,0,0,0,0,0,1500,1500,1500,1500,1500,1500
1747449380.3047004,0.02,0.01,-0.35000000000000003,-0.001090830782496456,-0.003272492347489368,-0.002181661564992912,-0.004908047833782397,0.1170103284754727,-0.0002874719376849213,0,0,0,0,0,0,1500,1500,1500,1500,1500,1500
1747449380.3962603,0.03,0.0,-0.28,-0.001090830782496456,0.0,0.0,-0.004908047833782397,0.1170103284754727,-0.0002874719376849213,0,0,0,0,0,0,1500,1500,1500,1500,1500,1500
1747449380.4935217,0.05,0.02,-0.32,0.0,-0.001090830782496456,0.0,-0.004908047833782397,0.1170103284754727,-0.0002874719376849213,0,0,0,0,0,0,1500,1500,1500,1500,1500,1500
1747449380.5794804,0.05,0.02,-0.32,0.0,-0.001090830782496456,0.0,-0.004908047833782397,0.1170103284754727,-0.0002874719376849213,0,0,0,0,0,0,1500,1500,1500,1500,1500,1500
1747449380.6768224,0.02,0.0,-0.31,-0.001090830782496456,0.0,-0.003272492347489368,-0.004908047833782397,0.1170103284754727,-0.0002874719376849213,0,0,0,0,0,0,1500,1500,1500,1500,1500,1500
1747449380.7792594,0.02,0.0,-0.31,-0.001090830782496456,0.0,-0.003272492347489368,-0.004908047833782397,0.1170103284754727,-0.0002874719376849213,0,0,0,0,0,0,1500,1500,1500,1500,1500,1500
1747449380.880266,0.04,0.0,-0.34,-0.002181661564992912,0.003272492347489368,0.0,0.004924851834889797,-0.11741279874132471,-0.0002874719376849213,0,0,0,0,0,0,1500,1500,1500,1500,1500,1500
1747449380.982396,0.02,0.01,-0.36,-0.001090830782496456,0.003272492347489368,-0.001090830782496456,-0.004908047833782397,0.1170103284754727,-0.0002874719376849213,0,0,0,0,0,0,1500,1500,1500,1500,1500,1500
1747449381.0942798,0.02,0.01,-0.36,-0.001090830782496456,0.003272492347489368,-0.001090830782496456,-0.004908047833782397,0.1170103284754727,-0.0002874719376849213,0,0,0,0,0,0,1500,1500,1500,1500,1500,1500
1747449381.1919765,0.0,0.0,-0.29,0.004363323129985824,0.001090830782496456,0.0,-0.004908047833782397,0.1170103284754727,-0.0002874719376849213,0,0,0,0,0,0,1500,1500,1500,1500,1500,1500
1747449381.295455,0.04,0.0,-0.34,0.0,0.001090830782496456,0.001090830782496456,-0.004908047833782397,0.1170103284754727,-0.0002874719376849213,0,0,0,0,0,0,1500,1500,1500,1500,1500,1500
1747449381.4121308,0.04,0.0,-0.34,0.0,0.001090830782496456,0.001090830782496456,-0.004908047833782397,0.1170103284754727,-0.0002874719376849213,0,0,0,0,0,0,1500,1500,1500,1500,1500,1500
1747449381.502554,0.06,0.0,-0.33,0.003272492347489368,-0.003272492347489368,0.001090830782496456,-0.004908047833782397,0.1170103284754727,-0.0002874719376849213,0,0,0,0,0,0,1500,1500,1500,1500,1500,1500
1747449381.608002,0.01,0.0,-0.32,-0.001090830782496456,-0.003272492347489368,0.0,-0.004908047833782397,0.1170103284754727,-0.0002874719376849213,0,0,0,0,0,0,1500,1500,1500,1500,1500,1500
1747449381.7079277,0.01,0.0,-0.32,-0.001090830782496456,-0.003272492347489368,0.0,-0.004908047833782397,0.1170103284754727,-0.0002874719376849213,0,0,0,0,0,0,1500,1500,1500,1500,1500,1500
1747449381.8081775,0.04,-0.01,-0.33,-0.002181661564992912,-0.003272492347489368,0.0,-0.004908047833782397,0.1170103284754727,-0.0002874719376849213,0,0,0,0,0,0,1500,1500,1500,1500,1500,1500
1747449381.8970432,0.0,0.02,-0.3,0.002181661564992912,-0.003272492347489368,0.0,-0.004908047833782397,0.1170103284754727,-0.0002874719376849213,0,0,0,0,0,0,1500,1500,1500,1500,1500,1500
1747449382.0119953,0.0,0.02,-0.3,0.002181661564992912,-0.003272492347489368,0.0,-0.004908047833782397,0.1170103284754727,-0.0002874719376849213,0,0,0,0,0,0,1500,1500,1500,1500,1500,1500
1747449382.120017,0.01,-0.01,-0.33,-0.001090830782496456,0.001090830782496456,0.003272492347489368,-0.004908047833782397,0.1170103284754727,-0.0002874719376849213,0,0,0,0,0,0,1500,1500,1500,1500,1500,1500
1747449382.2102811,0.03,-0.02,-0.31,-0.001090830782496456,0.003272492347489368,0.002181661564992912,-0.004908047833782397,0.1170103284754727,-0.0002874719376849213,0,0,0,0,0,0,1500,1500,1500,1500,1500,1500
1747449382.3135233,0.03,-0.02,-0.31,-0.001090830782496456,0.003272492347489368,0.002181661564992912,-0.004908047833782397,0.1170103284754727,-0.0002874719376849213,0,0,0,0,0,0,1500,1500,1500,1500,1500,1500
1747449382.4094288,0.02,0.01,-0.33,-0.002181661564992912,-0.004363323129985824,-0.001090830782496456,-0.004908047833782397,0.1170103284754727,-0.0002874719376849213,0,0,0,0,0,0,1500,1500,1500,1500,1500,1500
1747449382.5098305,0.02,0.01,-0.33,-0.002181661564992912,-0.004363323129985824,-0.001090830782496456,-0.004908047833782397,0.1170103284754727,-0.0002874719376849213,0,0,0,0,0,0,1500,1500,1500,1500,1500,1500
1747449382.6098611,0.04,0.01,-0.34,0.003272492347489368,-0.001090830782496456,-0.001090830782496456,-0.02061516364936301,0.1170103284754727,-0.0012073815848407266,0,0,0,0,0,0,1500,1500,1500,1500,1500,1500
1747449382.7064915,0.05,-0.01,-0.26,0.003272492347489368,0.001090830782496456,0.0,-0.004908047833782397,0.1170103284754727,-0.0002874719376849213,0,0,0,0,0,0,1500,1500,1500,1500,1500,1500
1747449382.810219,0.05,-0.01,-0.26,0.003272492347489368,0.001090830782496456,0.0,-0.004908047833782397,0.1170103284754727,-0.0002874719376849213,0,0,0,0,0,0,1500,1500,1500,1500,1500,1500
1747449382.9126923,0.02,0.01,-0.36,0.002181661564992912,-0.002181661564992912,-0.001090830782496456,-0.004908047833782397,0.1170103284754727,-0.0002874719376849213,0,0,0,0,0,0,1500,1500,1500,1500,1500,1500
1747449383.0037296,-0.01,0.0,-0.33,0.0,0.002181661564992912,-0.001090830782496456,-0.004908047833782397,0.1170103284754727,-0.0002874719376849213,0,0,0,0,0,0,1500,1500,1500,1500,1500,1500
1747449383.1121106,-0.01,0.0,-0.33,0.0,0.002181661564992912,-0.001090830782496456,-0.004908047833782397,0.1170103284754727,-0.0002874719376849213,0,0,0,0,0,0,1500,1500,1500,1500,1500,1500
1747449383.204509,0.01,-0.01,-0.31,-0.001090830782496456,-0.001090830782496456,0.002181661564992912,-0.004908047833782397,0.1170103284754727,-0.0002874719376849213,0,0,0,0,0,0,1500,1500,1500,1500,1500,1500
1747449383.30262,0.02,0.01,-1.6400000000000001,0.0,-0.002181661564992912,0.0,-0.004908047833782397,0.1170103284754727,-0.0002874719376849213,0,0,0,0,0,0,1500,1500,1500,1500,1500,1500
1747449383.402818,0.02,0.01,-1.6400000000000001,0.0,-0.002181661564992912,0.0,-0.004908047833782397,0.1170103284754727,-0.0002874719376849213,0,0,0,0,0,0,1500,1500,1500,1500,1500,1500
1747449383.5039978,0.0,0.02,-0.31,0.004363323129985824,0.0,-0.001090830782496456,-0.004908047833782397,0.1170103284754727,-0.0002874719376849213,0,0,0,0,0,0,1500,1500,1500,1500,1500,1500
1747449383.610608,0.0,0.02,-0.31,0.004363323129985824,0.0,-0.001090830782496456,-0.004908047833782397,0.1170103284754727,-0.0002874719376849213,0,0,0,0,0,0,1500,1500,1500,1500,1500,1500
1747449383.704183,0.06,0.0,-0.3,0.002181661564992912,0.002181661564992912,0.001090830782496456,-0.004908047833782397,0.1170103284754727,-0.0002874719376849213,0,0,0,0,0,0,1500,1500,1500,1500,1500,1500
1747449383.80593,0.03,-0.02,-0.28,0.004363323129985824,0.00545415391248228,-0.002181661564992912,-0.004908047833782397,0.1170103284754727,-0.0002874719376849213,0,0,0,0,0,0,1500,1500,1500,1500,1500,1500
1747449383.9085667,0.03,-0.02,-0.28,0.004363323129985824,0.00545415391248228,-0.002181661564992912,-0.004908047833782397,0.1170103284754727,-0.0002874719376849213,0,0,0,0,0,0,1500,1500,1500,1500,1500,1500
1747449384.0114355,0.01,0.03,-0.35000000000000003,0.001090830782496456,-0.003272492347489368,0.001090830782496456,-0.004908047833782397,0.1170103284754727,-0.0002874719376849213,0,0,0,0,0,0,1500,1500,1500,1500,1500,1500
1747449384.0967739,0.02,0.0,-0.33,-0.002181661564992912,0.0,0.001090830782496456,-0.004908047833782397,0.1170103284754727,-0.0002874719376849213,0,0,0,0,0,0,1500,1500,1500,1500,1500,1500
1747449384.203005,0.02,0.0,-0.33,-0.002181661564992912,0.0,0.001090830782496456,-0.004908047833782397,0.1170103284754727,-0.0002874719376849213,0,0,0,0,0,0,1500,1500,1500,1500,1500,1500
1747449384.3048413,0.06,-0.03,-0.26,-0.001090830782496456,0.003272492347489368,0.001090830782496456,-0.004908047833782397,0.1170103284754727,-0.0002874719376849213,0,0,0,0,0,0,1500,1500,1500,1500,1500,1500
1747449384.4081213,0.05,0.02,-0.33,-0.003272492347489368,0.0,0.0,-0.004908047833782397,0.1170103284754727,-0.0002874719376849213,0,0,0,0,0,0,1500,1500,1500,1500,1500,1500
1747449384.5126207,0.05,0.02,-0.33,-0.003272492347489368,0.0,0.0,-0.004908047833782397,0.1170103284754727,-0.0002874719376849213,0,0,0,0,0,0,1500,1500,1500,1500,1500,1500
1747449384.625108,0.0,0.01,-0.31,0.001090830782496456,0.001090830782496456,-0.002181661564992912,-0.004908047833782397,0.1170103284754727,-0.0002874719376849213,0,0,0,0,0,0,1500,1500,1500,1500,1500,1500
1747449384.7221987,0.02,0.04,-0.32,0.002181661564992912,0.0,-0.003272492347489368,-0.004908047833782397,0.1170103284754727,-0.0002874719376849213,0,0,0,0,0,0,1500,1500,1500,1500,1500,1500
1747449384.8192086,0.02,0.04,-0.32,0.002181661564992912,0.0,-0.003272492347489368,-0.004908047833782397,0.1170103284754727,-0.0002874719376849213,0,0,0,0,0,0,1500,1500,1500,1500,1500,1500
1747449384.9126325,0.04,-0.02,-0.36,0.0,0.003272492347489368,0.0,-0.004908047833782397,0.1170103284754727,-0.0002874719376849213,0,0,0,0,0,0,1500,1500,1500,1500,1500,1500
1747449385.0058327,0.04,-0.02,-0.36,0.0,0.003272492347489368,0.0,-0.004908047833782397,0.1170103284754727,-0.0002874719376849213,0,0,0,0,0,0,1500,1500,1500,1500,1500,1500
1747449385.105949,0.03,-0.02,-0.26,-0.003272492347489368,-0.001090830782496456,0.001090830782496456,-0.004908047833782397,0.1170103284754727,-0.0002874719376849213,0,0,0,0,0,0,1500,1500,1500,1500,1500,1500
1747449385.2059069,0.01,0.01,-0.31,-0.001090830782496456,0.002181661564992912,0.001090830782496456,-0.004908047833782397,0.1170103284754727,-0.0002874719376849213,0,0,0,0,0,0,1500,1500,1500,1500,1500,1500
1747449385.3080196,0.01,0.01,-0.31,-0.001090830782496456,0.002181661564992912,0.001090830782496456,-0.004908047833782397,0.1170103284754727,-0.0002874719376849213,0,0,0,0,0,0,1500,1500,1500,1500,1500,1500
1747449385.4303477,0.03,-0.01,-0.29,0.003272492347489368,0.0,-0.001090830782496456,-0.004908047833782397,0.1170103284754727,-0.0002874719376849213,0,0,0,0,0,0,1500,1500,1500,1500,1500,1500
1747449385.524391,0.03,0.0,-0.31,0.0,-0.004363323129985824,-0.001090830782496456,-0.004908047833782397,0.1170103284754727,-0.0002874719376849213,0,0,0,0,0,0,1500,1500,1500,1500,1500,1500
1747449385.6219099,0.03,0.0,-0.31,0.0,-0.004363323129985824,-0.001090830782496456,-0.004908047833782397,0.1170103284754727,-0.0002874719376849213,0,0,0,0,0,0,1500,1500,1500,1500,1500,1500
1747449385.7370582,0.02,-0.05,-0.31,-0.003272492347489368,-0.004363323129985824,-0.001090830782496456,-0.004908047833782397,0.1170103284754727,-0.0002874719376849213,0,0,0,0,0,0,1500,1500,1500,1500,1500,1500
1747449385.8427565,0.02,0.01,-0.28,0.0,0.004363323129985824,0.002181661564992912,-0.004908047833782397,0.1170103284754727,-0.0002874719376849213,0,0,0,0,0,0,1500,1500,1500,1500,1500,1500
1747449385.9565077,0.02,0.01,-0.28,0.0,0.004363323129985824,0.002181661564992912,-0.004908047833782397,0.1170103284754727,-0.0002874719376849213,0,0,0,0,0,0,1500,1500,1500,1500,1500,1500
1747449386.0542696,0.02,0.02,-0.32,-0.002181661564992912,-0.004363323129985824,0.001090830782496456,-0.004908047833782397,0.1170103284754727,-0.0002874719376849213,0,0,0,0,0,0,1500,1500,1500,1500,1500,1500
1747449386.147176,-0.01,0.02,-0.33,0.002181661564992912,-0.001090830782496456,0.0,-0.018036511452682397,-0.000122964382481506,-0.00012075901152739186,0,0,0,0,0,0,1500,1500,1500,1500,1500,1500
1747449386.2378838,-0.01,0.02,-0.33,0.002181661564992912,-0.001090830782496456,0.0,-0.018036511452682397,-0.000122964382481506,-0.00012075901152739186,0,0,0,0,0,0,1500,1500,1500,1500,1500,1500
1747449386.3435454,0.02,0.0,-0.32,0.0,-0.006544984694978736,0.0,-0.004908047833782397,0.1170103284754727,-0.0002874719376849213,0,0,0,0,0,0,1500,1500,1500,1500,1500,1500
1747449386.443161,0.02,0.0,-0.32,0.0,-0.006544984694978736,0.0,-0.004908047833782397,0.1170103284754727,-0.0002874719376849213,0,0,0,0,0,0,1500,1500,1500,1500,1500,1500
1747449386.542622,0.04,0.01,-0.36,-0.001090830782496456,-0.001090830782496456,0.0,-0.004908047833782397,0.1170103284754727,-0.0002874719376849213,0,0,0,0,0,0,1500,1500,1500,1500,1500,1500
1747449386.6597416,0.02,-0.01,-0.28,-0.003272492347489368,-0.004363323129985824,0.002181661564992912,-0.004908047833782397,0.1170103284754727,-0.0002874719376849213,0,0,0,0,0,0,1500,1500,1500,1500,1500,1500
1747449386.7536895,0.02,-0.01,-0.28,-0.003272492347489368,-0.004363323129985824,0.002181661564992912,-0.004908047833782397,0.1170103284754727,-0.0002874719376849213,0,0,0,0,0,0,1500,1500,1500,1500,1500,1500
1747449386.852725,0.02,0.0,-0.31,-0.004363323129985824,-0.002181661564992912,0.002181661564992912,-0.004908047833782397,0.1170103284754727,-0.0002874719376849213,0,0,0,0,0,0,1500,1500,1500,1500,1500,1500
1747449387.0032594,0.03,0.0,-0.32,-0.001090830782496456,-0.001090830782496456,-0.002181661564992912,-0.004908047833782397,0.1170103284754727,-0.0002874719376849213,0,0,0,0,0,0,1500,1500,1500,1500,1500,1500
1747449387.1097176,0.0,0.02,-0.34,0.001090830782496456,-0.002181661564992912,-0.002181661564992912,-0.004908047833782397,0.1170103284754727,-0.0002874719376849213,0,0,0,0,0,0,1500,1500,1500,1500,1500,1500
1747449387.2196674,0.0,0.02,-0.34,0.001090830782496456,-0.002181661564992912,-0.002181661564992912,-0.004908047833782397,0.1170103284754727,-0.0002874719376849213,0,0,0,0,0,0,1500,1500,1500,1500,1500,1500
1747449387.3163435,0.02,-0.02,-0.34,-0.002181661564992912,0.001090830782496456,0.0,-0.004908047833782397,0.1170103284754727,-0.0002874719376849213,0,0,0,0,0,0,1500,1500,1500,1500,1500,1500
1747449387.413266,0.06,-0.02,-0.28,0.0,0.003272492347489368,-0.002181661564992912,-0.004908047833782397,0.1170103284754727,-0.0002874719376849213,0,0,0,0,0,0,1500,1500,1500,1500,1500,1500
1747449387.5084977,0.06,-0.02,-0.28,0.0,0.003272492347489368,-0.002181661564992912,-0.004908047833782397,0.1170103284754727,-0.0002874719376849213,0,0,0,0,0,0,1500,1500,1500,1500,1500,1500
1747449387.6043208,0.07,0.0,-0.37,0.004363323129985824,-0.003272492347489368,-0.002181661564992912,-0.004908047833782397,0.1170103284754727,-0.0002874719376849213,0,0,0,0,0,0,1500,1500,1500,1500,1500,1500
1747449387.7045565,0.07,0.0,-0.37,0.004363323129985824,-0.003272492347489368,-0.002181661564992912,-0.004908047833782397,0.1170103284754727,-0.0002874719376849213,0,0,0,0,0,0,1500,1500,1500,1500,1500,1500
1747449387.8079193,0.03,0.0,-0.31,-0.001090830782496456,0.001090830782496456,-0.003272492347489368,-0.004908047833782397,0.1170103284754727,-0.0002874719376849213,0,0,0,0,0,0,1500,1500,1500,1500,1500,1500
1747449387.9445412,0.02,0.0,-0.23,0.0,0.003272492347489368,0.002181661564992912,-0.004908047833782397,0.1170103284754727,-0.0002874719376849213,0,0,0,0,0,0,1500,1500,1500,1500,1500,1500
1747449388.043434,0.02,0.0,-0.23,0.0,0.003272492347489368,0.002181661564992912,-0.004908047833782397,0.1170103284754727,-0.0002874719376849213,0,0,0,0,0,0,1500,1500,1500,1500,1500,1500
1747449388.1541665,0.03,-0.01,-0.35000000000000003,0.001090830782496456,0.001090830782496456,0.001090830782496456,-0.004908047833782397,0.1170103284754727,-0.0002874719376849213,0,0,0,0,0,0,1500,1500,1500,1500,1500,1500
1747449388.255641,0.03,0.0,-0.29,0.0,-0.003272492347489368,-0.001090830782496456,-0.004908047833782397,0.1170103284754727,-0.0002874719376849213,0,0,0,0,0,0,1500,1500,1500,1500,1500,1500
1747449388.35652,0.03,0.0,-0.29,0.0,-0.003272492347489368,-0.001090830782496456,-0.004908047833782397,0.1170103284754727,-0.0002874719376849213,0,0,0,0,0,0,1500,1500,1500,1500,1500,1500
1747449388.4604025,0.03,-0.01,-0.33,0.0,-0.001090830782496456,0.001090830782496456,-0.004908047833782397,0.1170103284754727,-0.0002874719376849213,0,0,0,0,0,0,1500,1500,1500,1500,1500,1500
1747449388.5561,0.03,0.0,-0.33,0.003272492347489368,0.002181661564992912,0.001090830782496456,-0.004908047833782397,0.1170103284754727,-0.0002874719376849213,0,0,0,0,0,0,1500,1500,1500,1500,1500,1500
1747449388.6600726,0.03,0.0,-0.33,0.003272492347489368,0.002181661564992912,0.001090830782496456,-0.004908047833782397,0.1170103284754727,-0.0002874719376849213,0,0,0,0,0,0,1500,1500,1500,1500,1500,1500
1747449388.755383,0.04,-0.01,-0.29,0.001090830782496456,-0.004363323129985824,0.001090830782496456,-0.004908047833782397,0.1170103284754727,-0.0002874719376849213,0,0,0,0,0,0,1500,1500,1500,1500,1500,1500
1747449388.8611147,0.02,0.03,-0.32,0.0,0.003272492347489368,-0.002181661564992912,-0.004908047833782397,0.1170103284754727,-0.0002874719376849213,0,0,0,0,0,0,1500,1500,1500,1500,1500,1500
1747449388.9540787,0.02,0.03,-0.32,0.0,0.003272492347489368,-0.002181661564992912,-0.004908047833782397,0.1170103284754727,-0.0002874719376849213,0,0,0,0,0,0,1500,1500,1500,1500,1500,1500
1747449389.0595305,0.01,0.0,-0.28,0.0,-0.002181661564992912,0.002181661564992912,-0.004908047833782397,0.1170103284754727,-0.0002874719376849213,0,0,0,0,0,0,1500,1500,1500,1500,1500,1500
1747449389.1766858,0.0,-0.01,-0.31,-0.001090830782496456,0.003272492347489368,0.0,-0.004908047833782397,0.1170103284754727,-0.0002874719376849213,0,0,0,0,0,0,1500,1500,1500,1500,1500,1500
