time,ay,ax,az,gy,gx,gz,roll,pitch,yaw,cmd_fx,cmd_fy,cmd_fz,cmd_tx,cmd_ty,cmd_tz,pwm_1,pwm_2,pwm_3,pwm_4,pwm_5,pwm_6
1747550221.9289787,0.0,0.0,0.0,0.0,0.0,0.0,0.0,0.0,0.0,0,0,0,0,0,0,1500,1500,1500,1500,1500,1500
1747550222.033081,0.02,-0.01,-0.35000000000000003,-0.003272492347489368,0.002181661564992912,0.0,-0.008242240360239005,0.10197220063064466,-0.0010317514824778101,0,0,0,0,0,0,1500,1500,1500,1500,1500,1500
1747550222.132244,0.02,-0.01,-0.35000000000000003,-0.003272492347489368,0.002181661564992912,0.0,-0.008242240360239005,0.10197220063064466,-0.0010317514824778101,0,0,0,0,0,0,1500,1500,1500,1500,1500,1500
1747550222.2345393,0.02,0.0,-0.29,0.002181661564992912,0.003272492347489368,-0.002181661564992912,-0.008242240360239005,0.10197220063064466,-0.0010317514824778101,0,0,0,0,0,0,1500,1500,1500,1500,1500,1500
1747550222.3348005,0.03,0.0,-0.35000000000000003,0.002181661564992912,0.001090830782496456,0.001090830782496456,-0.008242240360239005,0.10197220063064466,-0.0010317514824778101,0,0,0,0,0,0,1500,1500,1500,1500,1500,1500
1747550222.4354367,0.03,0.0,-0.35000000000000003,0.002181661564992912,0.001090830782496456,0.001090830782496456,-0.008242240360239005,0.10197220063064466,-0.0010317514824778101,0,0,0,0,0,0,1500,1500,1500,1500,1500,1500
1747550222.5333226,0.01,0.0,-0.26,0.0,0.002181661564992912,0.0,-0.008242240360239005,0.10197220063064466,-0.0010317514824778101,0,0,0,0,0,0,1500,1500,1500,1500,1500,1500
1747550222.6354456,0.01,0.0,-0.26,0.0,0.002181661564992912,0.0,-0.008242240360239005,0.10197220063064466,-0.0010317514824778101,0,0,0,0,0,0,1500,1500,1500,1500,1500,1500
1747550222.7347386,0.04,0.0,-0.33,0.0,0.001090830782496456,-0.002181661564992912,-0.008242240360239005,0.10197220063064466,-0.0010317514824778101,0,0,0,0,0,0,1500,1500,1500,1500,1500,1500
1747550222.8366413,0.03,0.0,-0.32,0.001090830782496456,-0.001090830782496456,0.0,-0.008242240360239005,0.10197220063064466,-0.0010317514824778101,0,0,0,0,0,0,1500,1500,1500,1500,1500,1500
1747550222.9374766,0.03,0.0,-0.32,0.001090830782496456,-0.001090830782496456,0.0,-0.008242240360239005,0.10197220063064466,-0.0010317514824778101,0,0,0,0,0,0,1500,1500,1500,1500,1500,1500
1747550223.0360014,0.03,0.0,-0.32,0.001090830782496456,-0.001090830782496456,0.0,-0.008242240360239005,0.10197220063064466,-0.0010317514824778101,0,0,0,0,0,0,1500,1500,1500,1500,1500,1500
1747550223.134022,0.03,0.0,-0.32,0.001090830782496456,-0.001090830782496456,0.0,-0.008242240360239005,0.10197220063064466,-0.0010317514824778101,0,0,0,0,0,0,1500,1500,1500,1500,1500,1500
1747550223.2331648,0.03,0.0,-0.32,0.001090830782496456,-0.001090830782496456,0.0,-0.008242240360239005,0.10197220063064466,-0.0010317514824778101,0,0,0,0,0,0,1500,1500,1500,1500,1500,1500
1747550223.3324594,0.03,0.0,-0.32,0.001090830782496456,-0.001090830782496456,0.0,-0.008242240360239005,0.10197220063064466,-0.0010317514824778101,0,0,0,0,0,0,1500,1500,1500,1500,1500,1500
1747550223.41777,0.03,0.0,-0.32,0.001090830782496456,-0.001090830782496456,0.0,-0.008242240360239005,0.10197220063064466,-0.0010317514824778101,0,0,0,0,0,0,1500,1500,1500,1500,1500,1500
1747550223.5195758,0.03,0.0,-0.32,0.001090830782496456,-0.001090830782496456,0.0,-0.008242240360239005,0.10197220063064466,-0.0010317514824778101,0,0,0,0,0,0,1500,1500,1500,1500,1500,1500
1747550223.6196065,0.03,0.0,-0.32,0.001090830782496456,-0.001090830782496456,0.0,-0.008242240360239005,0.10197220063064466,-0.0010317514824778101,0,0,0,0,0,0,1500,1500,1500,1500,1500,1500
1747550223.7184932,0.03,0.0,-0.32,0.001090830782496456,-0.001090830782496456,0.0,-0.008242240360239005,0.10197220063064466,-0.0010317514824778101,0,0,0,0,0,0,1500,1500,1500,1500,1500,1500
1747550223.8204894,0.03,0.0,-0.32,0.001090830782496456,-0.001090830782496456,0.0,-0.008242240360239005,0.10197220063064466,-0.0010317514824778101,0,0,0,0,0,0,1500,1500,1500,1500,1500,1500
1747550223.9189525,0.03,0.0,-0.32,0.001090830782496456,-0.001090830782496456,0.0,-0.008242240360239005,0.10197220063064466,-0.0010317514824778101,0,0,0,0,0,0,1500,1500,1500,1500,1500,1500
1747550224.0170674,0.03,0.0,-0.32,0.001090830782496456,-0.001090830782496456,0.0,-0.008242240360239005,0.10197220063064466,-0.0010317514824778101,0,0,0,0,0,0,1500,1500,1500,1500,1500,1500
1747550224.105849,0.03,0.0,-0.32,0.001090830782496456,-0.001090830782496456,0.0,-0.008242240360239005,0.10197220063064466,-0.0010317514824778101,0,0,0,0,0,0,1500,1500,1500,1500,1500,1500
1747550224.2003376,0.03,0.0,-0.32,0.001090830782496456,-0.001090830782496456,0.0,-0.008242240360239005,0.10197220063064466,-0.0010317514824778101,0,0,0,0,0,0,1500,1500,1500,1500,1500,1500
1747550224.3025138,0.03,0.0,-0.32,0.001090830782496456,-0.001090830782496456,0.0,-0.008242240360239005,0.10197220063064466,-0.0010317514824778101,0,0,0,0,0,0,1500,1500,1500,1500,1500,1500
1747550224.3496106,0.03,0.0,-0.32,0.001090830782496456,-0.001090830782496456,0.0,-0.008242240360239005,0.10197220063064466,-0.0010317514824778101,0,0,0,0,0,0,1500,1500,1500,1500,1500,1500
1747550224.3857393,0.03,0.0,-0.32,0.001090830782496456,-0.001090830782496456,0.0,-0.008242240360239005,0.10197220063064466,-0.0010317514824778101,0,0,0,0,0,0,1500,1500,1500,1500,1500,1500
1747550224.4350257,0.04,0.01,-0.33,-0.002181661564992912,-0.002181661564992912,0.0,-0.00955873608319709,0.1022135448080068,-0.0004889708205734794,0,0,0,0,0,0,1500,1500,1500,1500,1500,1500
1747550224.4852629,0.04,0.01,-0.33,-0.002181661564992912,-0.002181661564992912,0.0,-0.00955873608319709,0.1022135448080068,-0.0004889708205734794,0,0,0,0,0,0,1500,1500,1500,1500,1500,1500
1747550224.535258,0.04,0.01,-0.33,-0.002181661564992912,-0.002181661564992912,0.0,-0.00955873608319709,0.1022135448080068,-0.0004889708205734794,0,0,0,0,0,0,1500,1500,1500,1500,1500,1500
1747550224.5862477,0.05,0.02,-0.33,0.00545415391248228,-0.001090830782496456,0.001090830782496456,-0.00955873608319709,0.1022135448080068,-0.0004889708205734794,0,0,0,0,0,0,1500,1500,1500,1500,1500,1500
1747550224.6367,0.05,0.02,-0.33,0.00545415391248228,-0.001090830782496456,0.001090830782496456,-0.00955873608319709,0.1022135448080068,-0.0004889708205734794,0,0,0,0,0,0,1500,1500,1500,1500,1500,1500
1747550224.686415,0.05,0.02,-0.33,0.00545415391248228,-0.001090830782496456,0.001090830782496456,-0.00955873608319709,0.1022135448080068,-0.0004889708205734794,0,0,0,0,0,0,1500,1500,1500,1500,1500,1500
1747550224.7351482,0.07,0.0,-0.34,-0.002181661564992912,0.001090830782496456,0.0,-0.00955873608319709,0.1022135448080068,-0.0004889708205734794,0,0,0,0,0,0,1500,1500,1500,1500,1500,1500
1747550224.7863314,0.07,0.0,-0.34,-0.002181661564992912,0.001090830782496456,0.0,-0.00955873608319709,0.1022135448080068,-0.0004889708205734794,0,0,0,0,0,0,1500,1500,1500,1500,1500,1500
1747550224.83686,0.07,0.0,-0.34,-0.002181661564992912,0.001090830782496456,0.0,-0.00955873608319709,0.1022135448080068,-0.0004889708205734794,0,0,0,0,0,0,1500,1500,1500,1500,1500,1500
1747550224.885517,0.06,0.01,-0.37,0.002181661564992912,-0.002181661564992912,-0.001090830782496456,-0.00955873608319709,0.1022135448080068,-0.0004889708205734794,0,0,0,0,0,0,1500,1500,1500,1500,1500,1500
1747550224.9368267,0.06,0.01,-0.37,0.002181661564992912,-0.002181661564992912,-0.001090830782496456,-0.00955873608319709,0.1022135448080068,-0.0004889708205734794,0,0,0,0,0,0,1500,1500,1500,1500,1500,1500
1747550224.9855525,0.06,0.01,-0.37,0.002181661564992912,-0.002181661564992912,-0.001090830782496456,-0.00955873608319709,0.1022135448080068,-0.0004889708205734794,0,0,0,0,0,0,1500,1500,1500,1500,1500,1500
1747550225.0354939,0.06,0.01,-0.37,0.002181661564992912,-0.002181661564992912,-0.001090830782496456,-0.00955873608319709,0.1022135448080068,-0.0004889708205734794,0,0,0,0,0,0,1500,1500,1500,1500,1500,1500
1747550225.0844276,0.05,0.01,-0.29,-0.001090830782496456,-0.001090830782496456,-0.002181661564992912,-0.00955873608319709,0.1022135448080068,-0.0004889708205734794,0,0,0,0,0,0,1500,1500,1500,1500,1500,1500
1747550225.1208274,0.05,0.01,-0.29,-0.001090830782496456,-0.001090830782496456,-0.002181661564992912,-0.00955873608319709,0.1022135448080068,-0.0004889708205734794,0,0,0,0,0,0,1500,1500,1500,1500,1500,1500
1747550225.185675,0.05,0.01,-0.29,-0.001090830782496456,-0.001090830782496456,-0.002181661564992912,-0.00955873608319709,0.1022135448080068,-0.0004889708205734794,0,0,0,0,0,0,1500,1500,1500,1500,1500,1500
1747550225.2198613,0.04,0.0,-0.36,0.001090830782496456,-0.003272492347489368,0.002181661564992912,-0.00955873608319709,0.1022135448080068,-0.0004889708205734794,0,0,0,0,0,0,1500,1500,1500,1500,1500,1500
1747550225.284081,0.04,0.0,-0.36,0.001090830782496456,-0.003272492347489368,0.002181661564992912,-0.00955873608319709,0.1022135448080068,-0.0004889708205734794,0,0,0,0,0,0,1500,1500,1500,1500,1500,1500
1747550225.317492,0.04,0.0,-0.36,0.001090830782496456,-0.003272492347489368,0.002181661564992912,-0.00955873608319709,0.1022135448080068,-0.0004889708205734794,0,0,0,0,0,0,1500,1500,1500,1500,1500,1500
1747550225.3705976,0.04,0.02,-0.34,0.0,0.0,0.001090830782496456,-0.00955873608319709,0.1022135448080068,-0.0004889708205734794,0,0,0,0,0,0,1500,1500,1500,1500,1500,1500
1747550225.4032671,0.04,0.02,-0.34,0.0,0.0,0.001090830782496456,-0.00955873608319709,0.1022135448080068,-0.0004889708205734794,0,0,0,0,0,0,1500,1500,1500,1500,1500,1500
1747550225.4691398,0.04,0.02,-0.34,0.0,0.0,0.001090830782496456,-0.00955873608319709,0.1022135448080068,-0.0004889708205734794,0,0,0,0,0,0,1500,1500,1500,1500,1500,1500
1747550225.506741,0.04,0.02,-0.34,0.0,0.0,0.001090830782496456,-0.00955873608319709,0.1022135448080068,-0.0004889708205734794,0,0,0,0,0,0,1500,1500,1500,1500,1500,1500
1747550225.5694778,0.03,0.01,-0.35000000000000003,0.0,0.001090830782496456,0.0,-0.00955873608319709,0.1022135448080068,-0.0004889708205734794,0,0,0,0,0,0,1500,1500,1500,1500,1500,1500
1747550225.603276,0.03,0.01,-0.35000000000000003,0.0,0.001090830782496456,0.0,-0.00955873608319709,0.1022135448080068,-0.0004889708205734794,0,0,0,0,0,0,1500,1500,1500,1500,1500,1500
1747550225.6547127,0.03,0.01,-0.35000000000000003,0.0,0.001090830782496456,0.0,-0.00955873608319709,0.1022135448080068,-0.0004889708205734794,0,0,0,0,0,0,1500,1500,1500,1500,1500,1500
1747550225.7023268,0.02,0.03,-0.32,-0.003272492347489368,0.003272492347489368,0.001090830782496456,-0.00955873608319709,0.1022135448080068,-0.0004889708205734794,0,0,0,0,0,0,1500,1500,1500,1500,1500,1500
1747550225.750832,0.02,0.03,-0.32,-0.003272492347489368,0.003272492347489368,0.001090830782496456,-0.00955873608319709,0.1022135448080068,-0.0004889708205734794,0,0,0,0,0,0,1500,1500,1500,1500,1500,1500
1747550225.8024876,0.02,0.03,-0.32,-0.003272492347489368,0.003272492347489368,0.001090830782496456,-0.00955873608319709,0.1022135448080068,-0.0004889708205734794,0,0,0,0,0,0,1500,1500,1500,1500,1500,1500
1747550225.8524463,0.04,0.0,-0.35000000000000003,-0.001090830782496456,0.0,0.002181661564992912,-0.00955873608319709,0.1022135448080068,-0.0004889708205734794,0,0,0,0,0,0,1500,1500,1500,1500,1500,1500
1747550225.8858337,0.04,0.0,-0.35000000000000003,-0.001090830782496456,0.0,0.002181661564992912,-0.00955873608319709,0.1022135448080068,-0.0004889708205734794,0,0,0,0,0,0,1500,1500,1500,1500,1500,1500
1747550225.952192,0.04,0.0,-0.35000000000000003,-0.001090830782496456,0.0,0.002181661564992912,-0.00955873608319709,0.1022135448080068,-0.0004889708205734794,0,0,0,0,0,0,1500,1500,1500,1500,1500,1500
1747550225.9860933,0.04,0.0,-0.35000000000000003,-0.001090830782496456,0.0,0.002181661564992912,-0.00955873608319709,0.1022135448080068,-0.0004889708205734794,0,0,0,0,0,0,1500,1500,1500,1500,1500,1500
1747550226.0524771,0.05,0.0,-0.35000000000000003,0.003272492347489368,-0.002181661564992912,-0.001090830782496456,-0.00955873608319709,0.1022135448080068,-0.0004889708205734794,0,0,0,0,0,0,1500,1500,1500,1500,1500,1500
1747550226.0868518,0.05,0.0,-0.35000000000000003,0.003272492347489368,-0.002181661564992912,-0.001090830782496456,-0.00955873608319709,0.1022135448080068,-0.0004889708205734794,0,-0.022363,0,0,0,0,1500,1500,1500,1500,1500,1500
1747550226.1354406,0.05,0.0,-0.35000000000000003,0.003272492347489368,-0.002181661564992912,-0.001090830782496456,-0.00955873608319709,0.1022135448080068,-0.0004889708205734794,0,-6.920357,0,0,0,0,1460,1460,1460,1500,1500,1500
1747550226.1856546,0.07,0.0,-0.31,-0.004363323129985824,-0.002181661564992912,-0.002181661564992912,-0.00955873608319709,0.1022135448080068,-0.0004889708205734794,0,-12.5,0,0,0,0,1420,1420,1425,1500,1500,1500
1747550226.2366402,0.07,0.0,-0.31,-0.004363323129985824,-0.002181661564992912,-0.002181661564992912,-0.00955873608319709,0.1022135448080068,-0.0004889708205734794,0,-12.5,0,0,0,0,1413,1415,1425,1500,1500,1500
1747550226.2836895,0.07,0.0,-0.31,-0.004363323129985824,-0.002181661564992912,-0.002181661564992912,-0.00955873608319709,0.1022135448080068,-0.0004889708205734794,0,-12.5,0,0,0,0,1413,1415,1425,1500,1500,1500
1747550226.3335078,0.03,0.0,-0.36,0.003272492347489368,-0.001090830782496456,0.001090830782496456,-0.00955873608319709,0.1022135448080068,-0.0004889708205734794,0,-12.5,0,0,0,0,1413,1415,1425,1500,1500,1500
1747550226.3833804,0.03,0.0,-0.36,0.003272492347489368,-0.001090830782496456,0.001090830782496456,-0.00955873608319709,0.1022135448080068,-0.0004889708205734794,0,-12.5,0,0,0,0,1413,1415,1425,1500,1500,1500
1747550226.4160526,0.03,0.0,-0.36,0.003272492347489368,-0.001090830782496456,0.001090830782496456,-0.00955873608319709,0.1022135448080068,-0.0004889708205734794,0,-12.5,0,0,0,-0.000215,1413,1415,1425,1500,1500,1500
1747550226.482529,-0.01,1.25,-0.29,0.028361600344907856,0.003272492347489368,-0.03381575425739013,-0.009687556319016763,0.10221295312400609,-0.0006177856894338717,0,-12.5,0,0,0,-0.009517,1413,1415,1425,1500,1500,1500
1747550226.5162113,-0.01,1.25,-0.29,0.028361600344907856,0.003272492347489368,-0.03381575425739013,-0.009687556319016763,0.10221295312400609,-0.0006177856894338717,0,-12.5,0,0,0,-0.009517,1413,1415,1425,1500,1500,1500
1747550226.5836396,-0.01,1.25,-0.29,0.028361600344907856,0.003272492347489368,-0.03381575425739013,-0.009687556319016763,0.10221295312400609,-0.0006177856894338717,0,-12.5,0,0,0,-0.010913,1413,1415,1425,1500,1500,1500
1747550226.6162024,0.32,-0.34,-0.27,-0.01090830782496456,0.0,0.009817477042468103,-0.00992639153849438,0.1022135448080068,-0.0005077773874227039,0,-12.5,0,0,0,-0.012403,1413,1415,1425,1500,1500,1500
1747550226.6676173,0.32,-0.34,-0.27,-0.01090830782496456,0.0,0.009817477042468103,-0.00992639153849438,0.1022135448080068,-0.0005077773874227039,0,-12.5,0,0,0,-0.012403,1413,1415,1425,1500,1500,1500
1747550226.7007754,0.32,-0.34,-0.27,-0.01090830782496456,0.0,0.009817477042468103,-0.00992639153849438,0.1022135448080068,-0.0005077773874227039,0,-12.5,0,0,0,-0.012403,1413,1415,1425,1500,1500,1500
1747550226.7659545,0.32,-0.34,-0.27,-0.01090830782496456,0.0,0.009817477042468103,-0.00992639153849438,0.1022135448080068,-0.0005077773874227039,0,-12.5,0,0,0,-0.012403,1413,1415,1425,1500,1500,1500
1747550226.8008633,0.11,-0.1,-0.26,-0.001090830782496456,-0.001090830782496456,0.002181661564992912,-0.00992639153849438,0.1022135448080068,-0.0005077773874227039,0,-12.5,0,0,0,-0.012403,1413,1415,1425,1500,1500,1500
1747550226.8656702,0.11,-0.1,-0.26,-0.001090830782496456,-0.001090830782496456,0.002181661564992912,-0.00992639153849438,0.1022135448080068,-0.0005077773874227039,0,-12.5,0,0,0,-0.012403,1413,1415,1425,1500,1500,1500
1747550226.8998756,0.11,-0.1,-0.26,-0.001090830782496456,-0.001090830782496456,0.002181661564992912,-0.00992639153849438,0.1022135448080068,-0.0005077773874227039,0,-12.5,0,0,0,-0.01399,1413,1415,1425,1500,1500,1500
1747550226.9529052,0.0,0.03,-0.31,0.006544984694978736,-0.002181661564992912,0.0,-0.00992639153849438,0.1022135448080068,-0.0005077773874227039,0,-12.5,0,0,0,-0.017449,1413,1415,1425,1500,1500,1500
1747550227.0022907,0.0,0.03,-0.31,0.006544984694978736,-0.002181661564992912,0.0,-0.00992639153849438,0.1022135448080068,-0.0005077773874227039,0,-12.5,0,0,0,-0.017449,1413,1415,1425,1500,1500,1500
1747550227.0542338,0.0,0.03,-0.31,0.006544984694978736,-0.002181661564992912,0.0,-0.00992639153849438,0.1022135448080068,-0.0005077773874227039,0,-12.5,0,0,0,-0.017449,1413,1415,1425,1500,1500,1500
1747550227.090861,0.0,0.05,-0.27,-0.00545415391248228,-0.002181661564992912,-0.001090830782496456,-0.00992639153849438,0.1022135448080068,-0.0005077773874227039,0,-12.5,0,0,0,-0.017449,1413,1415,1425,1500,1500,1500
1747550227.1676755,0.0,0.05,-0.27,-0.00545415391248228,-0.002181661564992912,-0.001090830782496456,-0.00992639153849438,0.1022135448080068,-0.0005077773874227039,0,0,0,0,0,0,1453,1455,1465,1500,1500,1500
1747550227.1853437,0.0,0.05,-0.27,-0.00545415391248228,-0.002181661564992912,-0.001090830782496456,-0.00992639153849438,0.1022135448080068,-0.0005077773874227039,0,0,0,0,0,0,1493,1495,1500,1500,1500,1500
1747550227.2697334,0.03,0.1,-0.39,0.004363323129985824,0.002181661564992912,0.0,-0.00992639153849438,0.1022135448080068,-0.0005077773874227039,0,0,0,0,0,0,1500,1500,1500,1500,1500,1500
1747550227.2846317,0.03,0.1,-0.39,0.004363323129985824,0.002181661564992912,0.0,-0.00992639153849438,0.1022135448080068,-0.0005077773874227039,0,0,0,0,0,0,1500,1500,1500,1500,1500,1500
1747550227.3670008,0.03,0.1,-0.39,0.004363323129985824,0.002181661564992912,0.0,-0.00992639153849438,0.1022135448080068,-0.0005077773874227039,0,0,0,0,0,0,1500,1500,1500,1500,1500,1500
1747550227.3707469,0.03,0.1,-0.39,0.004363323129985824,0.002181661564992912,0.0,-0.00992639153849438,0.1022135448080068,-0.0005077773874227039,0,0,0,0,0,0,1500,1500,1500,1500,1500,1500
1747550227.4687676,0.05,0.2,-0.24,0.004363323129985824,0.001090830782496456,-0.007635815477475192,-0.009920122990566473,0.10221415147138659,-0.0003852313682083241,0,0,0,0,0,0,1500,1500,1500,1500,1500,1500
1747550227.4709177,0.05,0.2,-0.24,0.004363323129985824,0.001090830782496456,-0.007635815477475192,-0.009920122990566473,0.10221415147138659,-0.0003852313682083241,0,0,0,0,0,0,1500,1500,1500,1500,1500,1500
1747550227.5635061,0.03,0.12,-0.36,0.003272492347489368,-0.001090830782496456,-0.001090830782496456,-0.009920122990566473,0.10221415147138659,-0.0003852313682083241,0,11.489325,0,0,0,0.005907,1540,1540,1540,1500,1500,1500
1747550227.5672235,0.03,0.12,-0.36,0.003272492347489368,-0.001090830782496456,-0.001090830782496456,-0.009920122990566473,0.10221415147138659,-0.0003852313682083241,0,11.489325,0,0,0,0.005907,1575,1573,1564,1500,1500,1500
1747550227.651216,0.03,0.12,-0.36,0.003272492347489368,-0.001090830782496456,-0.001090830782496456,-0.009920122990566473,0.10221415147138659,-0.0003852313682083241,0,12.5,0,0,0,0.010917,1577,1576,1567,1500,1500,1500
1747550227.6546924,0.03,0.12,-0.36,0.003272492347489368,-0.001090830782496456,-0.001090830782496456,-0.009920122990566473,0.10221415147138659,-0.0003852313682083241,0,12.5,0,0,0,0.010917,1577,1576,1567,1500,1500,1500
1747550227.7525785,0.11,-0.08,-0.37,-0.00545415391248228,0.004363323129985824,0.002181661564992912,-0.009920122990566473,0.10221415147138659,-0.0003852313682083241,0,12.5,0,0,0,0.010917,1577,1576,1567,1500,1500,1500
1747550227.7558756,0.11,-0.08,-0.37,-0.00545415391248228,0.004363323129985824,0.002181661564992912,-0.009920122990566473,0.10221415147138659,-0.0003852313682083241,0,12.5,0,0,0,0.010917,1577,1576,1567,1500,1500,1500
1747550227.851391,0.11,-0.08,-0.37,-0.00545415391248228,0.004363323129985824,0.002181661564992912,-0.009920122990566473,0.10221415147138659,-0.0003852313682083241,0,12.5,0,0,0,0.010917,1577,1576,1567,1500,1500,1500
1747550227.8586621,0.11,-0.08,-0.37,-0.00545415391248228,0.004363323129985824,0.002181661564992912,-0.009920122990566473,0.10221415147138659,-0.0003852313682083241,0,12.5,0,0,0,0.010917,1577,1576,1567,1500,1500,1500
1747550227.951485,0.1,0.12,-0.36,0.009817477042468103,-0.001090830782496456,-0.002181661564992912,-0.009913854441858924,0.10221475813480412,-0.0002626853395226932,0,12.5,0,0,0,0.010917,1577,1576,1567,1500,1500,1500
1747550227.9560287,0.1,0.12,-0.36,0.009817477042468103,-0.001090830782496456,-0.002181661564992912,-0.009913854441858924,0.10221475813480412,-0.0002626853395226932,0,12.5,0,0,0,0.010917,1577,1576,1567,1500,1500,1500
1747550228.052633,0.03,0.01,-0.36,-0.002181661564992912,0.0,0.001090830782496456,-0.009913854441858924,0.10221475813480412,-0.0002626853395226932,0,12.5,0,0,0,0.010917,1577,1576,1567,1500,1500,1500
1747550228.0567772,0.03,0.01,-0.36,-0.002181661564992912,0.0,0.001090830782496456,-0.009913854441858924,0.10221475813480412,-0.0002626853395226932,0,12.5,0,0,0,0.010917,1577,1576,1567,1500,1500,1500
1747550228.1518252,0.03,0.01,-0.36,-0.002181661564992912,0.0,0.001090830782496456,-0.009913854441858924,0.10221475813480412,-0.0002626853395226932,0,12.5,0,0,0,0.010917,1577,1576,1567,1500,1500,1500
1747550228.1560133,0.03,0.01,-0.36,-0.002181661564992912,0.0,0.001090830782496456,-0.009913854441858924,0.10221475813480412,-0.0002626853395226932,0,12.5,0,0,0,0.010917,1577,1576,1567,1500,1500,1500
1747550228.2512565,0.08,0.03,-0.29,-0.004363323129985824,-0.00545415391248228,0.003272492347489368,-0.009913854441858924,0.10221475813480412,-0.0002626853395226932,0,12.5,0,0,0,0.010917,1577,1576,1567,1500,1500,1500
1747550228.2552,0.08,0.03,-0.29,-0.004363323129985824,-0.00545415391248228,0.003272492347489368,-0.009913854441858924,0.10221475813480412,-0.0002626853395226932,0,12.5,0,0,0,0.010917,1577,1576,1567,1500,1500,1500
1747550228.3698275,0.08,0.03,-0.29,-0.004363323129985824,-0.00545415391248228,0.003272492347489368,-0.009913854441858924,0.10221475813480412,-0.0002626853395226932,0,12.5,0,0,0,0.010917,1577,1576,1567,1500,1500,1500
1747550228.412489,0.08,0.03,-0.29,-0.004363323129985824,-0.00545415391248228,0.003272492347489368,-0.009913854441858924,0.10221475813480412,-0.0002626853395226932,0,12.5,0,0,0,0.010917,1577,1576,1567,1500,1500,1500
1747550228.486753,0.02,0.05,-0.32,0.0,0.002181661564992912,0.0,-0.009913854441858924,0.10221475813480412,-0.0002626853395226932,0,0,0,0,0,0,1537,1536,1527,1500,1500,1500
1747550228.5087428,0.02,0.05,-0.32,0.0,0.002181661564992912,0.0,-0.009913854441858924,0.10221475813480412,-0.0002626853395226932,0,0,0,0,0,0,1500,1500,1500,1500,1500,1500
1747550228.5829837,0.09,0.03,-0.34,-0.002181661564992912,0.001090830782496456,0.001090830782496456,-0.009913854441858924,0.10221475813480412,-0.0002626853395226932,0,0,0,0,0,0,1500,1500,1500,1500,1500,1500
1747550228.6180115,0.09,0.03,-0.34,-0.002181661564992912,0.001090830782496456,0.001090830782496456,-0.009913854441858924,0.10221475813480412,-0.0002626853395226932,0,0,0,0,0,0,1500,1500,1500,1500,1500,1500
1747550228.6701183,0.09,0.03,-0.34,-0.002181661564992912,0.001090830782496456,0.001090830782496456,-0.009913854441858924,0.10221475813480412,-0.0002626853395226932,0,0,0,0,0,0,1500,1500,1500,1500,1500,1500
1747550228.7198145,-0.13,0.0,-0.52,-0.004363323129985824,0.0,0.006544984694978736,-0.010042675110084007,0.10221415896105818,-0.00039150022448336736,0,0,0,0,0,0,1500,1500,1500,1500,1500,1500
1747550228.769547,-0.13,0.0,-0.52,-0.004363323129985824,0.0,0.006544984694978736,-0.010042675110084007,0.10221415896105818,-0.00039150022448336736,0,0,0,0,0,0,1500,1500,1500,1500,1500,1500
1747550228.8192008,-0.13,0.0,-0.52,-0.004363323129985824,0.0,0.006544984694978736,-0.010042675110084007,0.10221415896105818,-0.00039150022448336736,0,0,0,0,0,0,1500,1500,1500,1500,1500,1500
1747550228.870709,-0.04,0.18,-0.36,0.001090830782496456,0.001090830782496456,0.002181661564992912,-0.010158958846181164,0.10221478809349238,-0.0002752230533384722,0,0,0,0,0,0,1500,1500,1500,1500,1500,1500
1747550228.903306,-0.04,0.18,-0.36,0.001090830782496456,0.001090830782496456,0.002181661564992912,-0.010158958846181164,0.10221478809349238,-0.0002752230533384722,0,0,0,0,0,0,1500,1500,1500,1500,1500,1500
1747550228.9701715,-0.04,0.18,-0.36,0.001090830782496456,0.001090830782496456,0.002181661564992912,-0.010158958846181164,0.10221478809349238,-0.0002752230533384722,0,0,0,0,0,0,1500,1500,1500,1500,1500,1500
1747550229.0025508,0.04,0.0,-0.34,-0.002181661564992912,0.0,-0.001090830782496456,-0.010158958846181164,0.10221478809349238,-0.0002752230533384722,0,0,0,0,0,0,1500,1500,1500,1500,1500,1500
1747550229.0669415,0.04,0.0,-0.34,-0.002181661564992912,0.0,-0.001090830782496456,-0.010158958846181164,0.10221478809349238,-0.0002752230533384722,0,0,0,0,0,0,1500,1500,1500,1500,1500,1500
1747550229.1026428,0.04,0.0,-0.34,-0.002181661564992912,0.0,-0.001090830782496456,-0.010158958846181164,0.10221478809349238,-0.0002752230533384722,0,0,0,0,0,0,1500,1500,1500,1500,1500,1500
1747550229.1513624,0.01,0.05,-0.35000000000000003,0.0,0.003272492347489368,0.001090830782496456,-0.010158958846181164,0.10221478809349238,-0.0002752230533384722,0,0,0,0,0,0,1500,1500,1500,1500,1500,1500
1747550229.203857,0.01,0.05,-0.35000000000000003,0.0,0.003272492347489368,0.001090830782496456,-0.010158958846181164,0.10221478809349238,-0.0002752230533384722,0,0,0,0,0,0,1500,1500,1500,1500,1500,1500
1747550229.254628,0.01,0.05,-0.35000000000000003,0.0,0.003272492347489368,0.001090830782496456,-0.010158958846181164,0.10221478809349238,-0.0002752230533384722,0,0,0,0,0,0,1500,1500,1500,1500,1500,1500
1747550229.30278,0.02,0.02,-0.31,0.0,0.003272492347489368,0.0,-0.010158958846181164,0.10221478809349238,-0.0002752230533384722,0,0,0,0,0,0,1500,1500,1500,1500,1500,1500
1747550229.350902,0.02,0.02,-0.31,0.0,0.003272492347489368,0.0,-0.010158958846181164,0.10221478809349238,-0.0002752230533384722,0,0,0,0,0,0,1500,1500,1500,1500,1500,1500
1747550229.3859575,0.02,0.02,-0.31,0.0,0.003272492347489368,0.0,-0.010158958846181164,0.10221478809349238,-0.0002752230533384722,0,0,0,0,0,0,1500,1500,1500,1500,1500,1500
1747550229.4524193,0.02,0.02,-0.31,0.0,0.003272492347489368,0.0,-0.010158958846181164,0.10221478809349238,-0.0002752230533384722,0,0,0,0,0,0,1500,1500,1500,1500,1500,1500
1747550229.48683,0.03,0.01,-0.32,-0.002181661564992912,0.001090830782496456,-0.001090830782496456,-0.010158958846181164,0.10221478809349238,-0.0002752230533384722,0,0,0,0,0,0,1500,1500,1500,1500,1500,1500
1747550229.5515587,0.03,0.01,-0.32,-0.002181661564992912,0.001090830782496456,-0.001090830782496456,-0.010158958846181164,0.10221478809349238,-0.0002752230533384722,0,0,0,0,0,0,1500,1500,1500,1500,1500,1500
1747550229.5844812,0.03,0.01,-0.32,-0.002181661564992912,0.001090830782496456,-0.001090830782496456,-0.010158958846181164,0.10221478809349238,-0.0002752230533384722,0,0,0,0,0,0,1500,1500,1500,1500,1500,1500
1747550229.6361122,0.06,0.03,-0.39,0.001090830782496456,-0.003272492347489368,-0.002181661564992912,-0.010158958846181164,0.10221478809349238,-0.0002752230533384722,0,0,0,0,0,0,1500,1500,1500,1500,1500,1500
1747550229.6861703,0.06,0.03,-0.39,0.001090830782496456,-0.003272492347489368,-0.002181661564992912,-0.010158958846181164,0.10221478809349238,-0.0002752230533384722,0,0,0,0,0,0,1500,1500,1500,1500,1500,1500
1747550229.7355206,0.06,0.03,-0.39,0.001090830782496456,-0.003272492347489368,-0.002181661564992912,-0.010158958846181164,0.10221478809349238,-0.0002752230533384722,0,0,0,0,0,0,1500,1500,1500,1500,1500,1500
1747550229.7824388,0.03,0.01,-0.34,0.0,-0.002181661564992912,-0.001090830782496456,-0.010158958846181164,0.10221478809349238,-0.0002752230533384722,0,0,0,0,0,0,1500,1500,1500,1500,1500,1500
1747550229.8369513,0.03,0.01,-0.34,0.0,-0.002181661564992912,-0.001090830782496456,-0.010158958846181164,0.10221478809349238,-0.0002752230533384722,0,0,0,0,0,0,1500,1500,1500,1500,1500,1500
1747550229.887476,0.03,0.01,-0.34,0.0,-0.002181661564992912,-0.001090830782496456,-0.010158958846181164,0.10221478809349238,-0.0002752230533384722,0,0,0,0,0,0,1500,1500,1500,1500,1500,1500
1747550229.970922,0.03,0.01,-0.34,0.0,-0.002181661564992912,-0.001090830782496456,-0.010158958846181164,0.10221478809349238,-0.0002752230533384722,0,-0.070916,0,0,0,0,1500,1500,1500,1500,1500,1500
1747550229.9844067,0.04,0.02,-0.33,-0.001090830782496456,0.003272492347489368,0.0,-0.010158958846181164,0.10221478809349238,-0.0002752230533384722,0,-8.037135,0,0,0,-0.000811,1460,1460,1460,1500,1500,1500
1747550230.0697808,0.04,0.02,-0.33,-0.001090830782496456,0.003272492347489368,0.0,-0.010158958846181164,0.10221478809349238,-0.0002752230533384722,0,-12.5,0,0,0,-0.01399,1420,1420,1420,1500,1500,1500
1747550230.0780199,0.04,0.02,-0.33,-0.001090830782496456,0.003272492347489368,0.0,-0.010158958846181164,0.10221478809349238,-0.0002752230533384722,0,-12.5,0,0,0,-0.01399,1380,1380,1380,1500,1500,1500
1747550230.1691966,0.04,0.01,-0.39,0.001090830782496456,0.002181661564992912,-0.001090830782496456,-0.010158958846181164,0.10221478809349238,-0.0002752230533384722,0,-12.5,0,0,0,-0.015672,1345,1349,1372,1500,1500,1500
1747550230.1729302,0.04,0.01,-0.39,0.001090830782496456,0.002181661564992912,-0.001090830782496456,-0.010158958846181164,0.10221478809349238,-0.0002752230533384722,0,-12.5,0,0,0,-0.015672,1345,1349,1372,1500,1500,1500
1747550230.2693954,0.03,0.02,-0.27,0.004363323129985824,-0.001090830782496456,0.001090830782496456,-0.010158958846181164,0.10221478809349238,-0.0002752230533384722,0,-12.5,0,0,0,-0.015672,1345,1349,1372,1500,1500,1500
1747550230.2731755,0.03,0.02,-0.27,0.004363323129985824,-0.001090830782496456,0.001090830782496456,-0.010158958846181164,0.10221478809349238,-0.0002752230533384722,0,-12.5,0,0,0,-0.015672,1345,1349,1372,1500,1500,1500
1747550230.3667996,0.03,0.02,-0.27,0.004363323129985824,-0.001090830782496456,0.001090830782496456,-0.010158958846181164,0.10221478809349238,-0.0002752230533384722,0,-12.5,0,0,0,-0.015672,1345,1349,1372,1500,1500,1500
1747550230.3713174,0.03,0.02,-0.27,0.004363323129985824,-0.001090830782496456,0.001090830782496456,-0.010158958846181164,0.10221478809349238,-0.0002752230533384722,0,-12.5,0,0,0,-0.015672,1345,1349,1372,1500,1500,1500
1747550230.4682124,-0.22,0.53,-0.65,0.0,0.004363323129985824,0.014180800172453928,-0.010017689166614505,0.10233916238167474,9.807104028321504e-05,0,-12.5,0,0,0,-0.015672,1345,1349,1372,1500,1500,1500
1747550230.4712718,-0.22,0.53,-0.65,0.0,0.004363323129985824,0.014180800172453928,-0.010017689166614505,0.10233916238167474,9.807104028321504e-05,0,-12.5,0,0,0,-0.015672,1345,1349,1372,1500,1500,1500
1747550230.5722737,-0.11,0.35000000000000003,-0.46,-0.007635815477475192,0.002181661564992912,0.011999138607461015,-0.009779043950001747,0.10258358653049071,-1.3122404953787538e-05,0,-12.5,0,0,0,-0.015672,1345,1349,1372,1500,1500,1500
1747550230.5769827,-0.11,0.35000000000000003,-0.46,-0.007635815477475192,0.002181661564992912,0.011999138607461015,-0.009779043950001747,0.10258358653049071,-1.3122404953787538e-05,0,-12.5,0,0,0,-0.015672,1345,1349,1372,1500,1500,1500
1747550230.6680713,-0.11,0.35000000000000003,-0.46,-0.007635815477475192,0.002181661564992912,0.011999138607461015,-0.009779043950001747,0.10258358653049071,-1.3122404953787538e-05,0,-12.5,0,0,0,-0.015672,1345,1349,1372,1500,1500,1500
1747550230.6713955,-0.11,0.35000000000000003,-0.46,-0.007635815477475192,0.002181661564992912,0.011999138607461015,-0.009779043950001747,0.10258358653049071,-1.3122404953787538e-05,0,-12.5,0,0,0,-0.015672,1345,1349,1372,1500,1500,1500
1747550230.7693968,0.02,0.12,-0.41000000000000003,0.003272492347489368,0.00545415391248228,-0.001090830782496456,-0.009546408646911394,0.10245980830724417,-0.00024505330991944277,0,-12.5,0,0,0,-0.015672,1345,1349,1372,1500,1500,1500
1747550230.7732408,0.02,0.12,-0.41000000000000003,0.003272492347489368,0.00545415391248228,-0.001090830782496456,-0.009546408646911394,0.10245980830724417,-0.00024505330991944277,0,-12.5,0,0,0,-0.015672,1345,1349,1372,1500,1500,1500
1747550230.8687644,0.02,0.12,-0.41000000000000003,0.003272492347489368,0.00545415391248228,-0.001090830782496456,-0.009546408646911394,0.10245980830724417,-0.00024505330991944277,0,-12.5,0,0,0,-0.015672,1345,1349,1372,1500,1500,1500
1747550230.8748708,0.02,0.12,-0.41000000000000003,0.003272492347489368,0.00545415391248228,-0.001090830782496456,-0.009546408646911394,0.10245980830724417,-0.00024505330991944277,0,-12.5,0,0,0,-0.015672,1345,1349,1372,1500,1500,1500
1747550230.969137,0.06,0.01,-0.24,0.003272492347489368,0.001090830782496456,0.0,-0.00942385402450139,0.10245979332752311,-0.0002387693158151175,0,-12.5,0,0,0,-0.015672,1345,1349,1372,1500,1500,1500
1747550230.9729242,0.06,0.01,-0.24,0.003272492347489368,0.001090830782496456,0.0,-0.00942385402450139,0.10245979332752311,-0.0002387693158151175,0,-12.5,0,0,0,-0.015672,1345,1349,1372,1500,1500,1500
1747550231.0689752,0.04,0.01,-0.3,0.0,0.001090830782496456,-0.002181661564992912,-0.009301299542893165,0.10245977834780207,-0.00023248532169193486,0,-12.5,0,0,0,-0.015672,1345,1349,1372,1500,1500,1500
1747550231.0740783,0.04,0.01,-0.3,0.0,0.001090830782496456,-0.002181661564992912,-0.009301299542893165,0.10245977834780207,-0.00023248532169193486,0,-12.5,0,0,0,-0.015672,1345,1349,1372,1500,1500,1500
1747550231.151186,0.04,0.01,-0.3,0.0,0.001090830782496456,-0.002181661564992912,-0.009301299542893165,0.10245977834780207,-0.00023248532169193486,0,-6.319686,0,0,0,-0.001789,1385,1389,1411,1500,1500,1500
1747550231.1687803,0.04,0.01,-0.3,0.0,0.001090830782496456,-0.002181661564992912,-0.009301299542893165,0.10245977834780207,-0.00023248532169193486,0,-2.495869,0,0,0,-6e-05,1425,1429,1442,1500,1500,1500
1747550231.2522202,-0.03,0.11,-0.29,0.006544984694978736,0.001090830782496456,-0.1439896632895322,-0.009301299542893165,0.10245977834780207,-0.00023248532169193486,0,0,0,0,0,0,1465,1469,1482,1500,1500,1500
1747550231.2671976,-0.03,0.11,-0.29,0.006544984694978736,0.001090830782496456,-0.1439896632895322,-0.009301299542893165,0.10245977834780207,-0.00023248532169193486,0,0,0,0,0,0,1500,1500,1500,1500,1500,1500
1747550231.351014,-0.03,0.11,-0.29,0.006544984694978736,0.001090830782496456,-0.1439896632895322,-0.009301299542893165,0.10245977834780207,-0.00023248532169193486,0,0,0,0,0,0,1500,1500,1500,1500,1500,1500
1747550231.3559604,0.19,-0.46,-0.09,0.014180800172453928,0.001090830782496456,0.003272492347489368,-0.009423750638304336,0.10233724500133616,-0.0002381896046704002,0,0,0,0,0,0,1500,1500,1500,1500,1500,1500
1747550231.451033,0.19,-0.46,-0.09,0.014180800172453928,0.001090830782496456,0.003272492347489368,-0.009423750638304336,0.10233724500133616,-0.0002381896046704002,0,0,0,0,0,0,1500,1500,1500,1500,1500,1500
1747550231.4526434,0.19,-0.46,-0.09,0.014180800172453928,0.001090830782496456,0.003272492347489368,-0.009423750638304336,0.10233724500133616,-0.0002381896046704002,0,0,0,0,0,0,1500,1500,1500,1500,1500,1500
1747550231.5504618,0.05,-0.17,-0.31,-0.003272492347489368,-0.00545415391248228,-0.008726646259971648,-0.010539021559468736,0.10209099957896776,-0.0005384708057604345,0,0,0,0,0,0,1500,1500,1500,1500,1500,1500
1747550231.5542126,0.05,-0.17,-0.31,-0.003272492347489368,-0.00545415391248228,-0.008726646259971648,-0.010539021559468736,0.10209099957896776,-0.0005384708057604345,0,0,0,0,0,0,1500,1500,1500,1500,1500,1500
1747550231.6356473,0.05,-0.17,-0.31,-0.003272492347489368,-0.00545415391248228,-0.008726646259971648,-0.010539021559468736,0.10209099957896776,-0.0005384708057604345,0,0,0,0,0,0,1500,1500,1500,1500,1500,1500
1747550231.6689808,0.05,-0.17,-0.31,-0.003272492347489368,-0.00545415391248228,-0.008726646259971648,-0.010539021559468736,0.10209099957896776,-0.0005384708057604345,0,0,0,0,0,0,1500,1500,1500,1500,1500,1500
1747550231.73534,0.07,0.01,-0.34,0.009817477042468103,0.00545415391248228,-0.004363323129985824,-0.010416470373228131,0.10209099957896776,-0.0005322095185106418,0,0,0,0,0,0,1500,1500,1500,1500,1500,1500
1747550231.7689362,0.07,0.01,-0.34,0.009817477042468103,0.00545415391248228,-0.004363323129985824,-0.010416470373228131,0.10209099957896776,-0.0005322095185106418,0,0,0,0,0,0,1500,1500,1500,1500,1500,1500
1747550231.8303134,0.03,0.04,-0.35000000000000003,0.0,0.0,-0.002181661564992912,-0.010293919342206163,0.10209099957896776,-0.00052594823121912,0,0,0,0,0,0,1500,1500,1500,1500,1500,1500
1747550231.8665192,0.03,0.04,-0.35000000000000003,0.0,0.0,-0.002181661564992912,-0.010293919342206163,0.10209099957896776,-0.00052594823121912,0,0,0,0,0,0,1500,1500,1500,1500,1500,1500
1747550231.9193747,0.03,0.04,-0.35000000000000003,0.0,0.0,-0.002181661564992912,-0.010293919342206163,0.10209099957896776,-0.00052594823121912,0,0,0,0,0,0,1500,1500,1500,1500,1500,1500
1747550231.9698417,0.03,0.04,-0.35000000000000003,0.0,0.0,-0.002181661564992912,-0.010293919342206163,0.10209099957896776,-0.00052594823121912,0,0,0,0,0,0,1500,1500,1500,1500,1500,1500
1747550232.0191221,0.05,0.0,-0.32,-0.002181661564992912,0.0,-0.001090830782496456,-0.010293919342206163,0.10209099957896776,-0.00052594823121912,0,0,0,0,0,0,1500,1500,1500,1500,1500,1500
1747550232.0690491,0.05,0.0,-0.32,-0.002181661564992912,0.0,-0.001090830782496456,-0.010293919342206163,0.10209099957896776,-0.00052594823121912,0,0,0,0,0,0,1500,1500,1500,1500,1500,1500
1747550232.1171286,0.05,0.0,-0.32,-0.002181661564992912,0.0,-0.001090830782496456,-0.010293919342206163,0.10209099957896776,-0.00052594823121912,0,0,0,0,0,0,1500,1500,1500,1500,1500,1500
1747550232.1692083,0.03,0.04,-0.33,0.002181661564992912,-0.001090830782496456,0.0,-0.01029379051679934,0.10196845588839268,-0.0005253125323248126,0,0,0,0,0,0,1500,1500,1500,1500,1500,1500
1747550232.220381,0.03,0.04,-0.33,0.002181661564992912,-0.001090830782496456,0.0,-0.01029379051679934,0.10196845588839268,-0.0005253125323248126,0,0,0,0,0,0,1500,1500,1500,1500,1500,1500
1747550232.2698808,0.03,0.04,-0.33,0.002181661564992912,-0.001090830782496456,0.0,-0.01029379051679934,0.10196845588839268,-0.0005253125323248126,0,0,0,0,0,0,1500,1500,1500,1500,1500,1500
1747550232.3189924,0.01,0.02,-0.3,-0.003272492347489368,0.001090830782496456,0.0,-0.010171241172805271,0.10196845588839268,-0.0005190588128319249,0,0,0,0,0,0,1500,1500,1500,1500,1500,1500
1747550232.37051,0.01,0.02,-0.3,-0.003272492347489368,0.001090830782496456,0.0,-0.010171241172805271,0.10196845588839268,-0.0005190588128319249,0,0,0,0,0,0,1500,1500,1500,1500,1500,1500
1747550232.4038887,0.01,0.02,-0.3,-0.003272492347489368,0.001090830782496456,0.0,-0.010171241172805271,0.10196845588839268,-0.0005190588128319249,0,0,0,0,0,0,1500,1500,1500,1500,1500,1500
1747550232.4699109,0.02,0.02,-0.29,-0.001090830782496456,-0.002181661564992912,0.0,-0.010171241172805271,0.10196845588839268,-0.0005190588128319249,0,0,0,0,0,0,1500,1500,1500,1500,1500,1500
1747550232.5031242,0.02,0.02,-0.29,-0.001090830782496456,-0.002181661564992912,0.0,-0.010171241172805271,0.10196845588839268,-0.0005190588128319249,0,0,0,0,0,0,1500,1500,1500,1500,1500,1500
1747550232.5710142,0.02,0.02,-0.29,-0.001090830782496456,-0.002181661564992912,0.0,-0.010171241172805271,0.10196845588839268,-0.0005190588128319249,0,0,0,0,0,0,1500,1500,1500,1500,1500,1500
1747550232.6032,0.02,0.02,-0.29,-0.001090830782496456,-0.002181661564992912,0.0,-0.010171241172805271,0.10196845588839268,-0.0005190588128319249,0,0,0,0,0,0,1500,1500,1500,1500,1500,1500
1747550232.668937,0.04,0.05,-0.34,0.001090830782496456,-0.001090830782496456,0.001090830782496456,-0.010171241172805271,0.10196845588839268,-0.0005190588128319249,0,0,0,0,0,0,1500,1500,1500,1500,1500,1500
1747550232.7023487,0.04,0.05,-0.34,0.001090830782496456,-0.001090830782496456,0.001090830782496456,-0.010171241172805271,0.10196845588839268,-0.0005190588128319249,0,0,0,0,0,0,1500,1500,1500,1500,1500,1500
1747550232.7667952,0.04,0.05,-0.34,0.001090830782496456,-0.001090830782496456,0.001090830782496456,-0.010171241172805271,0.10196845588839268,-0.0005190588128319249,0,0,0,0,0,0,1500,1500,1500,1500,1500,1500
1747550232.8016384,0.05,0.01,-0.32,-0.001090830782496456,-0.003272492347489368,0.0,-0.010171241172805271,0.10196845588839268,-0.0005190588128319249,0,0,0,0,0,0,1500,1500,1500,1500,1500,1500
1747550232.8689055,0.05,0.01,-0.32,-0.001090830782496456,-0.003272492347489368,0.0,-0.010171241172805271,0.10196845588839268,-0.0005190588128319249,0,0,0,0,0,0,1500,1500,1500,1500,1500,1500
1747550232.8958075,0.05,0.01,-0.32,-0.001090830782496456,-0.003272492347489368,0.0,-0.010171241172805271,0.10196845588839268,-0.0005190588128319249,0,0,0,0,0,0,1500,1500,1500,1500,1500,1500
1747550232.9669867,0.02,0.03,-0.39,-0.003272492347489368,0.002181661564992912,0.002181661564992912,-0.010171241172805271,0.10196845588839268,-0.0005190588128319249,0,-11.888463,0,0,0,-0.003971,1460,1460,1460,1500,1500,1500
1747550232.9844346,0.02,0.03,-0.39,-0.003272492347489368,0.002181661564992912,0.002181661564992912,-0.010171241172805271,0.10196845588839268,-0.0005190588128319249,0,-12.5,0,0,0,-0.003971,1420,1420,1420,1500,1500,1500
1747550233.0852504,0.02,0.03,-0.39,-0.003272492347489368,0.002181661564992912,0.002181661564992912,-0.010171241172805271,0.10196845588839268,-0.0005190588128319249,0,-12.5,0,0,0,-0.003971,1380,1380,1380,1500,1500,1500
1747550233.1860833,0.03,0.02,-0.33,-0.003272492347489368,0.001090830782496456,0.003272492347489368,0.010198591351354933,-0.10224362337363768,-0.0005190588128319249,0,-12.5,0,0,0,-0.003971,1340,1340,1340,1500,1500,1500
1747550233.2855518,1.3900000000000001,0.56,-0.68,0.014180800172453928,0.01090830782496456,-0.003272492347489368,-0.010287658385341639,0.10209162870345921,-0.0004034037496797978,0,-12.5,0,0,0,-0.003971,1300,1300,1300,1500,1500,1500
1747550233.3847687,1.3900000000000001,0.56,-0.68,0.014180800172453928,0.01090830782496456,-0.003272492347489368,-0.010287658385341639,0.10209162870345921,-0.0004034037496797978,0,-12.5,0,0,0,-0.003971,1260,1260,1295,1500,1500,1500
1747550233.48469,0.06,-1.98,-0.36,-0.007635815477475192,-0.002181661564992912,0.016362461737446838,-0.009920006182011934,0.10209160623472667,-0.00038461988532308367,0,-12.5,0,0,0,-0.003971,1250,1256,1295,1500,1500,1500
1747550233.5867727,-0.12,-0.92,0.0,0.015271630954950384,-0.001090830782496456,0.00545415391248228,-0.010294034044866186,0.10160706504639712,-0.000523405578143195,0,-12.5,0,0,0,-0.003971,1250,1256,1295,1500,1500,1500
1747550233.686902,-0.12,-0.92,0.0,0.015271630954950384,-0.001090830782496456,0.00545415391248228,-0.010294034044866186,0.10160706504639712,-0.000523405578143195,0,-12.5,0,0,0,-0.003971,1250,1256,1295,1500,1500,1500
1747550233.785083,-0.55,-0.01,-0.34,-0.009817477042468103,-0.001090830782496456,0.006544984694978736,-0.010416456710678243,0.10148451992378742,-0.0005289934250706249,0,-12.5,0,0,0,-0.003971,1250,1256,1295,1500,1500,1500
1747550233.8847551,-0.55,-0.01,-0.34,-0.009817477042468103,-0.001090830782496456,0.006544984694978736,-0.010416456710678243,0.10148451992378742,-0.0005289934250706249,0,-12.5,0,0,0,-0.003971,1250,1256,1295,1500,1500,1500
1747550233.984605,-0.36,1.3900000000000001,-0.75,0.003272492347489368,-0.009817477042468103,-0.004363323129985824,-0.010416456710678243,0.10148451992378742,-0.0005289934250706249,0,-12.5,0,0,0,-0.003971,1250,1256,1295,1500,1500,1500
1747550234.0855772,1.94,0.58,-0.54,-0.007635815477475192,0.011999138607461015,0.006544984694978736,-0.010533032169404141,0.10173025578000584,-0.0004139710007622089,0,-12.5,0,0,0,-0.003971,1250,1256,1295,1500,1500,1500
1747550234.1845696,1.94,0.58,-0.54,-0.007635815477475192,0.011999138607461015,0.006544984694978736,-0.010533032169404141,0.10173025578000584,-0.0004139710007622089,0,-12.5,0,0,0,-0.003971,1250,1256,1295,1500,1500,1500
1747550234.2855234,0.73,0.6900000000000001,-0.48,0.0,0.006544984694978736,-0.00545415391248228,-0.010294034044866186,0.10160706504639712,-0.000523405578143195,0,-12.5,0,0,0,-0.003971,1250,1256,1295,1500,1500,1500
1747550234.3825603,0.99,1.16,-0.74,-0.006544984694978736,0.02399827721492203,-0.00545415391248228,-0.01041671632975703,0.10172961170016323,-0.0005302797904371977,0,-12.5,0,0,0,-0.019321,1250,1256,1295,1500,1500,1500
1747550234.4831367,0.99,1.16,-0.74,-0.006544984694978736,0.02399827721492203,-0.00545415391248228,-0.01041671632975703,0.10172961170016323,-0.0005302797904371977,0,-12.5,0,0,0,-0.019321,1250,1256,1295,1500,1500,1500
1747550234.5827265,-0.84,-0.18,-0.24,0.016362461737446838,0.026179938779914945,-0.014180800172453928,-0.01053315618097337,0.10185280397488859,-0.00041462025679338987,0,-12.5,0,0,0,-0.052349,1250,1256,1295,1500,1500,1500
1747550234.6823726,-0.84,-0.18,-0.24,0.016362461737446838,0.026179938779914945,-0.014180800172453928,-0.01053315618097337,0.10185280397488859,-0.00041462025679338987,0,-12.5,0,0,0,-0.021289,1250,1256,1295,1500,1500,1500
1747550234.781511,-0.4,-0.91,-0.06,0.017453292519943295,-0.008726646259971648,-0.014180800172453928,-0.010526561521491775,0.10148580805132519,-0.0002901282259178087,0,-12.5,0,0,0,-0.012403,1250,1256,1295,1500,1500,1500
1747550234.881522,1.2,1.04,-0.77,-0.003272492347489368,-0.02181661564992912,0.011999138607461015,-0.010636564162998201,0.1013645825096376,-5.06107999689977e-05,0,-12.5,0,0,0,-0.037737,1250,1256,1295,1500,1500,1500
1747550234.9660988,1.2,1.04,-0.77,-0.003272492347489368,-0.02181661564992912,0.011999138607461015,-0.010636564162998201,0.1013645825096376,-5.06107999689977e-05,0,-12.5,0,0,0,-0.055557,1250,1256,1295,1500,1500,1500
1747550235.0654464,-0.78,-1.27,0.01,-0.017453292519943295,-0.014180800172453928,0.02399827721492203,-0.01087564434421436,0.10161039774390784,5.816867349519018e-05,0,-12.5,0,0,0,-0.058861,1250,1256,1295,1500,1500,1500
1747550235.155149,0.42,0.35000000000000003,-0.52,-0.008726646259971648,0.006544984694978736,0.017453292519943295,-0.01087564434421436,0.10161039774390784,5.816867349519018e-05,0,-12.5,0,0,0,-0.062261,1250,1256,1295,1500,1500,1500
1747550235.2525208,0.42,0.35000000000000003,-0.52,-0.008726646259971648,0.006544984694978736,0.017453292519943295,-0.01087564434421436,0.10161039774390784,5.816867349519018e-05,0,-12.5,0,0,0,-0.062261,1250,1256,1295,1500,1500,1500
1747550235.351333,1.25,-0.47000000000000003,-0.39,0.001090830782496456,0.007635815477475192,-0.006544984694978736,-0.01063025399943897,0.10124269194797691,7.258268890719521e-05,0,-12.5,0,0,0,-0.01399,1250,1256,1295,1500,1500,1500
1747550235.4796681,1.25,-0.47000000000000003,-0.39,0.001090830782496456,0.007635815477475192,-0.006544984694978736,-0.01063025399943897,0.10124269194797691,7.258268890719521e-05,0,-7.230915,0,0,0,-0.002421,1290,1296,1335,1500,1500,1500
1747550235.5892713,0.5700000000000001,0.15,-0.23,0.004363323129985824,-0.002181661564992912,-0.006544984694978736,-0.010623872388220292,0.10099826383011952,0.00019642223115273294,0,0,0,0,0,0,1330,1336,1375,1500,1500,1500
1747550235.6846673,-0.66,-0.11,-0.21,-0.001090830782496456,-0.019634954084936207,-0.006544984694978736,-0.009753491789394907,0.10063153939519402,0.0004866304727390802,0,0,0,0,0,0,1370,1376,1415,1500,1500,1500
1747550235.7854226,-0.66,-0.11,-0.21,-0.001090830782496456,-0.019634954084936207,-0.006544984694978736,-0.009753491789394907,0.10063153939519402,0.0004866304727390802,0,0.380276,0,0,0,0,1410,1416,1455,1500,1500,1500
1747550235.8839426,0.27,0.62,-0.31,-0.007635815477475192,-0.004363323129985824,0.01090830782496456,-0.010231622194916702,0.10136826710899725,0.0007032942343063264,0,12.5,0,0,0,0,1450,1456,1495,1500,1500,1500
1747550235.985533,-0.13,0.03,-0.52,-0.002181661564992912,0.001090830782496456,-0.004363323129985824,-0.010108921256843642,0.10100057036328283,0.0007113484063524465,0,12.5,0,0,0,6.1e-05,1490,1496,1535,1500,1500,1500
1747550236.0875082,-0.13,0.03,-0.52,-0.002181661564992912,0.001090830782496456,-0.004363323129985824,-0.010108921256843642,0.10100057036328283,0.0007113484063524465,0,12.5,0,0,0,6.1e-05,1530,1536,1575,1500,1500,1500
1747550236.1853404,-0.14,0.18,-0.38,0.003272492347489368,-0.002181661564992912,-0.00545415391248228,-0.00998647462221687,0.10124557518602344,0.0007163312096096127,0,12.5,0,0,0,6.1e-05,1570,1576,1615,1500,1500,1500
1747550236.2863858,0.04,0.43,-0.44,-0.00545415391248228,0.0,0.002181661564992912,-0.009741379883570132,0.10124542540740282,0.0007287478525299824,0,12.5,0,0,0,6.1e-05,1610,1616,1655,1500,1500,1500
1747550236.3851526,0.04,0.43,-0.44,-0.00545415391248228,0.0,0.002181661564992912,-0.009741379883570132,0.10124542540740282,0.0007287478525299824,0,12.5,0,0,0,6.1e-05,1650,1656,1677,1500,1500,1500
1747550236.4852178,0.16,-0.61,-0.34,-0.004363323129985824,-0.003272492347489368,-0.008726646259971648,-0.009238800958844136,0.10136880631877547,0.0009981073111053147,0,12.5,0,0,0,6.1e-05,1690,1696,1677,1500,1500,1500
1747550236.5842211,0.16,-0.61,-0.34,-0.004363323129985824,-0.003272492347489368,-0.008726646259971648,-0.009238800958844136,0.10136880631877547,0.0009981073111053147,0,12.5,0,0,0,6.1e-05,1717,1711,1677,1500,1500,1500
1747550236.670005,-0.08,-0.17,-0.33,0.00545415391248228,0.004363323129985824,0.011999138607461015,-0.00887119813008122,0.1016136255935877,0.0010156868580163698,0,12.5,0,0,0,6.1e-05,1717,1711,1677,1500,1500,1500
1747550236.7693474,0.16,0.28,-0.42,-0.008726646259971648,0.00545415391248228,0.004363323129985824,-0.00948386964533052,0.10124644390206795,0.000986247427681029,0,12.5,0,0,0,6.1e-05,1717,1711,1677,1500,1500,1500
1747550236.867579,0.16,0.28,-0.42,-0.008726646259971648,0.00545415391248228,0.004363323129985824,-0.00948386964533052,0.10124644390206795,0.000986247427681029,0,12.5,0,0,0,6.1e-05,1717,1711,1677,1500,1500,1500
1747550236.968746,-0.73,0.12,-0.41000000000000003,0.002181661564992912,-0.002181661564992912,-0.002181661564992912,-0.009361244291581304,0.10087873672416549,0.0009941487255565556,0,12.5,0,0,0,6.1e-05,1717,1711,1677,1500,1500,1500
1747550237.061726,-0.22,-0.34,-0.1,-0.004363323129985824,0.001090830782496456,0.004363323129985824,-0.009851511134860757,0.1012467135036146,0.0009676224652158958,0,12.5,0,0,0,6.1e-05,1717,1711,1677,1500,1500,1500
1747550237.16959,-0.22,-0.34,-0.1,-0.004363323129985824,0.001090830782496456,0.004363323129985824,-0.009851511134860757,0.1012467135036146,0.0009676224652158958,0,12.5,0,0,0,6.1e-05,1717,1711,1677,1500,1500,1500
1747550237.268931,-0.08,-0.02,-0.46,-0.004363323129985824,0.002181661564992912,0.0,-0.010090426206928868,0.1013700569860138,0.0010771391359150118,0,12.5,0,0,0,0,1717,1711,1677,1500,1500,1500
1747550237.3699865,-0.08,-0.02,-0.46,-0.004363323129985824,0.002181661564992912,0.0,-0.010090426206928868,0.1013700569860138,0.0010771391359150118,0,12.5,0,0,0,0,1717,1711,1677,1500,1500,1500
1747550237.4687524,0.46,-0.7000000000000001,-0.06,-0.001090830782496456,0.004363323129985824,0.00545415391248228,-0.009967930494904551,0.10161504854389998,0.0010821537620261093,0,0.311685,0,0,0,0,1677,1671,1637,1500,1500,1500
1747550237.5683482,0.11,0.31,-0.5,-0.008726646259971648,-0.004363323129985824,0.001090830782496456,-0.008974502358169057,0.10246695363682373,0.0013732227239141432,0,0,0,0,0,0,1637,1631,1597,1500,1500,1500
1747550237.651131,0.11,0.31,-0.5,-0.008726646259971648,-0.004363323129985824,0.001090830782496456,-0.008974502358169057,0.10246695363682373,0.0013732227239141432,0,0,0,0,0,0,1597,1591,1557,1500,1500,1500
1747550237.7507904,-0.18,-0.42,-0.3,0.002181661564992912,-0.007635815477475192,-0.007635815477475192,-0.008846275013896773,0.10161581244362648,0.001505871369084434,0,0,0,0,0,0,1557,1551,1517,1500,1500,1500
1747550237.8487947,0.03,0.38,-0.19,-0.002181661564992912,0.0,-0.007635815477475192,-0.008846275013896773,0.10161581244362648,0.001505871369084434,0,0,0,0,0,0,1517,1511,1500,1500,1500,1500
1747550237.9347177,0.03,0.38,-0.19,-0.002181661564992912,0.0,-0.007635815477475192,-0.008846275013896773,0.10161581244362648,0.001505871369084434,0,0,0,0,0,0,1500,1500,1500,1500,1500,1500
1747550238.0346751,0.14,0.02,-0.25,0.001090830782496456,-0.001090830782496456,0.004363323129985824,-0.008582516595720402,0.10149462274255718,0.0018864803909366846,0,0,0,0,0,0,1500,1500,1500,1500,1500,1500
1747550238.135893,0.14,0.02,-0.25,0.001090830782496456,-0.001090830782496456,0.004363323129985824,-0.008582516595720402,0.10149462274255718,0.0018864803909366846,0,0,0,0,0,0,1500,1500,1500,1500,1500,1500
1747550238.2358017,0.0,0.0,-0.36,-0.003272492347489368,0.1407171709420428,0.001090830782496456,-0.008582516595720402,0.10149462274255718,0.0018864803909366846,0,0,0,0,0,0,1500,1500,1500,1500,1500,1500
1747550238.3360074,0.0,-0.01,-0.35000000000000003,-0.003272492347489368,0.002181661564992912,-0.003272492347489368,-0.008582516595720402,0.10149462274255718,0.0018864803909366846,0,0,0,0,0,0,1500,1500,1500,1500,1500,1500
1747550238.4360337,0.0,-0.01,-0.35000000000000003,-0.003272492347489368,0.002181661564992912,-0.003272492347489368,-0.008582516595720402,0.10149462274255718,0.0018864803909366846,0,0,0,0,0,0,1500,1500,1500,1500,1500,1500
1747550238.533883,0.03,0.04,-0.36,-0.001090830782496456,0.001090830782496456,0.001090830782496456,-0.008582516595720402,0.10149462274255718,0.0018864803909366846,0,0,0,0,0,0,1500,1500,1500,1500,1500,1500
1747550238.634638,0.03,0.04,-0.36,-0.001090830782496456,0.001090830782496456,0.001090830782496456,-0.008582516595720402,0.10149462274255718,0.0018864803909366846,0,0,0,0,0,0,1500,1500,1500,1500,1500,1500
1747550238.7353804,0.04,0.03,-0.3,0.0,0.004363323129985824,-0.001090830782496456,-0.008582516595720402,0.10149462274255718,0.0018864803909366846,0,0,0,0,0,0,1500,1500,1500,1500,1500,1500
1747550238.836215,0.02,0.01,-0.33,-0.002181661564992912,0.0,-0.001090830782496456,-0.008582516595720402,0.10149462274255718,0.0018864803909366846,0,0,0,0,0,0,1500,1500,1500,1500,1500,1500
1747550238.9355562,0.02,0.01,-0.33,-0.002181661564992912,0.0,-0.001090830782496456,-0.008582516595720402,0.10149462274255718,0.0018864803909366846,0,0,0,0,0,0,1500,1500,1500,1500,1500,1500
1747550239.036004,0.03,0.0,-0.32,-0.002181661564992912,0.002181661564992912,0.001090830782496456,-0.008582516595720402,0.10149462274255718,0.0018864803909366846,0,0,0,0,0,0,1500,1500,1500,1500,1500,1500
1747550239.133989,0.04,0.01,-0.34,0.0,0.0,0.001090830782496456,-0.008582516595720402,0.10149462274255718,0.0018864803909366846,0,0,0,0,0,0,1500,1500,1500,1500,1500,1500
1747550239.2329395,0.04,0.01,-0.34,0.0,0.0,0.001090830782496456,-0.008582516595720402,0.10149462274255718,0.0018864803909366846,0,0,0,0,0,0,1500,1500,1500,1500,1500,1500
1747550239.3350656,0.03,0.02,-0.3,0.001090830782496456,-0.002181661564992912,-0.001090830782496456,-0.008582516595720402,0.10149462274255718,0.0018864803909366846,0,0,0,0,0,0,1500,1500,1500,1500,1500,1500
1747550239.4343586,0.05,0.0,-0.36,0.0,0.002181661564992912,0.0,-0.008582516595720402,0.10149462274255718,0.0018864803909366846,0,0,0,0,0,0,1500,1500,1500,1500,1500,1500
1747550239.5350046,0.05,0.0,-0.36,0.0,0.002181661564992912,0.0,-0.008582516595720402,0.10149462274255718,0.0018864803909366846,0,0,0,0,0,0,1500,1500,1500,1500,1500,1500
1747550239.635301,0.02,0.0,-0.31,-0.001090830782496456,0.003272492347489368,0.0,-0.008582516595720402,0.10149462274255718,0.0018864803909366846,0,0,0,0,0,0,1500,1500,1500,1500,1500,1500
1747550239.7344227,0.02,0.0,-0.31,-0.001090830782496456,0.003272492347489368,0.0,-0.008582516595720402,0.10149462274255718,0.0018864803909366846,0,0,0,0,0,0,1500,1500,1500,1500,1500,1500
1747550239.8335242,0.06,0.02,-0.34,-0.002181661564992912,0.003272492347489368,0.001090830782496456,-0.008582516595720402,0.10149462274255718,0.0018864803909366846,0,0,0,0,0,0,1500,1500,1500,1500,1500,1500
1747550239.9183588,0.04,0.03,-0.32,-0.002181661564992912,-0.003272492347489368,0.0,-0.008582516595720402,0.10149462274255718,0.0018864803909366846,0,0,0,0,0,0,1500,1500,1500,1500,1500,1500
1747550240.0210478,0.04,0.03,-0.32,-0.002181661564992912,-0.003272492347489368,0.0,-0.008582516595720402,0.10149462274255718,0.0018864803909366846,0,0,0,0,0,0,1500,1500,1500,1500,1500,1500
1747550240.1179674,0.02,0.0,-0.33,-0.001090830782496456,-0.002181661564992912,0.001090830782496456,-0.008582516595720402,0.10149462274255718,0.0018864803909366846,0,0,0,0,0,0,1500,1500,1500,1500,1500,1500
1747550240.2138357,0.05,-0.01,-0.38,-0.001090830782496456,0.001090830782496456,0.002181661564992912,-0.008582516595720402,0.10149462274255718,0.0018864803909366846,0,0,0,0,0,0,1500,1500,1500,1500,1500,1500
1747550240.316655,0.05,-0.01,-0.38,-0.001090830782496456,0.001090830782496456,0.002181661564992912,-0.008582516595720402,0.10149462274255718,0.0018864803909366846,0,0,0,0,0,0,1500,1500,1500,1500,1500,1500
1747550240.417431,0.02,0.01,-0.29,-0.004363323129985824,-0.003272492347489368,0.001090830782496456,-0.008582516595720402,0.10149462274255718,0.0018864803909366846,0,0,0,0,0,0,1500,1500,1500,1500,1500,1500
1747550240.5173576,0.02,0.01,-0.29,-0.004363323129985824,-0.003272492347489368,0.001090830782496456,-0.008582516595720402,0.10149462274255718,0.0018864803909366846,0,0,0,0,0,0,1500,1500,1500,1500,1500,1500
1747550240.6191676,0.04,0.0,-0.35000000000000003,0.0,0.0,-0.001090830782496456,-0.008582516595720402,0.10149462274255718,0.0018864803909366846,0,0.001082,0,0,0,0,1500,1500,1500,1500,1500,1500
1747550240.7178128,0.04,0.0,-0.3,0.002181661564992912,-0.001090830782496456,-0.001090830782496456,-0.008582516595720402,0.10149462274255718,0.0018864803909366846,0,0.00833,0,0,0,0,1500,1500,1500,1500,1500,1500
1747550240.8188334,0.04,0.0,-0.3,0.002181661564992912,-0.001090830782496456,-0.001090830782496456,-0.008582516595720402,0.10149462274255718,0.0018864803909366846,0,0.022394,0,0,0,0,1500,1500,1500,1500,1500,1500
1747550240.917997,0.05,0.0,-0.31,0.001090830782496456,0.0,0.0,-0.008582516595720402,0.10149462274255718,0.0018864803909366846,0,0.022394,0,0,0,0,1500,1500,1500,1500,1500,1500
1747550241.0181804,0.05,0.0,-0.33,0.003272492347489368,-0.003272492347489368,0.001090830782496456,-0.008582516595720402,0.10149462274255718,0.0018864803909366846,0,0.031982,0,0,0,0,1500,1500,1500,1500,1500,1500
1747550241.1173742,0.05,0.0,-0.33,0.003272492347489368,-0.003272492347489368,0.001090830782496456,-0.008582516595720402,0.10149462274255718,0.0018864803909366846,0,0.070969,0,0,0,0,1500,1500,1500,1500,1500,1500
1747550241.217005,0.03,0.02,-0.3,0.001090830782496456,-0.001090830782496456,-0.001090830782496456,-0.008582516595720402,0.10149462274255718,0.0018864803909366846,0,0.380276,0,0,0,0,1540,1540,1500,1500,1500,1500
1747550241.3191652,0.03,0.02,-0.3,0.001090830782496456,-0.001090830782496456,-0.001090830782496456,-0.008582516595720402,0.10149462274255718,0.0018864803909366846,0,0.495941,0,0,0,0,1544,1544,1540,1500,1500,1500
1747550241.4181504,0.01,0.02,-0.3,0.002181661564992912,-0.001090830782496456,0.001090830782496456,-0.008582516595720402,0.10149462274255718,0.0018864803909366846,0,0.495941,0,0,0,0,1544,1544,1540,1500,1500,1500
1747550241.518999,0.12,-0.16,-0.3,-0.002181661564992912,0.002181661564992912,-0.002181661564992912,-0.008582516595720402,0.10149462274255718,0.0018864803909366846,0,0.626943,0,0,0,0,1548,1547,1543,1500,1500,1500
1747550241.6169102,0.12,-0.16,-0.3,-0.002181661564992912,0.002181661564992912,-0.002181661564992912,-0.008582516595720402,0.10149462274255718,0.0018864803909366846,0,0.626943,0,0,0,0,1548,1547,1543,1500,1500,1500
1747550241.718354,-0.05,0.02,-0.4,0.004363323129985824,0.002181661564992912,-0.001090830782496456,-0.008459967583413028,0.10149448044926289,0.0018927038381811791,0,0.626943,0,0,0,0,1548,1547,1543,1500,1500,1500
1747550241.8176537,-0.02,0.02,-0.32,0.002181661564992912,0.0,0.003272492347489368,-0.008459967583413028,0.10149448044926289,0.0018927038381811791,0,0.626943,0,0,0,0,1548,1547,1543,1500,1500,1500
1747550241.9010334,-0.02,0.02,-0.32,0.002181661564992912,0.0,0.003272492347489368,-0.008459967583413028,0.10149448044926289,0.0018927038381811791,0,0.626943,0,0,0,0,1548,1547,1543,1500,1500,1500
1747550242.0025275,0.01,0.0,-0.38,0.0,0.00545415391248228,0.002181661564992912,-0.008459967583413028,0.10149448044926289,0.0018927038381811791,0,0.626943,0,0,0,0,1548,1547,1543,1500,1500,1500
1747550242.1026132,0.01,0.0,-0.38,0.0,0.00545415391248228,0.002181661564992912,-0.008459967583413028,0.10149448044926289,0.0018927038381811791,0,0.626943,0,0,0,0,1548,1547,1543,1500,1500,1500
1747550242.2012382,0.02,0.04,-0.32,0.0,0.004363323129985824,0.002181661564992912,-0.008459967583413028,0.10149448044926289,0.0018927038381811791,0,0.626943,0,0,0,0,1548,1547,1543,1500,1500,1500
1747550242.3009095,-0.02,0.01,-0.25,-0.001090830782496456,0.003272492347489368,-0.001090830782496456,-0.008459967583413028,0.10149448044926289,0.0018927038381811791,0,0.626943,0,0,0,0,1548,1547,1543,1500,1500,1500
