time,ay,ax,az,gy,gx,gz,roll,pitch,yaw,cmd_fx,cmd_fy,cmd_fz,cmd_tx,cmd_ty,cmd_tz,pwm_1,pwm_2,pwm_3,pwm_4,pwm_5,pwm_6
1747542486.837174,0.0,0.0,0.0,0.0,0.0,0.0,0.0,0.0,0.0,0,0,0,0,0,0,1500,1500,1500,1500,1500,1500
1747542486.9291077,0.0,-0.23,0.19,-0.001090830782496456,-0.004363323129985824,-0.001090830782496456,2.069414612504625,-0.14804033546690132,-0.2483553280784399,0,0,0,0,0,0,1500,1500,1500,1500,1500,1500
1747542487.0295174,0.0,-0.23,0.19,-0.001090830782496456,-0.004363323129985824,-0.001090830782496456,2.069414612504625,-0.14804033546690132,-0.2483553280784399,0,0,0,0,0,0,1500,1500,1500,1500,1500,1500
1747542487.1299908,-0.06,-0.28,0.13,-0.001090830782496456,0.003272492347489368,-0.003272492347489368,2.0694230931232838,-0.1481447583945881,-0.24829392031402744,0,0,0,0,0,0,1500,1500,1500,1500,1500,1500
1747542487.2140434,-0.06,-0.28,0.13,-0.001090830782496456,0.003272492347489368,-0.003272492347489368,2.0694230931232838,-0.1481447583945881,-0.24829392031402744,0,0,0,0,0,0,1500,1500,1500,1500,1500,1500
1747542487.3130245,-0.02,-0.25,0.11,0.0,0.004363323129985824,0.0,2.0694230931232838,-0.1481447583945881,-0.24829392031402744,0,0,0,0,0,0,1500,1500,1500,1500,1500,1500
1747542487.4136052,0.02,0.0,0.05,0.003272492347489368,-0.004363323129985824,0.0,-1.7566269011802116,0.4412870406595565,-0.24853318066246638,0,0,0,0,0,0,1500,1500,1500,1500,1500,1500
1747542487.513566,0.02,0.0,0.05,0.003272492347489368,-0.004363323129985824,0.0,-1.7566269011802116,0.4412870406595565,-0.24853318066246638,0,0,0,0,0,0,1500,1500,1500,1500,1500,1500
1747542487.6136246,0.0,-0.02,0.03,0.001090830782496456,-0.003272492347489368,-0.003272492347489368,2.0694230931232838,-0.1481447583945881,-0.24829392031402744,0,0,0,0,0,0,1500,1500,1500,1500,1500,1500
1747542487.6959126,0.0,-0.02,0.03,0.001090830782496456,-0.003272492347489368,-0.003272492347489368,2.0694230931232838,-0.1481447583945881,-0.24829392031402744,0,0,0,0,0,0,1500,1500,1500,1500,1500,1500
1747542487.7966342,0.01,0.01,-0.01,-0.002181661564992912,0.0,-0.002181661564992912,2.0694230931232838,-0.1481447583945881,-0.24829392031402744,0,0,0,0,0,0,1500,1500,1500,1500,1500,1500
1747542487.8958194,0.02,0.0,0.05,-0.001090830782496456,-0.001090830782496456,0.0,2.0694230931232838,-0.1481447583945881,-0.24829392031402744,0,0,0,0,0,0,1500,1500,1500,1500,1500,1500
1747542487.9808598,0.02,0.0,0.05,-0.001090830782496456,-0.001090830782496456,0.0,2.0694230931232838,-0.1481447583945881,-0.24829392031402744,0,0,0,0,0,0,1500,1500,1500,1500,1500,1500
1747542488.0801804,-0.02,-0.03,-0.03,-0.002181661564992912,0.0,-0.001090830782496456,2.0694230931232838,-0.1481447583945881,-0.24829392031402744,0,0,0,0,0,0,1500,1500,1500,1500,1500,1500
1747542488.1711006,0.0,0.01,0.0,0.0,0.0,-0.002181661564992912,2.0694230931232838,-0.1481447583945881,-0.24829392031402744,0,0,0,0,0,0,1500,1500,1500,1500,1500,1500
1747542488.2639902,0.0,0.01,0.0,0.0,0.0,-0.002181661564992912,2.0694230931232838,-0.1481447583945881,-0.24829392031402744,0,0,0,0,0,0,1500,1500,1500,1500,1500,1500
1747542488.3627002,0.02,0.0,0.06,0.002181661564992912,-0.001090830782496456,0.001090830782496456,2.0694230931232838,-0.1481447583945881,-0.24829392031402744,0,0,0,0,0,0,1500,1500,1500,1500,1500,1500
1747542488.4474237,0.02,0.0,0.06,0.002181661564992912,-0.001090830782496456,0.001090830782496456,2.0694230931232838,-0.1481447583945881,-0.24829392031402744,0,0,0,0,0,0,1500,1500,1500,1500,1500,1500
1747542488.5471883,0.0,-0.04,0.05,0.001090830782496456,0.004363323129985824,-0.002181661564992912,2.0694230931232838,-0.1481447583945881,-0.24829392031402744,0,0,0,0,0,0,1500,1500,1500,1500,1500,1500
1747542488.6458364,0.0,-0.04,0.05,0.001090830782496456,0.004363323129985824,-0.002181661564992912,2.0694230931232838,-0.1481447583945881,-0.24829392031402744,0,0,0,0,0,0,1500,1500,1500,1500,1500,1500
1747542488.730374,0.0,0.0,-0.04,0.002181661564992912,-0.002181661564992912,-0.001090830782496456,2.0694230931232838,-0.1481447583945881,-0.24829392031402744,0,0,0,0,0,0,1500,1500,1500,1500,1500,1500
1747542488.829738,0.01,0.0,0.03,0.0,0.002181661564992912,0.003272492347489368,2.0694230931232838,-0.1481447583945881,-0.24829392031402744,0,0,0,0,0,0,1500,1500,1500,1500,1500,1500
1747542488.9294438,0.01,0.0,0.03,0.0,0.002181661564992912,0.003272492347489368,2.0694230931232838,-0.1481447583945881,-0.24829392031402744,0,0,0,0,0,0,1500,1500,1500,1500,1500,1500
1747542489.0301707,-0.02,-0.02,0.0,-0.002181661564992912,-0.002181661564992912,0.0,2.0694230931232838,-0.1481447583945881,-0.24829392031402744,0,0,0,0,0,0,1500,1500,1500,1500,1500,1500
1747542489.1298296,-0.02,-0.02,0.0,-0.002181661564992912,-0.002181661564992912,0.0,2.0694230931232838,-0.1481447583945881,-0.24829392031402744,0,0,0,0,0,0,1500,1500,1500,1500,1500,1500
1747542489.2138171,-0.02,-0.02,-0.01,-0.006544984694978736,-0.003272492347489368,0.001090830782496456,2.0694230931232838,-0.1481447583945881,-0.24829392031402744,0,0,0,0,0,0,1500,1500,1500,1500,1500,1500
1747542489.312925,0.02,0.0,0.05,-0.003272492347489368,0.002181661564992912,0.002181661564992912,2.0694230931232838,-0.1481447583945881,-0.24829392031402744,0,0,0,0,0,0,1500,1500,1500,1500,1500,1500
1747542489.4131134,0.02,0.0,0.05,-0.003272492347489368,0.002181661564992912,0.002181661564992912,2.0694230931232838,-0.1481447583945881,-0.24829392031402744,0,0,0,0,0,0,1500,1500,1500,1500,1500,1500
1747542489.49582,-0.04,-0.06,-0.02,-0.001090830782496456,0.006544984694978736,0.001090830782496456,2.0694230931232838,-0.1481447583945881,-0.24829392031402744,0,0,0,0,0,0,1500,1500,1500,1500,1500,1500
1747542489.596123,-0.04,-0.06,-0.02,-0.001090830782496456,0.006544984694978736,0.001090830782496456,2.0694230931232838,-0.1481447583945881,-0.24829392031402744,0,0,0,0,0,0,1500,1500,1500,1500,1500,1500
1747542489.6808398,0.0,-0.01,-0.01,-0.001090830782496456,0.004363323129985824,0.002181661564992912,2.0694230931232838,-0.1481447583945881,-0.24829392031402744,0,0,0,0,0,0,1500,1500,1500,1500,1500,1500
1747542489.7804334,0.01,-0.01,0.03,0.001090830782496456,0.0,0.001090830782496456,2.0694230931232838,-0.1481447583945881,-0.24829392031402744,0,0,0,0,0,0,1500,1500,1500,1500,1500,1500
1747542489.8796153,0.01,-0.01,0.03,0.001090830782496456,0.0,0.001090830782496456,2.0694230931232838,-0.1481447583945881,-0.24829392031402744,0,0,0,0,0,0,1500,1500,1500,1500,1500,1500
1747542489.9638424,-0.02,-0.02,-0.03,0.003272492347489368,0.002181661564992912,0.001090830782496456,2.0694230931232838,-0.1481447583945881,-0.24829392031402744,0,0,0,0,0,0,1500,1500,1500,1500,1500,1500
1747542490.062598,-0.02,-0.02,-0.03,0.003272492347489368,0.002181661564992912,0.001090830782496456,2.0694230931232838,-0.1481447583945881,-0.24829392031402744,0,0,0,0,0,0,1500,1500,1500,1500,1500,1500
1747542490.1635702,0.02,-0.01,-0.03,0.0,-0.001090830782496456,0.0,2.0694230931232838,-0.1481447583945881,-0.24829392031402744,0,0,0,0,0,0,1500,1500,1500,1500,1500,1500
1747542490.2637765,0.0,-0.02,0.06,0.001090830782496456,-0.001090830782496456,-0.004363323129985824,2.0694230931232838,-0.1481447583945881,-0.24829392031402744,0,0,0,0,-0.018487,0,1500,1500,1500,1500,1500,1500
1747542490.3633173,0.0,-0.02,0.06,0.001090830782496456,-0.001090830782496456,-0.004363323129985824,2.0694230931232838,-0.1481447583945881,-0.24829392031402744,0,0,0,0,-0.047949,0,1500,1500,1500,1500,1500,1500
1747542490.4459918,-0.02,-0.03,0.0,0.0,-0.002181661564992912,0.0,2.0694230931232838,-0.1481447583945881,-0.24829392031402744,0,0,0,0,-0.057992,0,1500,1500,1500,1500,1500,1500
1747542490.5460696,-0.02,-0.03,0.0,0.0,-0.002181661564992912,0.0,2.0694230931232838,-0.1481447583945881,-0.24829392031402744,0,0,0,0,-0.057992,0,1500,1500,1500,1500,1500,1500
1747542490.6459422,0.01,0.01,0.01,0.00545415391248228,-0.002181661564992912,-0.001090830782496456,2.0694230931232838,-0.1481447583945881,-0.24829392031402744,0,0,0,0,-0.10486,0,1536,1536,1464,1500,1460,1540
1747542490.7288613,-0.01,0.0,0.02,0.004363323129985824,-0.004363323129985824,0.0,2.0694230931232838,-0.1481447583945881,-0.24829392031402744,0,0,0,0,-0.107709,0,1536,1536,1464,1500,1421,1578
1747542490.8298328,-0.01,0.0,0.02,0.004363323129985824,-0.004363323129985824,0.0,2.0694230931232838,-0.1481447583945881,-0.24829392031402744,0,0,0,0,-0.107709,0,1536,1536,1464,1500,1421,1578
1747542490.9301534,-0.46,-0.04,-0.07,-0.004363323129985824,0.007635815477475192,-0.00545415391248228,2.069626161837726,-0.1481270330491861,-0.24831111665970762,0,0,0,0,-0.071304,0,1500,1500,1500,1500,1461,1538
1747542491.0295951,-0.46,-0.04,-0.07,-0.004363323129985824,0.007635815477475192,-0.00545415391248228,2.069626161837726,-0.1481270330491861,-0.24831111665970762,0,0,0,0,0,0,1500,1500,1500,1500,1500,1500
1747542491.1301877,0.14,0.09,-0.19,-0.22252947962927702,-0.02399827721492203,0.008726646259971648,2.0519450119353015,-0.14748054568652308,-0.249874118540002,0,0,0,0,0,0,1500,1500,1500,1500,1500,1500
1747542491.2139506,0.01,-0.04,0.08,-0.16907877128695067,-0.022907446432425576,0.004363323129985824,2.0212023435927526,-0.14596330943788308,-0.25312613238508713,0,0,0,0,0,0,1500,1500,1500,1500,1500,1500
1747542491.3133347,0.01,-0.04,0.08,-0.16907877128695067,-0.022907446432425576,0.004363323129985824,2.0212023435927526,-0.14596330943788308,-0.25312613238508713,0,0,0,0,-0.088571,0,1500,1500,1500,1500,1500,1500
1747542491.4124541,-0.04,-0.02,-0.02,-0.11453723216212788,-0.032724923474893676,0.02181661564992912,1.9997738664108433,-0.1458390622177982,-0.25779047176877606,0,0,0,0,-0.239935,0,1536,1536,1464,1500,1460,1540
1747542491.4958298,-0.04,-0.02,-0.02,-0.11453723216212788,-0.032724923474893676,0.02181661564992912,1.9997738664108433,-0.1458390622177982,-0.25779047176877606,0,0,0,0,-0.239935,0,1536,1536,1464,1500,1420,1580
1747542491.5965166,0.07,-0.12,0.0,-0.05235987755982989,-0.025089107997418487,0.039269908169872414,1.9888724445550772,-0.1481615195484383,-0.26353036708479655,0,0,0,0,-0.239935,0,1536,1536,1464,1500,1380,1620
1747542491.6957655,0.09,-0.35000000000000003,-0.26,-0.02945243112740431,-0.04799655442984406,0.04145156973486533,1.986580992440371,-0.15226238862824049,-0.2724850897814274,0,0,0,0,-0.261812,0,1536,1536,1464,1500,1360,1639
1747542491.7962556,0.09,-0.35000000000000003,-0.26,-0.02945243112740431,-0.04799655442984406,0.04145156973486533,1.986580992440371,-0.15226238862824049,-0.2724850897814274,0,0,0,0,-0.266302,0,1536,1536,1464,1500,1359,1640
1747542491.8962772,0.18,0.34,0.3,-0.40578905108868163,-0.04254240051736178,0.05781403147231216,1.9672608699494196,-0.15661776786098341,-0.2830461425292246,0,0,0,0,-0.266302,0,1536,1536,1464,1500,1359,1640
1747542491.9797633,0.0,0.0,0.1,-1.028653427894158,-0.003272492347489368,0.08835729338221293,1.8530499386816708,-0.16601135831868308,-0.2905413162878891,0,0,0,0,-0.266302,0,1536,1536,1464,1500,1359,1640
1747542492.0788636,0.0,0.0,0.1,-1.028653427894158,-0.003272492347489368,0.08835729338221293,1.8530499386816708,-0.16601135831868308,-0.2905413162878891,0,0,0,0,-0.266302,0,1536,1536,1464,1500,1359,1640
1747542492.179545,0.07,-0.1,0.12,-1.2893619849108109,-0.018544123302439753,0.136353847812057,1.669567934034187,-0.18415349721290541,-0.2947658095570497,0,0,0,0,-0.266302,0,1536,1536,1464,1500,1359,1640
1747542492.2795515,0.07,-0.1,0.12,-1.2893619849108109,-0.018544123302439753,0.136353847812057,1.669567934034187,-0.18415349721290541,-0.2947658095570497,0,0,0,0,-0.266302,0,1536,1536,1464,1500,1359,1640
1747542492.379449,0.1,-0.09,-0.05,-1.401717555507946,-0.04254240051736178,0.14289883250703572,1.4618926841064994,-0.20593176058009313,-0.300060774123997,0,0,0,0,-0.266302,0,1536,1536,1464,1500,1359,1640
1747542492.4628487,-0.12,-0.17,-0.05,-1.4824390334126836,-0.031634092692397225,0.12544553998709243,1.2523343710757018,-0.22673133772438525,-0.3018024574760832,0,0,0,0,-0.266302,0,1536,1536,1464,1500,1359,1640
1747542492.563001,-0.12,-0.17,-0.05,-1.4824390334126836,-0.031634092692397225,0.12544553998709243,1.2523343710757018,-0.22673133772438525,-0.3018024574760832,0,0,0,0,-0.266302,0,1536,1536,1464,1500,1359,1640
1747542492.6625216,0.09,-0.25,-0.32,-1.540253064884996,-0.02181661564992912,0.11453723216212788,1.0166266838012161,-0.24654886630984113,-0.2977249727049549,0,0,0,0,-0.231452,0,1536,1536,1464,1500,1372,1627
1747542492.745975,0.09,-0.25,-0.32,-1.540253064884996,-0.02181661564992912,0.11453723216212788,1.0166266838012161,-0.24654886630984113,-0.2977249727049549,0,0,-2.51548,0,0,0,1496,1496,1504,1500,1412,1642
1747542492.8465466,0.09,-0.59,-0.53,-1.6220653735722301,0.037088246604879506,0.055632369907319255,0.7852731034935345,-0.2567147552116738,-0.290108799991715,0,0,-7.5,0,0,0,1460,1460,1542,1500,1452,1642
1747542492.9465024,-0.19,-0.27,-0.66,-1.5042556490626129,0.12435470920459599,-0.014180800172453928,0.5392470444274314,-0.24940747162859037,-0.2798650718110668,0,0,-7.5,0,0,0,1460,1460,1542,1500,1492,1642
1747542493.0466402,-0.19,-0.27,-0.66,-1.5042556490626129,0.12435470920459599,-0.014180800172453928,0.5392470444274314,-0.24940747162859037,-0.2798650718110668,0,0,-7.5,0,0,0,1460,1460,1542,1500,1532,1642
1747542493.1459062,-0.19,-0.43,-1.05,-1.313360262125733,0.21925698728178766,-0.0916297857297023,0.321943159326347,-0.2227837161550068,-0.27465447871359566,0,0,-7.5,0,0,0,1460,1460,1542,1500,1572,1642
1747542493.2300737,-0.19,-0.43,-1.05,-1.313360262125733,0.21925698728178766,-0.0916297857297023,0.321943159326347,-0.2227837161550068,-0.27465447871359566,0,0,-7.5,0,0,0,1460,1460,1542,1500,1612,1642
1747542493.3304121,-0.07,-0.34,-0.78,-1.215185491701052,0.27598018797160334,-0.08508480103472356,0.1295122380384475,-0.18244414464156716,-0.27957920673611697,0,0,-7.5,0,0,0,1460,1460,1542,1500,1645,1642
1747542493.4296675,-0.25,-0.18,-0.99,-1.1726430911836903,0.3196134192714616,-0.08617563181722002,-0.05367208586607347,-0.13528669161527992,-0.29006504909831815,0,0,-7.5,0,0,0,1460,1460,1542,1500,1645,1642
1747542493.530716,-0.25,-0.18,-0.99,-1.1726430911836903,0.3196134192714616,-0.08617563181722002,-0.05367208586607347,-0.13528669161527992,-0.29006504909831815,0,0,-7.5,0,0,0,1460,1460,1542,1500,1645,1642
1747542493.629624,-0.28,-0.5700000000000001,-0.98,-0.7963064712224128,0.25089107997418486,-0.1189005552921137,-0.20909626218762922,-0.09447015540345623,-0.3094479519708785,0,0,-7.5,0,0,0,1460,1460,1542,1500,1645,1642
1747542493.7127724,-0.03,-0.21,-0.87,-0.24980024919168842,0.1308996938995747,-0.18980455615438332,-0.29298472510442636,-0.07105276115553415,-0.339214469190582,0,0,-7.5,0,0,0,1460,1460,1542,1500,1645,1642
1747542493.8135545,-0.03,-0.21,-0.87,-0.24980024919168842,0.1308996938995747,-0.18980455615438332,-0.29298472510442636,-0.07105276115553415,-0.339214469190582,0,0,-7.5,0,0,0,1460,1460,1542,1500,1645,1642
1747542493.913601,-0.13,-0.09,-0.8200000000000001,-0.039269908169872414,0.06872233929727672,-0.23452861823673804,-0.31765796650725114,-0.06526981855532667,-0.3733431389287561,0,0,-7.5,0,0,0,1460,1460,1542,1500,1645,1642
1747542494.014645,-0.14,0.09,-0.6900000000000001,0.1189005552921137,0.02945243112740431,-0.2694352032766246,-0.3125265919953707,-0.06988395616534676,-0.4129395266426043,0,0,-7.5,0,0,0,1460,1460,1542,1500,1645,1642
1747542494.1126597,-0.14,0.09,-0.6900000000000001,0.1189005552921137,0.02945243112740431,-0.2694352032766246,-0.3125265919953707,-0.06988395616534676,-0.4129395266426043,0,0,-7.5,0,0,0,1460,1460,1542,1500,1645,1642
1747542494.196242,-0.07,0.0,-0.65,0.2181661564992912,0.001090830782496456,-0.2945243112740431,-0.28437575490365347,-0.08086817202460672,-0.45455093720234296,0,0,-7.5,0,0,0,1460,1460,1542,1500,1645,1642
1747542494.2963543,-0.07,0.0,-0.65,0.2181661564992912,0.001090830782496456,-0.2945243112740431,-0.28437575490365347,-0.08086817202460672,-0.45455093720234296,0,0,-7.5,0,0,0,1460,1460,1542,1500,1645,1642
1747542494.39605,-0.15,0.12,-0.53,0.2879793265790644,-0.0272707695624114,-0.28907015736156083,-0.24407338662921882,-0.0930675760280887,-0.4953063437121715,0,0,-7.5,0,0,0,1460,1460,1542,1500,1645,1642
1747542494.4798534,-0.15,0.12,-0.53,0.2879793265790644,-0.0272707695624114,-0.28907015736156083,-0.24407338662921882,-0.0930675760280887,-0.4953063437121715,0,0,-7.5,0,0,0,1460,1460,1542,1500,1645,1642
1747542494.5793564,0.04,0.1,-0.64,0.3272492347489368,-0.055632369907319255,-0.27707101875409984,-0.19223781429291945,-0.1088212576750566,-0.5365622701726079,0,0,-7.5,0,0,0,1460,1460,1542,1500,1645,1642
1747542494.6795185,-0.03,0.05,-0.63,0.36324665057131983,-0.06981317007977318,-0.27598018797160334,-0.13395448326001808,-0.12589990893602848,-0.5777692058746944,0,0,-7.5,0,0,0,1460,1460,1542,1500,1645,1642
1747542494.780405,-0.03,0.05,-0.63,0.36324665057131983,-0.06981317007977318,-0.27598018797160334,-0.13395448326001808,-0.12589990893602848,-0.5777692058746944,0,0,-7.5,0,0,0,1460,1460,1542,1500,1645,1642
1747542494.879628,-0.05,0.1,-0.58,0.3916082509162277,-0.10144726277217041,-0.2781618495365963,-0.07312749788555677,-0.1428576689813348,-0.6169352673289973,0,0,-7.5,0,0,0,1460,1460,1542,1500,1645,1642
1747542494.963669,0.0,0.11,-0.6900000000000001,0.42215151282612845,-0.12871803233458182,-0.2781618495365963,-0.002311370314546478,-0.16225498283214418,-0.659861372625651,0,0,-7.5,0,0,0,1460,1460,1542,1500,1645,1642
1747542495.0632007,0.0,0.11,-0.6900000000000001,0.42215151282612845,-0.12871803233458182,-0.2781618495365963,-0.002311370314546478,-0.16225498283214418,-0.659861372625651,0,0,-7.5,0,0,0,1460,1460,1542,1500,1645,1642
1747542495.1634233,-0.16,0.15,-0.61,0.4494222823885399,-0.1407171709420428,-0.27707101875409984,0.07367164268973675,-0.18136765576787198,-0.70379905430638,0,0,-7.5,0,0,0,1460,1460,1542,1500,1645,1642
1747542495.2630854,-0.16,0.15,-0.61,0.4494222823885399,-0.1407171709420428,-0.27707101875409984,0.07367164268973675,-0.18136765576787198,-0.70379905430638,0,0,-7.5,0,0,0,1460,1460,1542,1500,1645,1642
1747542495.362688,0.06,0.19,-0.6,0.46142142099600086,-0.16035212502697901,-0.2748893571891069,0.15002601852905045,-0.19940948613141718,-0.7471372851175732,0,0,-7.5,0,0,0,1460,1460,1542,1500,1645,1642
1747542495.4460945,0.0,0.22,-0.75,0.46469391334349025,-0.16907877128695067,-0.272707695624114,0.2342945284059651,-0.217575967237003,-0.7952558504278175,0,0,-7.5,0,0,0,1460,1460,1542,1500,1645,1642
1747542495.545893,0.0,0.22,-0.75,0.46469391334349025,-0.16907877128695067,-0.272707695624114,0.2342945284059651,-0.217575967237003,-0.7952558504278175,0,0,-7.5,0,0,0,1460,1460,1542,1500,1645,1642
1747542495.6463542,0.09,0.14,-0.56,0.459239759431008,-0.16798794050445423,-0.2650718801466388,0.3209579004501432,-0.23305201897883002,-0.8446994211483446,0,0,0,0,0,0,1500,1500,1502,1500,1605,1602
1747542495.729505,0.09,0.14,-0.56,0.459239759431008,-0.16798794050445423,-0.2650718801466388,0.3209579004501432,-0.23305201897883002,-0.8446994211483446,0,0,0,0,0,0,1500,1500,1500,1500,1565,1562
1747542495.8296182,-0.03,-0.01,-0.1,0.4799655442984406,-0.1636246173744684,-0.24980024919168842,0.4085951787105608,-0.24444856704974577,-0.8930695268220574,0,0,0,0,0,0,1500,1500,1500,1500,1525,1522
1747542495.9292564,-0.02,0.03,-0.15,0.5083271446433485,-0.18762289458939044,-0.21162117180431245,0.49173111945460807,-0.2539747507891591,-0.9362558510281168,0,0,0,0,0,0,1500,1500,1500,1500,1500,1500
1747542496.0293982,-0.02,0.03,-0.15,0.5083271446433485,-0.18762289458939044,-0.21162117180431245,0.49173111945460807,-0.2539747507891591,-0.9362558510281168,0,0,0,0,0,0,1500,1500,1500,1500,1500,1500
1747542496.1296778,0.01,0.0,-0.26,0.5290529295107811,-0.1930770485018727,-0.1734420944169365,0.5828284970595815,-0.2653334532598044,-0.9789464596852236,0,0,0,0,0,0,1500,1500,1500,1500,1500,1500
1747542496.2134013,0.04,-0.06,-0.38,0.5650503453331642,-0.19744037163185854,-0.14835298641951802,0.6725702536980289,-0.2757750214957402,-1.0163492058854664,0,0,0,0,0,0,1500,1500,1500,1500,1500,1500
1747542496.313466,0.04,-0.06,-0.38,0.5650503453331642,-0.19744037163185854,-0.14835298641951802,0.6725702536980289,-0.2757750214957402,-1.0163492058854664,0,-12.5,0,0,0,-0.080689,1460,1460,1460,1500,1500,1500
1747542496.41358,0.01,-0.11,-0.36,0.6010477611555473,-0.1908953869368798,-0.1461713248545251,0.7745784663589599,-0.2841085548979362,-1.0549153267185096,0,-12.5,0,0,0,-0.084661,1420,1420,1420,1500,1500,1500
1747542496.5132132,0.01,-0.11,-0.36,0.6010477611555473,-0.1908953869368798,-0.1461713248545251,0.7745784663589599,-0.2841085548979362,-1.0549153267185096,0,-12.5,0,0,0,-0.084661,1380,1380,1384,1500,1500,1500
1747542496.613269,0.0,-0.1,-0.45,0.6337726846304409,-0.17998707911191522,-0.1505346479845109,0.8761148572334522,-0.28765951042727583,-1.0911467680079423,0,-12.5,0,0,0,-0.084661,1354,1359,1384,1500,1500,1500
1747542496.6957138,-0.12,-0.07,-0.49,0.6479534848028948,-0.17562375598192942,-0.16253378659197193,0.9877190968787071,-0.28589102063827093,-1.1297174381768869,0,-12.5,0,0,0,-0.084661,1354,1359,1384,1500,1500,1500
1747542496.7965856,-0.12,-0.07,-0.49,0.6479534848028948,-0.17562375598192942,-0.16253378659197193,0.9877190968787071,-0.28589102063827093,-1.1297174381768869,0,-12.5,0,0,0,-0.084661,1354,1359,1384,1500,1500,1500
1747542496.8960512,-0.7000000000000001,-0.23,-0.2,0.5366887449882564,-0.07963064712224129,-0.19744037163185854,1.0905199778566996,-0.26829024034549925,-1.1645542491635896,0,-12.5,0,0,0,-0.092892,1354,1359,1384,1500,1500,1500
1747542496.979895,-0.7000000000000001,-0.23,-0.2,0.5366887449882564,-0.07963064712224129,-0.19744037163185854,1.0905199778566996,-0.26829024034549925,-1.1645542491635896,0,-12.5,0,0,0,-0.092892,1354,1359,1384,1500,1500,1500
1747542497.0800295,-0.16,-0.16,-0.55,0.4821472058634335,0.003272492347489368,-0.2007128639793479,1.1745664780392393,-0.23590329790288603,-1.1825892708917412,0,-12.5,0,0,0,-0.092892,1354,1359,1384,1500,1500,1500
1747542497.1803634,-0.03,0.04,-0.35000000000000003,0.38069994309126315,0.0818123086872342,-0.24652775684419906,1.2423031357368541,-0.2033626700840146,-1.1886291963075923,0,-12.5,0,0,0,-0.092892,1354,1359,1384,1500,1500,1500
1747542497.2802634,-0.03,0.04,-0.35000000000000003,0.38069994309126315,0.0818123086872342,-0.24652775684419906,1.2423031357368541,-0.2033626700840146,-1.1886291963075923,0,-12.5,0,0,0,-0.092892,1354,1359,1384,1500,1500,1500
1747542497.3799584,-0.14,-0.16,-0.17,0.23889194136672387,0.14944381720201447,-0.26398104936414235,1.291128723233606,-0.16030853771846346,-1.1833871439105619,0,-12.5,0,0,0,-0.092892,1354,1359,1384,1500,1500,1500
1747542497.4629266,0.1,-0.08,-0.18,0.14726215563702155,0.19416787928436915,-0.21598449493429828,1.318378533067904,-0.12011298567913099,-1.1686230469949386,0,-12.5,0,0,0,-0.092892,1354,1359,1384,1500,1500,1500
1747542497.5632987,0.1,-0.08,-0.18,0.14726215563702155,0.19416787928436915,-0.21598449493429828,1.318378533067904,-0.12011298567913099,-1.1686230469949386,0,-12.5,0,0,0,-0.092892,1354,1359,1384,1500,1500,1500
1747542497.6626697,0.12,0.02,-0.14,0.09053895494720585,0.2083486794568231,-0.17562375598192942,1.335337242239167,-0.083373812970914,-1.1456389039316843,0,-12.5,0,0,0,-0.092892,1354,1359,1384,1500,1500,1500
1747542497.7462912,0.12,0.02,-0.14,0.09053895494720585,0.2083486794568231,-0.17562375598192942,1.335337242239167,-0.083373812970914,-1.1456389039316843,0,-12.5,0,0,0,-0.092892,1354,1359,1384,1500,1500,1500
1747542497.8457634,-0.01,-0.06,-0.24,0.009817477042468103,0.21598449493429828,-0.1090830782496456,1.34210948495877,-0.054844339791317566,-1.1184319312439397,0,-12.5,0,0,0,-0.092892,1354,1359,1384,1500,1500,1500
1747542497.94095,0.03,-0.09,-0.16,-0.06217735460229799,0.19853120241435498,-0.06763150851478027,1.3371856639356932,-0.03507047029657264,-1.0902302013646004,0,-12.5,0,0,0,-0.092892,1354,1359,1384,1500,1500,1500
1747542498.030036,0.03,-0.09,-0.16,-0.06217735460229799,0.19853120241435498,-0.06763150851478027,1.3371856639356932,-0.03507047029657264,-1.0902302013646004,0,-12.5,0,0,0,-0.092892,1354,1359,1384,1500,1500,1500
1747542498.1299067,-0.09,-0.19,-0.09,-0.08399397025222712,0.18980455615438332,-0.04254240051736178,1.3251308502354147,-0.02024847795370116,-1.0623646397704767,0,-12.5,0,0,0,-0.092892,1354,1359,1384,1500,1500,1500
1747542498.213638,-0.09,-0.19,-0.09,-0.08399397025222712,0.18980455615438332,-0.04254240051736178,1.3251308502354147,-0.02024847795370116,-1.0623646397704767,0,-12.5,0,0,0,-0.092892,1354,1359,1384,1500,1500,1500
1747542498.3136559,-0.02,-0.13,-0.13,-0.12435470920459599,0.18216874067690814,-0.019634954084936207,1.3102206127523204,-0.01024670948323908,-1.036962351790784,0,-12.5,0,0,0,-0.092892,1354,1359,1384,1500,1500,1500
1747542498.4061983,0.07,-0.29,-0.14,-0.1559888018969932,0.17889624832941878,-0.011999138607461015,1.2884732727663168,-0.0019073199869201135,-1.0098845481943575,0,-12.5,0,0,0,-0.092892,1354,1359,1384,1500,1500,1500
1747542498.496106,0.07,-0.29,-0.14,-0.1559888018969932,0.17889624832941878,-0.011999138607461015,1.2884732727663168,-0.0019073199869201135,-1.0098845481943575,0,-12.5,0,0,0,-0.092892,1354,1359,1384,1500,1500,1500
1747542498.5964193,-0.05,-0.17,-0.18,-0.15817046346198613,0.15489797111449674,0.003272492347489368,1.2673458977582472,0.00498098704533231,-0.9861810921512937,0,-12.5,0,0,0,-0.092892,1354,1359,1384,1500,1500,1500
1747542498.6961932,-0.05,-0.17,-0.18,-0.15817046346198613,0.15489797111449674,0.003272492347489368,1.2673458977582472,0.00498098704533231,-0.9861810921512937,0,-12.5,0,0,0,-0.092892,1354,1359,1384,1500,1500,1500
1747542498.7965095,-0.01,-0.15,-0.25,-0.1636246173744684,0.1265363707695889,0.026179938779914945,1.2424121317718866,0.008800821367505996,-0.9646650810477968,0,-12.5,0,0,0,-0.092892,1354,1359,1384,1500,1500,1500
1747542498.895762,0.17,-0.29,-0.3,-0.17235126363444003,0.09272061651219876,0.05890486225480862,1.2190346884115608,0.008204432978227613,-0.9481762575809187,0,-12.5,0,0,0,-0.092892,1354,1359,1384,1500,1500,1500
1747542498.9797778,0.17,-0.29,-0.3,-0.17235126363444003,0.09272061651219876,0.05890486225480862,1.2190346884115608,0.008204432978227613,-0.9481762575809187,0,-12.5,0,0,0,-0.092892,1354,1359,1384,1500,1500,1500
1747542499.079738,-0.14,-0.22,0.06,-0.17998707911191522,0.05235987755982989,0.08399397025222712,1.193047170852895,0.0016802780786244304,-0.9342963235580252,0,-12.5,0,0,0,-0.092892,1354,1359,1384,1500,1500,1500
1747542499.179702,-0.14,-0.22,0.06,-0.17998707911191522,0.05235987755982989,0.08399397025222712,1.193047170852895,0.0016802780786244304,-0.9342963235580252,0,-12.5,0,0,0,-0.092892,1354,1359,1384,1500,1500,1500
1747542499.279952,0.16,-0.21,0.1,-0.15271630954950383,0.026179938779914945,0.11453723216212788,1.166966720046193,-0.009930304475477329,-0.9234279257976129,0,-12.5,0,0,0,-0.092892,1354,1359,1384,1500,1500,1500
1747542499.3804772,-0.01,0.03,-0.11,-0.14835298641951802,-0.008726646259971648,0.12762720155208535,1.1428368871559935,-0.02726627469122789,-0.91495429742295,0,-12.5,0,0,0,-0.092892,1354,1359,1384,1500,1500,1500
1747542499.4635546,-0.01,0.03,-0.11,-0.14835298641951802,-0.008726646259971648,0.12762720155208535,1.1428368871559935,-0.02726627469122789,-0.91495429742295,0,-12.5,0,0,0,-0.092892,1354,1359,1384,1500,1500,1500
1747542499.5627456,0.07,-0.14,0.0,-0.12217304763960307,-0.03599741582238305,0.13199052468207118,1.1209275426140528,-0.04749027380132545,-0.9096617454314614,0,-12.5,0,0,0,-0.092892,1354,1359,1384,1500,1500,1500
1747542499.6586082,-0.12,-0.24,-0.11,-0.12435470920459599,-0.06872233929727672,0.14726215563702155,1.102792850311117,-0.06906130514843473,-0.9074397616689733,0,-12.5,0,0,0,-0.092892,1354,1359,1384,1500,1500,1500
1747542499.7464108,-0.12,-0.24,-0.11,-0.12435470920459599,-0.06872233929727672,0.14726215563702155,1.102792850311117,-0.06906130514843473,-0.9074397616689733,0,-12.5,0,0,0,-0.092892,1354,1359,1384,1500,1500,1500
1747542499.8458786,0.02,-0.04,-0.12,-0.11017390903214205,-0.08072147790473774,0.16580627893946132,1.0856568493272218,-0.09466388674981495,-0.9058428908458875,0,-12.5,0,0,0,-0.092892,1354,1359,1384,1500,1500,1500
1747542499.9458346,0.02,-0.04,-0.12,-0.11017390903214205,-0.08072147790473774,0.16580627893946132,1.0856568493272218,-0.09466388674981495,-0.9058428908458875,0,-12.5,0,0,0,-0.092892,1354,1359,1384,1500,1500,1500
1747542500.04791,0.07,-0.26,-0.12,-0.10144726277217041,-0.11126473981463851,0.1832595714594046,1.0689232907773312,-0.12575495182262478,-0.9056923609127329,0,-12.5,0,0,0,-0.092892,1354,1359,1384,1500,1500,1500
1747542500.1427453,-0.01,-0.13,-0.18,-0.08072147790473774,-0.14944381720201447,0.18216874067690814,1.054846086420954,-0.16084981979075216,-0.9097672969590423,0,0,0,0,0,0,1394,1399,1424,1500,1500,1500
1747542500.2297158,-0.01,-0.13,-0.18,-0.08072147790473774,-0.14944381720201447,0.18216874067690814,1.054846086420954,-0.16084981979075216,-0.9097672969590423,0,0,0,0,0,0,1434,1439,1464,1500,1500,1500
1747542500.3292446,0.55,-0.03,-0.19,-0.06217735460229799,-0.17016960206944712,0.1908953869368798,1.0443892074998185,-0.19839965447164548,-0.9172257439249051,0,0,0,0,0,0,1474,1479,1500,1500,1500,1500
1747542500.4292643,0.55,-0.03,-0.19,-0.06217735460229799,-0.17016960206944712,0.1908953869368798,1.0443892074998185,-0.19839965447164548,-0.9172257439249051,0,0,0,0,0,0,1500,1500,1500,1500,1500,1500
1747542500.5291262,0.43,-0.19,-0.13,0.030543261909900768,-0.19962203319685143,0.1810779098944117,1.0445615152349115,-0.2436721245005097,-0.9274764602219042,0,0,0,0,0,0,1500,1500,1500,1500,1500,1500
1747542500.630006,0.17,-0.16,-0.12,0.12544553998709243,-0.28361600344907856,0.17016960206944712,1.0608620519949985,-0.2881376069296195,-0.9459683031048457,0,0,0,0,0,0,1500,1500,1500,1500,1500,1500
1747542500.7124283,0.17,-0.16,-0.12,0.12544553998709243,-0.28361600344907856,0.17016960206944712,1.0608620519949985,-0.2881376069296195,-0.9459683031048457,0,9.777455,0,0,0,0.023359,1540,1540,1540,1500,1500,1500
1747542500.8126507,0.04,-0.14,-0.09,0.18653206380689397,-0.3327033886614191,0.17016960206944712,1.0947356667585122,-0.33511766872799864,-0.976383985297364,0,12.5,0,0,0,0.035109,1580,1580,1580,1500,1500,1500
1747542500.9111543,0.24,0.02,-0.27,0.25634523388666713,-0.3665191429188092,0.14289883250703572,1.140497720640404,-0.37899087725300834,-1.0144285188074906,0,12.5,0,0,0,0.035109,1620,1620,1615,1500,1500,1500
1747542500.9965286,0.24,0.02,-0.27,0.25634523388666713,-0.3665191429188092,0.14289883250703572,1.140497720640404,-0.37899087725300834,-1.0144285188074906,0,12.5,0,0,0,0.035109,1645,1640,1615,1500,1500,1500
1747542501.0959878,0.36,0.05,-0.08,0.32070425005395803,-0.44178646691106466,-0.07744898555724837,1.2097078835726216,-0.41070033352003743,-1.0757631065192668,0,12.5,0,0,0,0.035109,1645,1640,1615,1500,1500,1500
1747542501.1955752,0.36,0.05,-0.08,0.32070425005395803,-0.44178646691106466,-0.07744898555724837,1.2097078835726216,-0.41070033352003743,-1.0757631065192668,0,12.5,0,0,0,0.035109,1645,1640,1615,1500,1500,1500
1747542501.2976046,0.8,0.07,-0.13,0.385063266221249,-0.45705809786601503,-0.11344640137963143,1.2976257124731692,-0.4223399603675776,-1.1580051648407022,0,12.5,0,0,0,0.035109,1645,1640,1615,1500,1500,1500
1747542501.3883657,0.87,0.07,0.0,0.3959715740462135,-0.39924406639370286,-0.03381575425739013,1.3884237692950558,-0.4291244660860391,-1.232033232956281,0,12.5,0,0,0,0.035109,1645,1640,1615,1500,1500,1500
1747542501.4793234,0.87,0.07,0.0,0.3959715740462135,-0.39924406639370286,-0.03381575425739013,1.3884237692950558,-0.4291244660860391,-1.232033232956281,0,12.5,0,0,0,0.035109,1645,1640,1615,1500,1500,1500
1747542501.579566,-0.22,-0.24,0.05,0.3916082509162277,-0.31525009614147576,-0.015271630954950384,1.4688232886613397,-0.4355049916122348,-1.288403597978363,0,12.5,0,0,0,0.035109,1645,1640,1615,1500,1500,1500
1747542501.679861,-0.22,-0.24,0.05,0.3916082509162277,-0.31525009614147576,-0.015271630954950384,1.4688232886613397,-0.4355049916122348,-1.288403597978363,0,12.5,0,0,0,0.035109,1645,1640,1615,1500,1500,1500
1747542501.7817726,-0.28,-0.05,0.04,0.358883327441334,-0.24434609527920614,0.001090830782496456,1.5454699292656762,-0.4387777973532674,-1.3357516289501234,0,12.5,0,0,0,0.035109,1645,1640,1615,1500,1500,1500
1747542501.8801637,0.31,0.0,0.03,0.358883327441334,-0.2007128639793479,-0.011999138607461015,1.6151531804801,-0.43876316407941807,-1.3722903749940212,0,12.5,0,0,0,0.035109,1645,1640,1615,1500,1500,1500
1747542501.9639335,0.31,0.0,0.03,0.358883327441334,-0.2007128639793479,-0.011999138607461015,1.6151531804801,-0.43876316407941807,-1.3722903749940212,0,12.5,0,0,0,0.035109,1645,1640,1615,1500,1500,1500
1747542502.0650282,0.01,-0.11,0.04,0.3567016658763411,-0.19525871006686563,-0.05672320068981571,1.6793150787850422,-0.43270276750033215,-1.4022884057338612,0,12.5,0,0,0,0.035109,1645,1640,1615,1500,1500,1500
1747542502.1657338,0.01,-0.11,0.04,0.3567016658763411,-0.19525871006686563,-0.05672320068981571,1.6793150787850422,-0.43270276750033215,-1.4022884057338612,0,12.5,0,0,0,0.035109,1645,1640,1615,1500,1500,1500
1747542502.2632043,0.26,0.16,-0.01,0.30325095753401476,-0.20507618710933373,-0.12217304763960307,1.7428754446685863,-0.4148072750979455,-1.4336041799443993,0,12.5,0,0,0,0.035109,1645,1640,1615,1500,1500,1500
1747542502.363428,0.34,0.03,0.02,0.272707695624114,-0.19962203319685143,-0.17780541754692233,1.7950843263668794,-0.38700544168338524,-1.46017067553948,0,12.5,0,0,0,0.035109,1645,1640,1615,1500,1500,1500
1747542502.44591,0.34,0.03,0.02,0.272707695624114,-0.19962203319685143,-0.17780541754692233,1.7950843263668794,-0.38700544168338524,-1.46017067553948,0,12.5,0,0,0,0.035109,1645,1640,1615,1500,1500,1500
1747542502.5457094,0.34,0.09,0.18,0.2399827721492203,-0.2203478180642841,-0.19198621771937624,1.8444566023085265,-0.35037958823819615,-1.4864574301939208,0,12.5,0,0,0,0.035109,1645,1640,1615,1500,1500,1500
1747542502.6458817,-0.54,-0.06,-0.07,0.19198621771937624,-0.23561944901923448,-0.18435040224190105,1.8863581288918867,-0.31232905741089,-1.5135358249211441,0,12.5,0,0,0,0.037745,1645,1640,1615,1500,1500,1500
1747542502.7291641,-0.54,-0.06,-0.07,0.19198621771937624,-0.23561944901923448,-0.18435040224190105,1.8863581288918867,-0.31232905741089,-1.5135358249211441,0,12.5,0,0,0,0.037745,1645,1640,1615,1500,1500,1500
1747542502.8291538,-0.29,-0.16,-0.05,0.16907877128695067,-0.26070855701665296,-0.17235126363444003,1.9211427804539156,-0.2734849321426659,-1.5414992472224205,0,12.5,0,0,0,0.037745,1645,1640,1615,1500,1500,1500
1747542502.9295266,-0.29,-0.16,-0.05,0.16907877128695067,-0.26070855701665296,-0.17235126363444003,1.9211427804539156,-0.2734849321426659,-1.5414992472224205,0,7.074926,0,0,0,0.004893,1645,1640,1615,1500,1500,1500
1747542503.029573,-0.34,-0.29,0.17,0.15271630954950383,-0.2923426497090502,-0.16253378659197193,1.9515105121082614,-0.23661097293731945,-1.5709434487118303,0,0,0,0,0,0,1605,1600,1575,1500,1500,1500
1747542503.12938,0.35000000000000003,0.07,0.28,0.1439896632895322,-0.3141592653589793,-0.13962634015954636,1.981320730461804,-0.19696298592236747,-1.6054666563089284,0,0,0,0,0,0,1565,1560,1535,1500,1500,1500
1747542503.2130294,0.35000000000000003,0.07,0.28,0.1439896632895322,-0.3141592653589793,-0.13962634015954636,1.981320730461804,-0.19696298592236747,-1.6054666563089284,0,0,0,0,0,0,1525,1520,1500,1500,1500,1500
1747542503.3121827,-0.56,0.18,0.18,0.08399397025222712,-0.3294308963139297,-0.13526301702956053,2.004304879869235,-0.15530145667682316,-1.6437113631001699,0,0,0,0,0,0,1500,1500,1500,1500,1500,1500
1747542503.413111,-0.56,0.18,0.18,0.08399397025222712,-0.3294308963139297,-0.13526301702956053,2.004304879869235,-0.15530145667682316,-1.6437113631001699,0,0,0,0,0,0,1500,1500,1500,1500,1500,1500
1747542503.5126216,-0.45,0.14,0.14,0.028361600344907856,-0.3021601267515183,-0.16035212502697901,2.013262460300199,-0.10701245536532422,-1.6771665784381609,0,0,0,0,0,0,1500,1500,1500,1500,1500,1500
1747542503.613277,-0.18,0.0,0.05,0.011999138607461015,-0.26398104936414235,-0.18653206380689397,2.016095400760712,-0.061186889794827184,-1.7045958037266602,0,0,0,0,0,0,1500,1500,1500,1500,1500,1500
1747542503.7127976,-0.18,0.0,0.05,0.011999138607461015,-0.26398104936414235,-0.18653206380689397,2.016095400760712,-0.061186889794827184,-1.7045958037266602,0,0,0,0,0,0,1500,1500,1500,1500,1500,1500
1747542503.8125353,-0.06,0.05,0.05,0.008726646259971648,-0.2378011105842274,-0.20180369476184434,2.01701792419809,-0.016768503722416932,-1.7261656793527271,0,0,0,0,0,0,1500,1500,1500,1500,1500,1500
1747542503.9010072,-0.05,0.0,0.01,0.01090830782496456,-0.21162117180431245,-0.20289452554434081,2.017301501705293,0.026698721279747806,-1.7438665345666395,0,0,0,0,0,0,1500,1500,1500,1500,1500,1500
1747542503.9963386,-0.05,0.0,0.01,0.01090830782496456,-0.21162117180431245,-0.20289452554434081,2.017301501705293,0.026698721279747806,-1.7438665345666395,0,0,0,0,0,0,1500,1500,1500,1500,1500,1500
1747542504.0959709,0.01,0.01,0.04,0.015271630954950384,-0.19525871006686563,-0.20398535632683726,2.0179860856877037,0.0663037370377018,-1.7576496898029066,0,0,0,0,0,0,1500,1500,1500,1500,1500,1500
1747542504.1961112,0.01,0.01,0.04,0.015271630954950384,-0.19525871006686563,-0.20398535632683726,2.0179860856877037,0.0663037370377018,-1.7576496898029066,0,0,0,0,0,0,1500,1500,1500,1500,1500,1500
1747542504.2962103,0.0,0.0,0.05,0.019634954084936207,-0.17780541754692233,-0.20398535632683726,2.01980963104235,0.10709232834776139,-1.7697400858311387,0,0,0,0,0,0,1500,1500,1500,1500,1500,1500
1747542504.39576,0.03,0.03,-0.05,0.030543261909900768,-0.15817046346198613,-0.19634954084936207,2.0225442250865115,0.1439770552754243,-1.7792488233062358,0,0,0,0,0,0,1500,1500,1500,1500,1500,1500
1747542504.479446,0.03,0.03,-0.05,0.030543261909900768,-0.15817046346198613,-0.19634954084936207,2.0225442250865115,0.1439770552754243,-1.7792488233062358,0,0,0,0,0,0,1500,1500,1500,1500,1500,1500
1747542504.5795777,0.02,0.02,0.06,0.037088246604879506,-0.1461713248545251,-0.18871372537188688,2.026283775657708,0.18088460792851752,-1.7874085821957433,0,0,0,0,0,0,1500,1500,1500,1500,1500,1500
1747542504.679213,0.02,0.02,0.06,0.037088246604879506,-0.1461713248545251,-0.18871372537188688,2.026283775657708,0.18088460792851752,-1.7874085821957433,0,0,0,0,0,0,1500,1500,1500,1500,1500,1500
1747542504.7793958,0.05,0.02,-0.03,0.04036073895236887,-0.13199052468207118,-0.18216874067690814,2.0305058365733886,0.21367687542265645,-1.7935441403724868,1,0,0,0,0,0,1460,1540,1464,1540,1540,1460
1747542504.879475,0.1,0.06,0.03,0.038179077387375956,-0.10799224746714914,-0.16798794050445423,2.0356338282611257,0.2462120926159328,-1.7985531131437185,1,0,0,0,0,0,1442,1557,1464,1580,1580,1420
1747542504.962385,0.1,0.06,0.03,0.038179077387375956,-0.10799224746714914,-0.16798794050445423,2.0356338282611257,0.2462120926159328,-1.7985531131437185,1,0,0,0,0,0,1442,1557,1464,1620,1595,1404
1747542505.0630848,0.06,0.02,0.11,0.03490658503988659,-0.0916297857297023,-0.1559888018969932,2.040802881652692,0.2758540955317934,-1.8013959482932014,1,0,0,0,0,0,1442,1557,1464,1645,1595,1404
1747542505.152566,-0.06,-0.12,-0.04,0.12435470920459599,-0.08508480103472356,-0.25416357232167425,2.0523959448683917,0.3072214804773811,-1.8000657919194178,1,0,0,0,0,0,1442,1557,1464,1645,1595,1404
1747542505.2460344,-0.06,-0.12,-0.04,0.12435470920459599,-0.08508480103472356,-0.25416357232167425,2.0523959448683917,0.3072214804773811,-1.8000657919194178,1,0,0,0,0,0,1442,1557,1464,1645,1595,1404
1747542505.346207,0.27,0.31,0.21,0.09381144729469522,-0.04581489286485115,-0.4636030825609938,2.0782388459387464,0.3549545959167214,-1.7855041633169666,1,0,0,0,0,0,1442,1557,1464,1645,1595,1404
1747542505.446402,0.27,0.31,0.21,0.09381144729469522,-0.04581489286485115,-0.4636030825609938,2.0782388459387464,0.3549545959167214,-1.7855041633169666,1,0,0,0,0,0,1442,1557,1464,1645,1595,1404
1747542505.5463452,0.27,0.24,0.08,0.08726646259971647,0.017453292519943295,-0.5683228376806536,2.1037247853307797,0.4231622202398013,-1.7457954047405526,1,0,0,0,0,0,1442,1557,1464,1645,1595,1404
1747542505.6462214,0.04,0.18,0.01,0.09599310885968812,0.061086523819801536,-0.6435901616729091,2.1407702995038163,0.49211126980739256,-1.6895389382626604,1,0,0,0,0,0,1442,1557,1464,1645,1595,1404
1747542505.7298994,0.04,0.18,0.01,0.09599310885968812,0.061086523819801536,-0.6435901616729091,2.1407702995038163,0.49211126980739256,-1.6895389382626604,1,0,0,0,0,0,1442,1557,1464,1645,1595,1404
1747542505.8292818,0.09,0.07,-0.06,0.08617563181722002,0.08399397025222712,-0.6774059159302992,2.19379240998923,0.568683872256718,-1.6112703065835576,1,0,0,0,0,0,1442,1557,1464,1645,1595,1404
1747542505.9296763,0.19,0.12,-0.05,0.11017390903214205,0.10253809355466686,-0.6523168079328807,2.254597393255072,0.6362853793613977,-1.5277441128179645,1,0,0,0,0,0,1442,1557,1464,1645,1595,1404
1747542506.029657,0.19,0.12,-0.05,0.11017390903214205,0.10253809355466686,-0.6523168079328807,2.254597393255072,0.6362853793613977,-1.5277441128179645,1,0,0,0,0,0,1442,1557,1464,1645,1595,1404
1747542506.129652,0.26,0.12,-0.01,0.12871803233458182,0.1407171709420428,-0.6457718232379019,2.3342794384565044,0.6968614117289953,-1.4265966152416445,1,0,0,0,0,0,1442,1557,1464,1645,1595,1404
1747542506.2127638,0.26,0.12,-0.01,0.12871803233458182,0.1407171709420428,-0.6457718232379019,2.3342794384565044,0.6968614117289953,-1.4265966152416445,1,0,0,0,0,0,1442,1557,1464,1645,1595,1404
1747542506.3125737,0.0,0.04,0.13,0.15489797111449674,0.17235126363444003,-0.6490443155853913,2.4328123515232605,0.7470415161762729,-1.3097246052746485,1,0,0,0,0,0,1442,1557,1464,1645,1595,1404
1747542506.403318,0.18,0.14,0.0,0.13962634015954636,0.23561944901923448,-0.6752242543653062,2.5503242950726097,0.7826742036853148,-1.1720044009331398,1,0,0,0,0,0,1442,1557,1464,1645,1595,1404
1747542506.496504,0.18,0.14,0.0,0.13962634015954636,0.23561944901923448,-0.6752242543653062,2.5503242950726097,0.7826742036853148,-1.1720044009331398,1,0,0,0,0,0,1442,1557,1464,1645,1595,1404
1747542506.5998015,0.22,0.06,0.09,0.12326387842209953,0.2901609881440573,-0.6970408700152354,2.6751124036350435,0.7996173939545768,-1.0232782016751194,0,0,0,0,0,0,1482,1517,1500,1605,1555,1444
1747542506.6959658,0.22,0.06,0.09,0.12326387842209953,0.2901609881440573,-0.6970408700152354,2.6751124036350435,0.7996173939545768,-1.0232782016751194,-1,0,0,0,0,0,1522,1477,1536,1565,1515,1484
1747542506.7954507,0.0,-0.15,-0.1,0.0818123086872342,0.35124751196385884,-0.6806784082777885,2.811449070751316,0.7955099157443883,-0.8540691310299034,-1,0,0,0,0,0,1557,1442,1536,1525,1475,1524
1747542506.8957298,0.14,-0.01,-0.06,-0.08835729338221293,0.37306412761378793,-0.4788747135159442,2.9012223029289474,0.7678186491316848,-0.7212333169621236,-1,0,0,0,0,0,1557,1442,1536,1485,1435,1564
1747542506.9795916,0.14,-0.01,-0.06,-0.08835729338221293,0.37306412761378793,-0.4788747135159442,2.9012223029289474,0.7678186491316848,-0.7212333169621236,-1,0,0,0,0,0,1557,1442,1536,1445,1404,1595
1747542507.0795379,0.2,-0.27,0.32,-0.09599310885968812,0.38724492778624187,-0.2825251726665821,2.9495630601262666,0.7217183892998127,-0.6253811805564344,-1,0,0,0,0,0,1557,1442,1536,1405,1404,1595
1747542507.1796157,0.2,-0.27,0.32,-0.09599310885968812,0.38724492778624187,-0.2825251726665821,2.9495630601262666,0.7217183892998127,-0.6253811805564344,-1,0,0,0,0,0,1557,1442,1536,1365,1404,1595
1747542507.2798681,-0.08,0.03,0.02,-0.2617993877991494,0.3643374813538163,-0.028361600344907856,2.9535780250107093,0.6692076430109701,-0.5851397960020249,-1,0,0,0,0,0,1557,1442,1536,1354,1404,1595
1747542507.379643,-0.03,-0.28,-0.05,-0.7352199474026113,0.3337942194439155,0.12544553998709243,2.881244511013733,0.6142979831106088,-0.5793722832643441,-1,0,0,0,0,0,1557,1442,1536,1354,1404,1595
1747542507.4624982,-0.03,-0.28,-0.05,-0.7352199474026113,0.3337942194439155,0.12544553998709243,2.881244511013733,0.6142979831106088,-0.5793722832643441,-1,0,0,0,0,0,1557,1442,1536,1354,1404,1595
1747542507.5624995,0.03,-0.44,0.16,-0.7843073326149519,0.2879793265790644,0.32288591161895097,2.751259866398427,0.5615255408001425,-0.5950928419337937,-1,0,0,0,0,0,1557,1442,1536,1354,1404,1595
1747542507.6593022,0.13,-0.2,0.05,-0.6294093615004551,0.23561944901923448,0.4985096676008804,2.620085443277548,0.49625925748632327,-0.6419635943420372,-1,0,0,0,0,0,1557,1442,1536,1354,1404,1595
1747542507.7462447,0.13,-0.2,0.05,-0.6294093615004551,0.23561944901923448,0.4985096676008804,2.620085443277548,0.49625925748632327,-0.6419635943420372,-1,0,0,0,0,0,1557,1442,1536,1354,1404,1595
1747542507.8460417,-0.04,-0.32,-0.01,-0.48105637508093707,0.16689710972195776,0.6239552075879728,2.507083311613146,0.4220844294158755,-0.705151845055677,-1,0,0,0,0,0,1557,1442,1536,1354,1404,1595
1747542507.945889,-0.04,-0.32,-0.01,-0.48105637508093707,0.16689710972195776,0.6239552075879728,2.507083311613146,0.4220844294158755,-0.705151845055677,-1,0,0,0,0,0,1557,1442,1536,1354,1404,1595
1747542508.0455606,0.19,-0.18,0.15,-0.36979163526629855,0.11671889372712078,0.7014041931452212,2.4216841408357443,0.3459991293654574,-0.7721851766780946,-1,0,0,0,0,0,1557,1442,1536,1354,1404,1595
1747542508.1457553,-0.08,-0.16,0.02,-0.34579335805137656,0.09817477042468103,0.7646723785300157,2.345178676866599,0.2554403349953159,-0.8468871744197736,-1,0,0,0,0,0,1557,1442,1536,1354,1404,1595
1747542508.229871,-0.08,-0.16,0.02,-0.34579335805137656,0.09817477042468103,0.7646723785300157,2.345178676866599,0.2554403349953159,-0.8468871744197736,-1,0,0,0,0,0,1557,1442,1536,1354,1404,1595
1747542508.3298724,0.07,-0.21,0.0,-0.3272492347489368,0.0818123086872342,0.8170322560898455,2.2781417218392215,0.1549472421613691,-0.921297547027707,-1,0,0,0,0,0,1557,1442,1536,1354,1404,1595
1747542508.4288752,0.07,-0.21,0.0,-0.3272492347489368,0.0818123086872342,0.8170322560898455,2.2781417218392215,0.1549472421613691,-0.921297547027707,-1,0,0,0,0,0,1557,1442,1536,1354,1404,1595
1747542508.5292485,0.14,-0.24,-0.12,-0.34579335805137656,0.050178215994836975,0.868301302867179,2.2187313464143585,0.04647310825318886,-0.9960195671912268,-1,0,0,0,0,0,1557,1442,1536,1354,1404,1595
1747542508.6300292,0.14,-0.12,-0.21,-0.3643374813538163,0.01090830782496456,0.8977537339945832,2.167287743117158,-0.060598619234164,-1.0667491396623086,-1,0,0,0,0,0,1557,1442,1536,1354,1404,1595
1747542508.7128236,0.14,-0.12,-0.21,-0.3643374813538163,0.01090830782496456,0.8977537339945832,2.167287743117158,-0.060598619234164,-1.0667491396623086,-1,0,0,0,0,0,1557,1442,1536,1354,1404,1595
1747542508.8138547,0.2,-0.07,-0.21,-0.39924406639370286,-0.026179938779914945,0.8803004414746399,2.1176725077255756,-0.17616299304362443,-1.142533137866514,-1,0,0,0,0,0,1557,1442,1536,1354,1404,1595
1747542508.9122722,0.2,-0.07,-0.21,-0.39924406639370286,-0.026179938779914945,0.8803004414746399,2.1176725077255756,-0.17616299304362443,-1.142533137866514,-1,0,0,0,0,0,1557,1442,1536,1354,1404,1595
1747542508.9961767,0.08,-0.09,-0.12,-0.46142142099600086,-0.04908738521234052,0.8606654873897037,2.068681375714339,-0.29005103732712606,-1.2175164817178599,-1,0,0,0,0,0,1557,1442,1536,1354,1404,1595
1747542509.0963194,0.05,-0.22,-0.17,-0.5279620987282847,-0.05672320068981571,0.8355763793922852,2.018388669827368,-0.3958174071930981,-1.2840470088674159,-1,0,0,0,0,0,1557,1442,1536,1354,1404,1595
1747542509.1962266,0.05,-0.22,-0.17,-0.5279620987282847,-0.05672320068981571,0.8355763793922852,2.018388669827368,-0.3958174071930981,-1.2840470088674159,-1,0,0,0,0,0,1557,1442,1536,1354,1404,1595
1747542509.2956874,0.21,-0.19,-0.26,-0.5617778529856748,-0.05235987755982989,0.8355763793922852,1.963416884400462,-0.5107324079374211,-1.3518703222243396,-1,0,0,0,0,0,1557,1442,1536,1354,1404,1595
1747542509.3964405,0.1,-0.17,-0.33,-0.6163193921104976,-0.0545415391248228,0.8355763793922852,1.909395818922971,-0.6217453599797185,-1.411415023315395,0,0,0,0,0,0,1517,1482,1500,1394,1444,1555
1747542509.4799373,0.1,-0.17,-0.33,-0.6163193921104976,-0.0545415391248228,0.8355763793922852,1.909395818922971,-0.6217453599797185,-1.411415023315395,0,0,0,0,0,0,1500,1500,1500,1434,1484,1515
1747542509.5795116,0.05,0.14,-0.14,-0.6152285613280012,-0.04908738521234052,0.7624907169650227,1.8501893718467985,-0.741086619707387,-1.4715089392412926,0,-8.20349,0,0,0,0,1460,1460,1460,1474,1500,1500
1747542509.678748,0.05,0.14,-0.14,-0.6152285613280012,-0.04908738521234052,0.7624907169650227,1.8501893718467985,-0.741086619707387,-1.4715089392412926,0,-12.5,0,0,0,-0.008217,1420,1420,1420,1500,1500,1500
1747542509.779559,-0.21,0.11,-0.29,-0.43960480534607177,-0.061086523819801536,0.48978302134090873,1.8088128000984867,-0.8279294626233638,-1.5207488252558885,0,-12.5,0,0,0,-0.035101,1380,1380,1384,1500,1500,1500
1747542509.8816576,-0.56,0.23,-0.21,-0.4276056667386107,-0.08726646259971647,0.24870941840919197,1.7758384687636455,-0.8730959504010726,-1.56187602069606,0,-12.5,0,0,0,-0.040469,1354,1359,1384,1500,1500,1500
1747542509.9644973,-0.56,0.23,-0.21,-0.4276056667386107,-0.08726646259971647,0.24870941840919197,1.7758384687636455,-0.8730959504010726,-1.56187602069606,0,-12.5,0,0,0,-0.040469,1354,1359,1384,1500,1500,1500
1747542510.0638175,-0.6900000000000001,-0.04,-0.07,-0.43960480534607177,-0.07308566242726255,0.09053895494720585,1.737840413734871,-0.8913374195380211,-1.5959097382024332,0,-12.5,0,0,0,-0.040469,1354,1359,1384,1500,1500,1500
1747542510.1626582,-0.6900000000000001,-0.04,-0.07,-0.43960480534607177,-0.07308566242726255,0.09053895494720585,1.737840413734871,-0.8913374195380211,-1.5959097382024332,0,-12.5,0,0,0,-0.040469,1354,1359,1384,1500,1500,1500
1747542510.2459648,-0.65,0.05,-0.35000000000000003,-0.48978302134090873,0.001090830782496456,0.00545415391248228,1.6801726886750277,-0.8867270002412443,-1.606858644660832,0,-12.5,0,0,0,-0.040469,1354,1359,1384,1500,1500,1500
1747542510.3465083,-0.15,-0.09,-0.14,-0.43524148221608594,0.05126904677733343,-0.04690572364734761,1.6110792153511015,-0.879471055474042,-1.6075012398652797,0,-12.5,0,0,0,-0.040469,1354,1359,1384,1500,1500,1500
1747542510.445789,-0.15,-0.09,-0.14,-0.43524148221608594,0.05126904677733343,-0.04690572364734761,1.6110792153511015,-0.879471055474042,-1.6075012398652797,0,-12.5,0,0,0,-0.040469,1354,1359,1384,1500,1500,1500
1747542510.5457149,-0.06,0.0,-0.45,-0.3839724354387525,0.12980886311707826,-0.09272061651219876,1.53791055189694,-0.8679879542009038,-1.587743922035794,0,-12.5,0,0,0,-0.040469,1354,1359,1384,1500,1500,1500
1747542510.6435623,-0.19,-0.11,-0.29,-0.3392483733563978,0.18871372537188688,-0.12217304763960307,1.4554910011458004,-0.8481147745726536,-1.5519563754473233,0,-12.5,0,0,0,-0.040469,1354,1359,1384,1500,1500,1500
1747542510.7294323,-0.19,-0.11,-0.29,-0.3392483733563978,0.18871372537188688,-0.12217304763960307,1.4554910011458004,-0.8481147745726536,-1.5519563754473233,0,-12.5,0,0,0,-0.040469,1354,1359,1384,1500,1500,1500
1747542510.829378,-0.2,-0.18,-0.08,-0.3043417883165112,0.23561944901923448,-0.12435470920459599,1.375271868343163,-0.8236187505015172,-1.5093401949315877,0,-12.5,0,0,0,-0.040469,1354,1359,1384,1500,1500,1500
1747542510.9289083,-0.2,-0.18,-0.08,-0.3043417883165112,0.23561944901923448,-0.12435470920459599,1.375271868343163,-0.8236187505015172,-1.5093401949315877,0,-12.5,0,0,0,-0.040469,1354,1359,1384,1500,1500,1500
1747542511.012882,-0.16,0.01,-0.11,-0.2781618495365963,0.24652775684419906,-0.11235557059713497,1.297042270587885,-0.7979956942113289,-1.4622648123920492,0,-12.5,0,0,0,-0.040469,1354,1359,1384,1500,1500,1500
1747542511.1125457,-0.16,0.01,-0.11,-0.2781618495365963,0.24652775684419906,-0.11235557059713497,1.297042270587885,-0.7979956942113289,-1.4622648123920492,0,-12.5,0,0,0,-0.040469,1354,1359,1384,1500,1500,1500
1747542511.1961703,-0.1,-0.22,-0.1,-0.2792526803190927,0.22907446432425577,-0.09926560120717749,1.2245482552610951,-0.7707231109572156,-1.4199752307552254,0,-12.5,0,0,0,-0.040469,1354,1359,1384,1500,1500,1500
1747542511.295802,-0.09,-0.22,-0.15,-0.2748893571891069,0.20289452554434081,-0.08508480103472356,1.162775818933588,-0.7465608961336417,-1.3875498791276364,0,-12.5,0,0,0,-0.040469,1354,1359,1384,1500,1500,1500
1747542511.3953147,-0.09,-0.22,-0.15,-0.2748893571891069,0.20289452554434081,-0.08508480103472356,1.162775818933588,-0.7465608961336417,-1.3875498791276364,0,-12.5,0,0,0,-0.040469,1354,1359,1384,1500,1500,1500
1747542511.4792967,-0.07,-0.28,-0.19,-0.2585268954516601,0.15489797111449674,-0.07417649320975901,1.1083383239869533,-0.7253041217458968,-1.36249052874499,0,-12.5,0,0,0,-0.040469,1354,1359,1384,1500,1500,1500
1747542511.531399,-0.07,-0.28,-0.19,-0.2585268954516601,0.15489797111449674,-0.07417649320975901,1.1083383239869533,-0.7253041217458968,-1.36249052874499,0,-12.5,0,0,0,-0.040469,1354,1359,1384,1500,1500,1500
1747542511.5799356,-0.19,-0.12,-0.31,-0.2279836335417593,0.10581058590215622,-0.06981317007977318,1.059008640581794,-0.7049266493499592,-1.3470805697405446,0,-12.5,0,0,0,-0.040469,1354,1359,1384,1500,1500,1500
1747542511.6289172,-0.08,-0.21,-0.23,-0.23452861823673804,0.11126473981463851,-0.07090400086226964,1.0615341124461315,-0.7058761355317011,-1.34781149133913,0,-12.5,0,0,0,-0.040469,1354,1359,1384,1500,1500,1500
1747542511.6790738,-0.08,-0.21,-0.23,-0.23452861823673804,0.11126473981463851,-0.07090400086226964,1.0615341124461315,-0.7058761355317011,-1.34781149133913,0,-12.5,0,0,0,-0.040469,1354,1359,1384,1500,1500,1500
1747542511.7130675,-0.24,-0.22,-0.26,-0.2007128639793479,0.07963064712224129,-0.055632369907319255,1.0304852233311197,-0.6938639890754237,-1.3403192585679553,0,-12.5,0,0,0,-0.040469,1354,1359,1384,1500,1500,1500
1747542511.7796595,-0.16,-0.09,-0.25,-0.18544123302439752,0.07635815477475191,-0.05672320068981571,1.0220498929869555,-0.6906902772716443,-1.3384938358408562,0,-12.5,0,0,0,-0.040469,1354,1359,1384,1500,1500,1500
1747542511.8124678,-0.16,-0.09,-0.25,-0.18544123302439752,0.07635815477475191,-0.05672320068981571,1.0220498929869555,-0.6906902772716443,-1.3384938358408562,0,-12.5,0,0,0,-0.040469,1354,1359,1384,1500,1500,1500
1747542511.8692396,-0.07,-0.19,-0.22,-0.15817046346198613,0.061086523819801536,-0.05345070834232634,1.001471921913303,-0.682390721412784,-1.3348199131091365,0,-12.5,0,0,0,-0.040469,1354,1359,1384,1500,1500,1500
1747542511.912611,-0.07,-0.19,-0.22,-0.15817046346198613,0.061086523819801536,-0.05345070834232634,1.001471921913303,-0.682390721412784,-1.3348199131091365,0,-12.5,0,0,0,-0.040469,1354,1359,1384,1500,1500,1500
1747542511.9634101,-0.19,-0.2,-0.12,-0.14944381720201447,0.05890486225480862,-0.04363323129985824,0.9932200992765955,-0.6789061118034152,-1.3332513468647087,0,-12.5,0,0,0,-0.040469,1354,1359,1384,1500,1500,1500
1747542511.996035,-0.19,-0.2,-0.12,-0.14944381720201447,0.05890486225480862,-0.04363323129985824,0.9932200992765955,-0.6789061118034152,-1.3332513468647087,0,-12.5,0,0,0,-0.040469,1354,1359,1384,1500,1500,1500
1747542512.06263,-0.17,-0.32,-0.14,-0.1461713248545251,0.050178215994836975,-0.016362461737446838,0.9758007182541242,-0.6735992246189717,-1.3294940601610103,0,-12.5,0,0,0,-0.040469,1354,1359,1384,1500,1500,1500
1747542512.0962043,-0.07,-0.08,-0.1,-0.14508049407202864,0.04036073895236887,-0.002181661564992912,0.965792990777839,-0.6720775664634496,-1.326924642256419,0,-12.5,0,0,0,-0.040469,1354,1359,1384,1500,1500,1500
1747542512.163079,-0.07,-0.08,-0.1,-0.14508049407202864,0.04036073895236887,-0.002181661564992912,0.965792990777839,-0.6720775664634496,-1.326924642256419,0,-12.5,0,0,0,-0.040469,1354,1359,1384,1500,1500,1500
1747542512.196587,0.28,-0.2,0.0,-0.13526301702956053,0.03599741582238305,0.031634092692397225,0.9506690095249664,-0.67217887553716,-1.3220239117652617,0,-12.5,0,0,0,-0.040469,1354,1359,1384,1500,1500,1500
1747542512.2462108,0.29,-0.14,0.01,-0.1308996938995747,0.03381575425739013,0.039269908169872414,0.9407202450024998,-0.6740890436743077,-1.318432998165511,0,-12.5,0,0,0,-0.040469,1354,1359,1384,1500,1500,1500
1747542512.2960217,0.29,-0.14,0.01,-0.1308996938995747,0.03381575425739013,0.039269908169872414,0.9407202450024998,-0.6740890436743077,-1.318432998165511,0,-12.5,0,0,0,-0.040469,1354,1359,1384,1500,1500,1500
1747542512.3460667,0.13,-0.14,-0.17,-0.11453723216212788,0.020725784867432664,0.04908738521234052,0.9252207181690438,-0.6788313650953768,-1.3123464324032346,0,-12.5,0,0,0,-0.040469,1354,1359,1384,1500,1500,1500
1747542512.3963037,0.09,-0.19,-0.13,-0.11235557059713497,0.013089969389957472,0.050178215994836975,0.9165717527028592,-0.6815466528027604,-1.3090907104078966,0,-12.5,0,0,0,-0.040469,1354,1359,1384,1500,1500,1500
1747542512.4461012,0.09,-0.19,-0.13,-0.11235557059713497,0.013089969389957472,0.050178215994836975,0.9165717527028592,-0.6815466528027604,-1.3090907104078966,0,-10.332679,0,0,0,-0.040469,1354,1359,1384,1500,1500,1500
1747542512.4796615,0.09,-0.19,-0.13,-0.11235557059713497,0.013089969389957472,0.050178215994836975,0.9165717527028592,-0.6815466528027604,-1.3090907104078966,0,-8.541315,0,0,0,-0.040469,1354,1359,1384,1500,1500,1500
1747542512.5457382,0.26,-0.3,-0.15,-0.10035643198967395,-0.013089969389957472,0.06763150851478027,0.9038670530219662,-0.6878816683529192,-1.305140486697826,0,-0.194868,0,0,0,0,1394,1399,1424,1500,1500,1500
1747542512.5796885,0.23,-0.22,-0.12,-0.10144726277217041,-0.018544123302439753,0.07744898555724837,0.8966572848296224,-0.6925023779804708,-1.302942333148816,0,0,0,0,0,0,1434,1439,1464,1500,1500,1500
1747542512.645929,0.23,-0.22,-0.12,-0.10144726277217041,-0.018544123302439753,0.07744898555724837,0.8966572848296224,-0.6925023779804708,-1.302942333148816,0,0,0,0,-0.02094,0,1474,1479,1500,1500,1500,1500
1747542512.6798122,0.66,0.0,-0.29,-0.08617563181722002,-0.04036073895236887,0.08290313946973066,0.885575374089389,-0.7023606832232744,-1.2998510470060243,0,0,0,0,-0.06899,0,1500,1500,1500,1500,1500,1500
1747542512.7291443,0.9400000000000001,-0.24,-0.25,-0.04908738521234052,-0.0545415391248228,0.09817477042468103,0.8804205670444285,-0.7083190427325894,-1.2981009297182002,0,0,0,0.000215,-0.206918,0,1536,1536,1463,1500,1460,1540
1747542512.778872,0.9400000000000001,-0.24,-0.25,-0.04908738521234052,-0.0545415391248228,0.09817477042468103,0.8804205670444285,-0.7083190427325894,-1.2981009297182002,0,0,0,0.001252,-0.235675,0,1536,1536,1463,1500,1420,1580
1747542512.8281128,0.4,-0.12,-0.03,0.037088246604879506,-0.09708393964218458,0.11235557059713497,0.8808408143072599,-0.7349070667783743,-1.297620711519237,0,0,0,0,-0.235675,0,1536,1536,1464,1500,1380,1620
1747542512.87123,0.72,0.03,-0.01,0.07744898555724837,-0.1189005552921137,0.11017390903214205,0.8852839568811482,-0.7471164305402912,-1.2987122017561998,0,0,0,0,-0.239935,0,1536,1536,1464,1500,1369,1630
1747542512.9290414,0.72,0.03,-0.01,0.07744898555724837,-0.1189005552921137,0.11017390903214205,0.8852839568811482,-0.7471164305402912,-1.2987122017561998,0,0,0,0,-0.266302,0,1536,1536,1464,1500,1359,1640
1747542512.9626083,0.72,0.03,-0.01,0.07744898555724837,-0.1189005552921137,0.11017390903214205,0.8852839568811482,-0.7471164305402912,-1.2987122017561998,0,0,0,0,-0.275396,0,1536,1536,1464,1500,1355,1644
1747542513.0240731,-0.05,-0.09,-0.19,0.030543261909900768,-0.1734420944169365,0.10362892433716332,0.9051426982608045,-0.7742472957537457,-1.3080095941038747,0,0,0,0,-0.28,0,1536,1536,1464,1500,1354,1645
1747542513.0621703,-0.05,-0.09,-0.19,0.030543261909900768,-0.1734420944169365,0.10362892433716332,0.9051426982608045,-0.7742472957537457,-1.3080095941038747,0,0,0,0,-0.28,0,1536,1536,1464,1500,1354,1645
1747542513.1244607,0.55,0.7000000000000001,-0.29,-0.26070855701665296,-0.21271200258680892,0.05672320068981571,0.9109185488723285,-0.7937141061333451,-1.324134210438926,0,0,0,0,-0.28,0,1536,1536,1464,1500,1354,1645
1747542513.1622653,0.55,0.7000000000000001,-0.29,-0.26070855701665296,-0.21271200258680892,0.05672320068981571,0.9109185488723285,-0.7937141061333451,-1.324134210438926,0,0,0,0,-0.28,0,1536,1536,1464,1500,1354,1645
1747542513.212494,0.46,0.56,-0.19,-0.9228428419920017,-0.23343778745424157,0.009817477042468103,0.8843362656071336,-0.8031553187801261,-1.3385046535166822,0,0,0,0,-0.28,0,1536,1536,1464,1500,1354,1645
1747542513.2448518,0.46,0.56,-0.19,-0.9228428419920017,-0.23343778745424157,0.009817477042468103,0.8843362656071336,-0.8031553187801261,-1.3385046535166822,0,0,0,0,-0.28,0,1536,1536,1464,1500,1354,1645
