time,ay,ax,az,gy,gx,gz,roll,pitch,yaw,cmd_fx,cmd_fy,cmd_fz,cmd_tx,cmd_ty,cmd_tz,pwm_1,pwm_2,pwm_3,pwm_4,pwm_5,pwm_6
1747553154.5322962,0.0,0.0,0.0,0.0,0.0,0.0,0.0,0.0,0.0,0,0,0,0,0,0,1500,1500,1500,1500,1500,1500
1747553154.6299815,0.04,0.0,-0.28,0.0,-0.001090830782496456,0.001090830782496456,-0.01849017698181941,0.09048366545546827,-0.000837077178360741,0,0,0,0,0,0,1500,1500,1500,1500,1500,1500
1747553154.7144709,0.04,0.0,-0.28,0.0,-0.001090830782496456,0.001090830782496456,-0.01849017698181941,0.09048366545546827,-0.000837077178360741,0,0,0,0,0,0,1500,1500,1500,1500,1500,1500
1747553154.8132887,0.03,0.02,-0.39,0.001090830782496456,0.0,0.0,-0.01849017698181941,0.09048366545546827,-0.000837077178360741,0,0,0,0,0,0,1500,1500,1500,1500,1500,1500
1747553154.9128215,0.03,0.02,-0.39,0.001090830782496456,0.0,0.0,-0.01849017698181941,0.09048366545546827,-0.000837077178360741,0,0,0,0,0,0,1500,1500,1500,1500,1500,1500
1747553154.9971356,0.04,-0.01,-0.32,-0.004363323129985824,-0.00545415391248228,0.0,-0.01849017698181941,0.09048366545546827,-0.000837077178360741,0,0,0,0,0,0,1500,1500,1500,1500,1500,1500
1747553155.0972736,0.06,0.0,-0.36,-0.003272492347489368,-0.001090830782496456,0.001090830782496456,-0.01849017698181941,0.09048366545546827,-0.000837077178360741,0,0,0,0,0,0,1500,1500,1500,1500,1500,1500
1747553155.17924,0.06,0.0,-0.36,-0.003272492347489368,-0.001090830782496456,0.001090830782496456,-0.01849017698181941,0.09048366545546827,-0.000837077178360741,0,0,0,0,0,0,1500,1500,1500,1500,1500,1500
1747553155.2803502,0.05,0.0,-0.31,0.003272492347489368,-0.001090830782496456,0.0,-0.01849017698181941,0.09048366545546827,-0.000837077178360741,0,0,0,0,0,0,1500,1500,1500,1500,1500,1500
1747553155.380258,0.05,0.0,-0.31,0.003272492347489368,-0.001090830782496456,0.0,-0.01849017698181941,0.09048366545546827,-0.000837077178360741,0,0,0,0,0,0,1500,1500,1500,1500,1500,1500
1747553155.4638429,0.02,0.0,-0.37,-0.001090830782496456,-0.004363323129985824,0.001090830782496456,-0.01849017698181941,0.09048366545546827,-0.000837077178360741,0,0,0,0,0,0,1500,1500,1500,1500,1500,1500
1747553155.563179,0.01,0.01,-0.31,-0.003272492347489368,0.0,0.0,-0.01849017698181941,0.09048366545546827,-0.000837077178360741,0,0,0,0,0,0,1500,1500,1500,1500,1500,1500
1747553155.6631565,0.01,0.01,-0.31,-0.003272492347489368,0.0,0.0,-0.01849017698181941,0.09048366545546827,-0.000837077178360741,0,0,0,0,0,0,1500,1500,1500,1500,1500,1500
1747553155.762571,0.05,-0.01,-0.34,0.001090830782496456,0.004363323129985824,0.001090830782496456,-0.01849017698181941,0.09048366545546827,-0.000837077178360741,0,0,0,0,0,0,1500,1500,1500,1500,1500,1500
1747553155.861266,0.06,0.0,-0.4,0.002181661564992912,0.002181661564992912,0.0,-0.01849017698181941,0.09048366545546827,-0.000837077178360741,0,0,0,0,0,0,1500,1500,1500,1500,1500,1500
1747553155.9467306,0.06,0.0,-0.4,0.002181661564992912,0.002181661564992912,0.0,-0.01849017698181941,0.09048366545546827,-0.000837077178360741,0,0,0,0,0,0,1500,1500,1500,1500,1500,1500
1747553156.0465994,0.02,-0.01,-0.36,0.001090830782496456,-0.001090830782496456,0.002181661564992912,-0.01849017698181941,0.09048366545546827,-0.000837077178360741,0,0,0,0,0,0,1500,1500,1500,1500,1500,1500
1747553156.14699,0.02,-0.01,-0.36,0.001090830782496456,-0.001090830782496456,0.002181661564992912,-0.01849017698181941,0.09048366545546827,-0.000837077178360741,0,0,0,0,0,0,1500,1500,1500,1500,1500,1500
1747553156.2312732,0.05,-0.02,-0.37,-0.001090830782496456,-0.001090830782496456,-0.001090830782496456,-0.01849017698181941,0.09048366545546827,-0.000837077178360741,0,0,0,0,0,0,1500,1500,1500,1500,1500,1500
1747553156.3303976,0.05,-0.02,-0.37,-0.001090830782496456,-0.001090830782496456,-0.001090830782496456,-0.01849017698181941,0.09048366545546827,-0.000837077178360741,0,0,0,0,0,0,1500,1500,1500,1500,1500,1500
1747553156.4299514,0.03,0.0,-0.33,-0.001090830782496456,-0.002181661564992912,-0.001090830782496456,-0.01849017698181941,0.09048366545546827,-0.000837077178360741,0,0,0,0,0,0,1500,1500,1500,1500,1500,1500
1747553156.5299244,0.02,0.0,-0.36,0.002181661564992912,-0.001090830782496456,0.001090830782496456,-0.01849017698181941,0.09048366545546827,-0.000837077178360741,0,0,0,0,0,0,1500,1500,1500,1500,1500,1500
1747553156.6299827,0.02,0.0,-0.36,0.002181661564992912,-0.001090830782496456,0.001090830782496456,-0.01849017698181941,0.09048366545546827,-0.000837077178360741,0,0,0,0,0,0,1500,1500,1500,1500,1500,1500
1747553156.713812,0.04,0.0,-0.3,-0.001090830782496456,-0.001090830782496456,-0.001090830782496456,-0.01849017698181941,0.09048366545546827,-0.000837077178360741,0,0,0,0,0,0,1500,1500,1500,1500,1500,1500
1747553156.8138962,0.03,0.0,-0.38,0.0,-0.004363323129985824,0.002181661564992912,-0.01849017698181941,0.09048366545546827,-0.000837077178360741,0,0,0,0,0,0,1500,1500,1500,1500,1500,1500
1747553156.9138067,0.03,0.0,-0.38,0.0,-0.004363323129985824,0.002181661564992912,-0.01849017698181941,0.09048366545546827,-0.000837077178360741,0,0,0,0,0,0,1500,1500,1500,1500,1500,1500
1747553157.0127766,0.01,0.0,-0.33,0.001090830782496456,0.003272492347489368,-0.001090830782496456,-0.01849017698181941,0.09048366545546827,-0.000837077178360741,0,0,0,0,0,0,1500,1500,1500,1500,1500,1500
1747553157.1140342,0.01,0.0,-0.33,0.001090830782496456,0.003272492347489368,-0.001090830782496456,-0.01849017698181941,0.09048366545546827,-0.000837077178360741,0,0,0,0,0,0,1500,1500,1500,1500,1500,1500
1747553157.1964426,0.02,0.01,-0.38,0.001090830782496456,0.001090830782496456,0.0,-0.01849017698181941,0.09048366545546827,-0.000837077178360741,0,0,0,0,0,0,1500,1500,1500,1500,1500,1500
1747553157.2976673,0.05,0.0,-0.35000000000000003,0.0,0.002181661564992912,-0.001090830782496456,-0.01849017698181941,0.09048366545546827,-0.000837077178360741,0,0,0,0,0,0,1500,1500,1500,1500,1500,1500
1747553157.3967876,0.05,0.0,-0.35000000000000003,0.0,0.002181661564992912,-0.001090830782496456,-0.01849017698181941,0.09048366545546827,-0.000837077178360741,0,0,0,0,0,0,1500,1500,1500,1500,1500,1500
1747553157.4799414,0.04,0.0,-0.35000000000000003,-0.001090830782496456,-0.002181661564992912,0.001090830782496456,-0.01849017698181941,0.09048366545546827,-0.000837077178360741,0,0,0,0,0,0,1500,1500,1500,1500,1500,1500
1747553157.5803683,0.04,0.0,-0.35000000000000003,-0.001090830782496456,-0.002181661564992912,0.001090830782496456,-0.01849017698181941,0.09048366545546827,-0.000837077178360741,0,0,0,0,0,0,1500,1500,1500,1500,1500,1500
1747553157.6799304,0.04,0.0,-0.34,0.004363323129985824,0.0,-0.001090830782496456,-0.01849017698181941,0.09048366545546827,-0.000837077178360741,0,0,0,0,0,0,1500,1500,1500,1500,1500,1500
1747553157.7796276,0.03,-0.02,-0.34,-0.003272492347489368,0.001090830782496456,-0.001090830782496456,-0.01849017698181941,0.09048366545546827,-0.000837077178360741,0,0,0,0,0,0,1500,1500,1500,1500,1500,1500
1747553157.8809485,0.03,-0.02,-0.34,-0.003272492347489368,0.001090830782496456,-0.001090830782496456,-0.01849017698181941,0.09048366545546827,-0.000837077178360741,0,0,0,0,0,0,1500,1500,1500,1500,1500,1500
1747553157.963866,0.05,0.0,-0.37,0.002181661564992912,0.002181661564992912,0.002181661564992912,-0.01849017698181941,0.09048366545546827,-0.000837077178360741,0,0,0,0,0,0,1500,1500,1500,1500,1500,1500
1747553158.0646393,0.05,0.0,-0.37,0.002181661564992912,0.002181661564992912,0.002181661564992912,-0.01849017698181941,0.09048366545546827,-0.000837077178360741,0,0,0,0,0,0,1500,1500,1500,1500,1500,1500
1747553158.1496537,0.03,0.0,-0.32,0.002181661564992912,0.002181661564992912,-0.001090830782496456,-0.01849017698181941,0.09048366545546827,-0.000837077178360741,0,0,0,0,0,0,1500,1500,1500,1500,1500,1500
1747553158.2487721,0.02,0.0,-0.35000000000000003,0.001090830782496456,0.002181661564992912,-0.002181661564992912,-0.01849017698181941,0.09048366545546827,-0.000837077178360741,0,0,0,0,0,0,1500,1500,1500,1500,1500,1500
1747553158.3491066,0.02,0.0,-0.35000000000000003,0.001090830782496456,0.002181661564992912,-0.002181661564992912,-0.01849017698181941,0.09048366545546827,-0.000837077178360741,0,0,0,0,0,0,1500,1500,1500,1500,1500,1500
1747553158.4310718,0.0,-0.01,-0.32,0.002181661564992912,0.002181661564992912,0.001090830782496456,-0.01849017698181941,0.09048366545546827,-0.000837077178360741,0,0,0,0,0,0,1500,1500,1500,1500,1500,1500
1747553158.5305974,0.0,-0.01,-0.32,0.002181661564992912,0.002181661564992912,0.001090830782496456,-0.01849017698181941,0.09048366545546827,-0.000837077178360741,0,0,0,0,0,0,1500,1500,1500,1500,1500,1500
1747553158.6311052,0.03,-0.01,-0.35000000000000003,-0.001090830782496456,0.006544984694978736,0.002181661564992912,-0.01849017698181941,0.09048366545546827,-0.000837077178360741,0,0,0,0,0,0,1500,1500,1500,1500,1500,1500
1747553158.7140799,0.03,-0.02,-0.31,0.0,0.001090830782496456,-0.002181661564992912,-0.01849017698181941,0.09048366545546827,-0.000837077178360741,0,-0.194868,0,0,0,0,1500,1500,1500,1500,1500,1500
1747553158.813889,0.03,-0.02,-0.31,0.0,0.001090830782496456,-0.002181661564992912,-0.01849017698181941,0.09048366545546827,-0.000837077178360741,0,-0.345023,0,0,0,0,1500,1500,1500,1500,1500,1500
1747553158.9142776,0.03,0.0,-0.36,0.001090830782496456,0.0,0.002181661564992912,-0.01849017698181941,0.09048366545546827,-0.000837077178360741,0,-0.455564,0,0,0,0,1500,1500,1500,1500,1500,1500
1747553159.0138862,0.03,0.0,-0.36,0.001090830782496456,0.0,0.002181661564992912,-0.01849017698181941,0.09048366545546827,-0.000837077178360741,0,-0.992096,0,0,0,0,1500,1500,1500,1500,1500,1500
1747553159.113061,0.02,0.0,-0.34,0.004363323129985824,0.002181661564992912,0.0,-0.01849017698181941,0.09048366545546827,-0.000837077178360741,0,-1.051097,0,0,0,0,1500,1500,1500,1500,1500,1500
1747553159.1970024,0.0,0.0,-0.32,0.001090830782496456,0.002181661564992912,-0.001090830782496456,-0.01849017698181941,0.09048366545546827,-0.000837077178360741,0,-2.140585,0,0,0,0,1460,1460,1460,1500,1500,1500
1747553159.2975903,0.0,0.0,-0.32,0.001090830782496456,0.002181661564992912,-0.001090830782496456,-0.01849017698181941,0.09048366545546827,-0.000837077178360741,0,-4.071015,0,0,0,0,1446,1447,1452,1500,1500,1500
1747553159.3974118,0.01,0.02,-0.35000000000000003,0.004363323129985824,-0.002181661564992912,0.002181661564992912,-0.01849017698181941,0.09048366545546827,-0.000837077178360741,0,-4.189658,0,0,0,0,1446,1447,1452,1500,1500,1500
1747553159.4813364,0.01,0.02,-0.35000000000000003,0.004363323129985824,-0.002181661564992912,0.002181661564992912,-0.01849017698181941,0.09048366545546827,-0.000837077178360741,0,-4.937296,0,0,0,0,1443,1444,1449,1500,1500,1500
1747553159.5805898,0.3,-0.22,-0.36,-0.00545415391248228,-0.001090830782496456,0.009817477042468103,-0.01849017698181941,0.09048366545546827,-0.000837077178360741,0,-5.887076,0,0,0,0,1439,1440,1446,1500,1500,1500
1747553159.6798043,-0.09,0.07,-0.3,0.003272492347489368,0.007635815477475192,0.002181661564992912,-0.01849017698181941,0.09048366545546827,-0.000837077178360741,0,-7.709534,0,0,0,0,1431,1432,1440,1500,1500,1500
1747553159.7801769,-0.09,0.07,-0.3,0.003272492347489368,0.007635815477475192,0.002181661564992912,-0.01849017698181941,0.09048366545546827,-0.000837077178360741,0,-12.5,0,0,0,0,1413,1415,1425,1500,1500,1500
1747553159.8798702,0.02,0.0,-0.37,0.0,0.003272492347489368,0.0,-0.01849017698181941,0.09048366545546827,-0.000837077178360741,0,-12.5,0,0,0,0,1413,1415,1425,1500,1500,1500
1747553159.9626737,0.02,0.0,-0.37,0.0,0.003272492347489368,0.0,-0.01849017698181941,0.09048366545546827,-0.000837077178360741,0,-12.5,0,0,0,0,1413,1415,1425,1500,1500,1500
1747553160.0626855,0.01,-0.1,-0.3,-0.002181661564992912,0.003272492347489368,0.0,-0.01849017698181941,0.09048366545546827,-0.000837077178360741,0,0,0,0,0,0,1453,1455,1465,1500,1500,1500
1747553160.1625068,0.06,0.17,-0.28,0.006544984694978736,-0.002181661564992912,-0.001090830782496456,-0.01849017698181941,0.09048366545546827,-0.000837077178360741,0,0,0,0,0,0,1493,1495,1500,1500,1500,1500
1747553160.2625713,0.06,0.17,-0.28,0.006544984694978736,-0.002181661564992912,-0.001090830782496456,-0.01849017698181941,0.09048366545546827,-0.000837077178360741,0,0,0,0,0,0,1500,1500,1500,1500,1500,1500
1747553160.3632085,0.02,-0.04,-0.28,-0.001090830782496456,0.004363323129985824,-0.002181661564992912,-0.01849017698181941,0.09048366545546827,-0.000837077178360741,0,0,0,0,0,0,1500,1500,1500,1500,1500,1500
1747553160.4465308,0.07,0.04,-0.36,0.004363323129985824,0.003272492347489368,0.0,-0.01849017698181941,0.09048366545546827,-0.000837077178360741,0,0,0,0,0,0,1500,1500,1500,1500,1500,1500
1747553160.5473044,0.07,0.04,-0.36,0.004363323129985824,0.003272492347489368,0.0,-0.01849017698181941,0.09048366545546827,-0.000837077178360741,0,0,0,0,0,0,1500,1500,1500,1500,1500,1500
1747553160.6469848,0.02,0.0,-0.29,0.001090830782496456,-0.002181661564992912,-0.001090830782496456,-0.01849017698181941,0.09048366545546827,-0.000837077178360741,0,0,0,0,0,0,1500,1500,1500,1500,1500,1500
1747553160.729606,0.02,0.0,-0.29,0.001090830782496456,-0.002181661564992912,-0.001090830782496456,-0.01849017698181941,0.09048366545546827,-0.000837077178360741,0,0,0,0,0,0,1500,1500,1500,1500,1500,1500
1747553160.8306396,0.02,0.0,-0.36,0.001090830782496456,-0.003272492347489368,0.0,-0.01849017698181941,0.09048366545546827,-0.000837077178360741,0,0,0,0,0,0,1500,1500,1500,1500,1500,1500
1747553160.9210591,0.03,0.0,-0.34,0.0,-0.001090830782496456,0.0,-0.01849017698181941,0.09048366545546827,-0.000837077178360741,0,0,0,0,0,0,1500,1500,1500,1500,1500,1500
1747553161.0138798,0.03,0.0,-0.34,0.0,-0.001090830782496456,0.0,-0.01849017698181941,0.09048366545546827,-0.000837077178360741,0,0,0,0,0,0,1500,1500,1500,1500,1500,1500
1747553161.1130452,0.04,-0.01,-0.36,-0.004363323129985824,0.001090830782496456,0.001090830782496456,-0.01849017698181941,0.09048366545546827,-0.000837077178360741,0,0,0,0,0,0,1500,1500,1500,1500,1500,1500
1747553161.1963568,0.04,-0.01,-0.36,-0.004363323129985824,0.001090830782496456,0.001090830782496456,-0.01849017698181941,0.09048366545546827,-0.000837077178360741,0,0,0,0,0,0,1500,1500,1500,1500,1500,1500
1747553161.29728,0.03,0.0,-0.32,0.0,0.004363323129985824,0.002181661564992912,-0.01849017698181941,0.09048366545546827,-0.000837077178360741,0,0,0,0,0,0,1500,1500,1500,1500,1500,1500
1747553161.3970466,0.03,0.0,-0.32,0.0,0.004363323129985824,0.002181661564992912,-0.01849017698181941,0.09048366545546827,-0.000837077178360741,0,-6.616611,0,0,0,0,1460,1460,1460,1500,1500,1500
1747553161.4806669,0.05,-0.02,-0.37,0.002181661564992912,0.001090830782496456,-0.003272492347489368,-0.01849017698181941,0.09048366545546827,-0.000837077178360741,0,-12.5,0,0,0,0,1420,1420,1425,1500,1500,1500
1747553161.5803537,0.05,-0.02,-0.29,0.002181661564992912,-0.001090830782496456,0.002181661564992912,-0.01849017698181941,0.09048366545546827,-0.000837077178360741,0,-12.5,0,0,0,0,1413,1415,1425,1500,1500,1500
1747553161.6800787,0.05,-0.02,-0.29,0.002181661564992912,-0.001090830782496456,0.002181661564992912,-0.01849017698181941,0.09048366545546827,-0.000837077178360741,0,-12.5,0,0,0,0,1413,1415,1425,1500,1500,1500
1747553161.7809367,-0.12,0.42,-0.38,0.0,-0.002181661564992912,0.0,-0.01849017698181941,0.09048366545546827,-0.000837077178360741,0,-12.5,0,0,0,0,1413,1415,1425,1500,1500,1500
1747553161.880251,0.09,-0.04,-0.33,0.001090830782496456,-0.006544984694978736,-0.003272492347489368,-0.01848463437208666,0.0904847951144668,-0.0007146326875985142,0,-12.5,0,0,0,0,1413,1415,1425,1500,1500,1500
1747553161.9641666,0.09,-0.04,-0.33,0.001090830782496456,-0.006544984694978736,-0.003272492347489368,-0.01848463437208666,0.0904847951144668,-0.0007146326875985142,0,-12.5,0,0,0,0,1413,1415,1425,1500,1500,1500
1747553162.06393,0.06,-0.1,-0.35000000000000003,-0.003272492347489368,0.001090830782496456,0.001090830782496456,-0.01848463437208666,0.0904847951144668,-0.0007146326875985142,0,-12.5,0,0,0,0,1413,1415,1425,1500,1500,1500
1747553162.1633372,0.06,-0.1,-0.35000000000000003,-0.003272492347489368,0.001090830782496456,0.001090830782496456,-0.01848463437208666,0.0904847951144668,-0.0007146326875985142,0,-12.5,0,0,0,0,1413,1415,1425,1500,1500,1500
1747553162.246086,0.06,0.03,-0.34,-0.001090830782496456,-0.003272492347489368,0.001090830782496456,-0.01848463437208666,0.0904847951144668,-0.0007146326875985142,0,-7.872483,0,0,0,0,1431,1432,1440,1500,1500,1500
1747553162.343894,-0.02,1.41,-0.2,0.006544984694978736,0.001090830782496456,-0.003272492347489368,-0.01848463437208666,0.0904847951144668,-0.0007146326875985142,0,0,0,0,0,0,1471,1472,1480,1500,1500,1500
1747553162.4303954,-0.02,1.41,-0.2,0.006544984694978736,0.001090830782496456,-0.003272492347489368,-0.01848463437208666,0.0904847951144668,-0.0007146326875985142,0,0,0,0,0,0,1500,1500,1500,1500,1500,1500
1747553162.5305262,-0.02,0.18,-0.4,-0.001090830782496456,-0.003272492347489368,0.003272492347489368,-0.01848463437208666,0.0904847951144668,-0.0007146326875985142,0,0,0,0,0,0,1500,1500,1500,1500,1500,1500
1747553162.62977,-0.02,0.18,-0.4,-0.001090830782496456,-0.003272492347489368,0.003272492347489368,-0.01848463437208666,0.0904847951144668,-0.0007146326875985142,0,0,0,0,0,0,1500,1500,1500,1500,1500,1500
1747553162.7136197,-0.01,0.0,-0.28,-0.001090830782496456,-0.004363323129985824,-0.001090830782496456,-0.01848463437208666,0.0904847951144668,-0.0007146326875985142,0,-0.105417,0,0,0,0,1500,1500,1500,1500,1500,1500
1747553162.813233,0.02,-0.03,-0.37,0.001090830782496456,0.001090830782496456,0.002181661564992912,-0.01848463437208666,0.0904847951144668,-0.0007146326875985142,0,-9.415697,0,0,0,0,1460,1460,1460,1500,1500,1500
1747553162.9124434,0.02,-0.03,-0.37,0.001090830782496456,0.001090830782496456,0.002181661564992912,-0.01848463437208666,0.0904847951144668,-0.0007146326875985142,0,-12.5,0,0,0,0,1420,1420,1425,1500,1500,1500
1747553163.012654,0.03,0.0,-0.33,0.0,-0.001090830782496456,0.0,-0.01848463437208666,0.0904847951144668,-0.0007146326875985142,0,-12.5,0,0,0,0,1413,1415,1425,1500,1500,1500
1747553163.113094,0.03,0.0,-0.33,0.0,-0.001090830782496456,0.0,-0.01848463437208666,0.0904847951144668,-0.0007146326875985142,0,-12.5,0,0,0,0,1413,1415,1425,1500,1500,1500
1747553163.1972365,-0.11,-0.11,-0.21,-0.00545415391248228,-0.003272492347489368,0.003272492347489368,-0.01848463437208666,0.0904847951144668,-0.0007146326875985142,0,-12.5,0,0,0,0,1413,1415,1425,1500,1500,1500
1747553163.2970533,0.1,-0.09,-0.3,-0.001090830782496456,-0.003272492347489368,0.002181661564992912,-0.01848463437208666,0.0904847951144668,-0.0007146326875985142,0,-12.5,0,0,0,0,1413,1415,1425,1500,1500,1500
1747553163.3961227,0.1,-0.09,-0.3,-0.001090830782496456,-0.003272492347489368,0.002181661564992912,-0.01848463437208666,0.0904847951144668,-0.0007146326875985142,0,-12.5,0,0,0,0,1413,1415,1425,1500,1500,1500
1747553163.4803536,0.01,0.02,-0.37,0.008726646259971648,-0.004363323129985824,-0.003272492347489368,-0.01848463437208666,0.0904847951144668,-0.0007146326875985142,0,-12.5,0,0,0,0,1413,1415,1425,1500,1500,1500
1747553163.5801528,0.01,0.02,-0.37,0.008726646259971648,-0.004363323129985824,-0.003272492347489368,-0.01848463437208666,0.0904847951144668,-0.0007146326875985142,0,-12.5,0,0,0,0,1413,1415,1425,1500,1500,1500
1747553163.6797605,0.06,-0.11,-0.26,-0.004363323129985824,-0.006544984694978736,0.004363323129985824,-0.018607099890928167,0.09048480259565261,-0.0007201762435542491,0,-12.5,0,0,0,0,1413,1415,1425,1500,1500,1500
1747553163.7803059,0.03,0.14,-0.4,0.007635815477475192,0.003272492347489368,-0.003272492347489368,-0.0183621691287545,0.09048478763328101,-0.0007090891315988566,0,-12.5,0,0,0,0,1413,1415,1425,1500,1500,1500
1747553163.8797922,0.03,0.14,-0.4,0.007635815477475192,0.003272492347489368,-0.003272492347489368,-0.0183621691287545,0.09048478763328101,-0.0007090891315988566,0,-0.125224,0,0,0,0,1453,1455,1465,1500,1500,1500
1747553163.962354,-0.05,-0.03,-0.29,0.002181661564992912,-0.006544984694978736,0.001090830782496456,-0.0183621691287545,0.09048478763328101,-0.0007090891315988566,0,0,0,0,0,0,1493,1495,1500,1500,1500,1500
1747553164.0624027,-0.05,-0.03,-0.29,0.002181661564992912,-0.006544984694978736,0.001090830782496456,-0.0183621691287545,0.09048478763328101,-0.0007090891315988566,0,0,0,0,0,0,1500,1500,1500,1500,1500,1500
1747553164.1623318,0.07,0.22,-0.34,0.003272492347489368,-0.002181661564992912,-0.011999138607461015,-0.01861264248804335,0.09048366545546827,-0.0008426207332179742,0,0,0,0,0,0,1500,1500,1500,1500,1500,1500
1747553164.263922,0.12,-0.04,-0.32,-0.002181661564992912,0.002181661564992912,0.001090830782496456,-0.01861818508401483,0.09048252831540125,-0.000965065210223054,0,0,0,0,0,0,1500,1500,1500,1500,1500,1500
1747553164.3623588,0.12,-0.04,-0.32,-0.002181661564992912,0.002181661564992912,0.001090830782496456,-0.01861818508401483,0.09048252831540125,-0.000965065210223054,0,0,0,0,0,0,1500,1500,1500,1500,1500,1500
1747553164.446465,0.01,0.0,-0.32,0.0,-0.00545415391248228,0.001090830782496456,-0.01861818508401483,0.09048252831540125,-0.000965065210223054,0,0,0,0,0,0,1500,1500,1500,1500,1500,1500
1747553164.5467098,0.01,0.0,-0.32,0.0,-0.00545415391248228,0.001090830782496456,-0.01861818508401483,0.09048252831540125,-0.000965065210223054,0,0,0,0,0,0,1500,1500,1500,1500,1500,1500
1747553164.646707,0.04,0.01,-0.37,-0.001090830782496456,0.0,-0.001090830782496456,-0.01861818508401483,0.09048252831540125,-0.000965065210223054,0,0,0,0,0,0,1500,1500,1500,1500,1500,1500
1747553164.7300358,0.03,0.0,-0.35000000000000003,0.002181661564992912,0.001090830782496456,0.001090830782496456,-0.01861818508401483,0.09048252831540125,-0.000965065210223054,0,0,0,0,0,0,1500,1500,1500,1500,1500,1500
1747553164.8304205,0.03,0.0,-0.35000000000000003,0.002181661564992912,0.001090830782496456,0.001090830782496456,-0.01861818508401483,0.09048252831540125,-0.000965065210223054,0,0,0,0,0,0,1500,1500,1500,1500,1500,1500
1747553164.930136,0.02,0.0,-0.33,-0.001090830782496456,0.001090830782496456,0.0,-0.01861818508401483,0.09048252831540125,-0.000965065210223054,0,0,0,0,0,0,1500,1500,1500,1500,1500,1500
1747553165.030234,0.0,0.02,-0.28,0.003272492347489368,-0.002181661564992912,0.001090830782496456,-0.01861818508401483,0.09048252831540125,-0.000965065210223054,0,0,0,0,0,0,1500,1500,1500,1500,1500,1500
1747553165.1303492,0.0,0.02,-0.28,0.003272492347489368,-0.002181661564992912,0.001090830782496456,-0.01861818508401483,0.09048252831540125,-0.000965065210223054,0,0,0,0,0,0,1500,1500,1500,1500,1500,1500
1747553165.2125564,0.03,0.03,-0.34,0.001090830782496456,0.001090830782496456,-0.001090830782496456,-0.01861818508401483,0.09048252831540125,-0.000965065210223054,0,0,0,0,0,0,1500,1500,1500,1500,1500,1500
1747553165.313979,0.03,0.03,-0.34,0.001090830782496456,0.001090830782496456,-0.001090830782496456,-0.01861818508401483,0.09048252831540125,-0.000965065210223054,0,0,0,0,0,0,1500,1500,1500,1500,1500,1500
1747553165.4126499,0.05,0.0,-0.37,-0.002181661564992912,-0.001090830782496456,0.0,-0.01861818508401483,0.09048252831540125,-0.000965065210223054,0,0,0,0,0,0,1500,1500,1500,1500,1500,1500
1747553165.4967442,0.05,0.0,-0.37,-0.002181661564992912,-0.001090830782496456,0.0,-0.01861818508401483,0.09048252831540125,-0.000965065210223054,0,0,0,0,0,0,1500,1500,1500,1500,1500,1500
1747553165.596422,0.01,0.0,-0.34,-0.002181661564992912,-0.001090830782496456,0.0,-0.01861818508401483,0.09048252831540125,-0.000965065210223054,0,0,0,0,0,0,1500,1500,1500,1500,1500,1500
1747553165.6805437,0.04,-0.01,-0.32,-0.001090830782496456,-0.002181661564992912,0.0,-0.01861818508401483,0.09048252831540125,-0.000965065210223054,0,0,0,0,0,0,1500,1500,1500,1500,1500,1500
1747553165.7800274,0.04,-0.01,-0.32,-0.001090830782496456,-0.002181661564992912,0.0,-0.01861818508401483,0.09048252831540125,-0.000965065210223054,0,-0.087315,0,0,0,0,1500,1500,1500,1500,1500,1500
1747553165.8798106,0.04,0.0,-0.34,0.001090830782496456,0.0,0.0,-0.01861818508401483,0.09048252831540125,-0.000965065210223054,0,-9.060832,0,0,0,-0.001252,1460,1460,1460,1500,1500,1500
1747553165.962484,0.04,0.0,-0.34,0.001090830782496456,0.0,0.0,-0.01861818508401483,0.09048252831540125,-0.000965065210223054,0,-12.5,0,0,0,-0.003148,1420,1420,1425,1500,1500,1500
1747553166.0629754,0.04,-0.02,-0.33,0.003272492347489368,-0.002181661564992912,0.0,-0.01861818508401483,0.09048252831540125,-0.000965065210223054,0,-12.5,0,0,0,0,1413,1415,1425,1500,1500,1500
1747553166.162618,0.38,-0.24,-0.44,0.008726646259971648,-0.004363323129985824,-0.017453292519943295,-0.018373254372159746,0.09048254327776979,-0.0009539781028131772,0,-12.5,0,0,0,0,1413,1415,1425,1500,1500,1500
1747553166.246236,0.38,-0.24,-0.44,0.008726646259971648,-0.004363323129985824,-0.017453292519943295,-0.018373254372159746,0.09048254327776979,-0.0009539781028131772,0,-12.5,0,0,0,0,1413,1415,1425,1500,1500,1500
1747553166.3467643,0.09,0.47000000000000003,-0.44,-0.001090830782496456,-0.002181661564992912,0.002181661564992912,-0.01861818508401483,0.09048252831540125,-0.000965065210223054,0,-12.5,0,0,0,0,1413,1415,1425,1500,1500,1500
1747553166.4306676,0.09,0.47000000000000003,-0.44,-0.001090830782496456,-0.002181661564992912,0.002181661564992912,-0.01861818508401483,0.09048252831540125,-0.000965065210223054,0,-12.5,0,0,0,0,1413,1415,1425,1500,1500,1500
1747553166.5311663,-0.03,0.13,-0.37,0.001090830782496456,0.001090830782496456,0.0,-0.018495719590415977,0.09048253579658552,-0.0009595216565476027,0,-12.5,0,0,0,0,1413,1415,1425,1500,1500,1500
1747553166.630469,0.08,-0.08,-0.41000000000000003,0.003272492347489368,-0.001090830782496456,0.002181661564992912,-0.018495719590415977,0.09048253579658552,-0.0009595216565476027,0,-10.332679,0,0,0,0,1421,1422,1432,1500,1500,1500
1747553166.7137518,0.08,-0.08,-0.41000000000000003,0.003272492347489368,-0.001090830782496456,0.002181661564992912,-0.018495719590415977,0.09048253579658552,-0.0009595216565476027,0,-2.878419,0,0,0,0,1453,1453,1458,1500,1500,1500
1747553166.8149102,0.05,0.04,-0.28,0.008726646259971648,0.002181661564992912,-0.001090830782496456,-0.018495719590415977,0.09048253579658552,-0.0009595216565476027,0,0,0,0,0,0,1493,1493,1498,1500,1500,1500
1747553166.9097524,0.01,-0.27,-0.36,0.003272492347489368,-0.004363323129985824,-0.001090830782496456,-0.018373254372159746,0.09048254327776979,-0.0009539781028131772,0,0,0,0,0,0,1500,1500,1500,1500,1500,1500
1747553166.9967716,0.01,-0.27,-0.36,0.003272492347489368,-0.004363323129985824,-0.001090830782496456,-0.018373254372159746,0.09048254327776979,-0.0009539781028131772,0,0,0,0,0,0,1500,1500,1500,1500,1500,1500
1747553167.0969467,0.03,0.05,-0.29,-0.003272492347489368,0.0,0.001090830782496456,-0.018250789427423357,0.09048255075895408,-0.0009484345490201184,0,0,0,0,0,0,1500,1500,1500,1500,1500,1500
1747553167.180355,0.03,0.05,-0.29,-0.003272492347489368,0.0,0.001090830782496456,-0.018250789427423357,0.09048255075895408,-0.0009484345490201184,0,0,0,0,0,0,1500,1500,1500,1500,1500,1500
1747553167.280053,0.0,0.0,-0.32,0.004363323129985824,-0.002181661564992912,-0.001090830782496456,-0.018250789427423357,0.09048255075895408,-0.0009484345490201184,0,0,0,0,0,0,1500,1500,1500,1500,1500,1500
1747553167.3796031,0.0,0.0,-0.32,0.004363323129985824,-0.002181661564992912,-0.001090830782496456,-0.018250789427423357,0.09048255075895408,-0.0009484345490201184,0,0,0,0,0,0,1500,1500,1500,1500,1500,1500
1747553167.4634793,0.04,0.0,-0.34,0.0,-0.001090830782496456,0.0,-0.018250789427423357,0.09048255075895408,-0.0009484345490201184,0,0,0,0,0,0,1500,1500,1500,1500,1500,1500
1747553167.5631666,0.04,-0.02,-0.31,0.0,0.002181661564992912,0.002181661564992912,-0.018250789427423357,0.09048255075895408,-0.0009484345490201184,0,0,0,0,0,0,1500,1500,1500,1500,1500,1500
1747553167.6633422,0.04,-0.02,-0.31,0.0,0.002181661564992912,0.002181661564992912,-0.018250789427423357,0.09048255075895408,-0.0009484345490201184,0,0,0,0,0,0,1500,1500,1500,1500,1500,1500
1747553167.762818,0.02,0.0,-0.35000000000000003,0.002181661564992912,-0.004363323129985824,-0.001090830782496456,-0.018250789427423357,0.09048255075895408,-0.0009484345490201184,0,0,0,0,0,0,1500,1500,1500,1500,1500,1500
1747553167.8588402,0.03,0.0,-0.28,-0.002181661564992912,-0.001090830782496456,0.0,-0.018250789427423357,0.09048255075895408,-0.0009484345490201184,0,0,0,0,0,0,1500,1500,1500,1500,1500,1500
1747553167.9468374,0.03,0.0,-0.28,-0.002181661564992912,-0.001090830782496456,0.0,-0.018250789427423357,0.09048255075895408,-0.0009484345490201184,0,0,0,0,0,0,1500,1500,1500,1500,1500,1500
1747553168.0462794,0.05,-0.02,-0.31,0.001090830782496456,0.0,0.001090830782496456,-0.018250789427423357,0.09048255075895408,-0.0009484345490201184,0,-0.003841,0,0,0,0,1500,1500,1500,1500,1500,1500
1747553168.146247,0.05,-0.02,-0.31,0.001090830782496456,0.0,0.001090830782496456,-0.018250789427423357,0.09048255075895408,-0.0009484345490201184,0,-0.087315,0,0,0,0,1500,1500,1500,1500,1500,1500
1747553168.230279,0.02,0.0,-0.33,-0.001090830782496456,0.002181661564992912,-0.002181661564992912,-0.018250789427423357,0.09048255075895408,-0.0009484345490201184,0,-0.105417,0,0,0,0,1500,1500,1500,1500,1500,1500
1747553168.3277497,0.04,0.0,-0.37,0.002181661564992912,0.002181661564992912,0.001090830782496456,-0.018250789427423357,0.09048255075895408,-0.0009484345490201184,0,-0.125224,0,0,0,0,1500,1500,1500,1500,1500,1500
1747553168.4295762,0.04,0.0,-0.37,0.002181661564992912,0.002181661564992912,0.001090830782496456,-0.018250789427423357,0.09048255075895408,-0.0009484345490201184,0,-0.49582,0,0,0,0,1500,1500,1500,1500,1500,1500
1747553168.5302525,0.04,0.01,-0.32,0.001090830782496456,0.002181661564992912,0.0,-0.018250789427423357,0.09048255075895408,-0.0009484345490201184,0,-0.537779,0,0,0,0,1500,1500,1500,1500,1500,1500
1747553168.6295166,0.04,0.01,-0.32,0.001090830782496456,0.002181661564992912,0.0,-0.018250789427423357,0.09048255075895408,-0.0009484345490201184,0,-0.537779,0,0,0,0,1500,1500,1500,1500,1500,1500
1747553168.7129076,0.02,-0.01,-0.36,0.001090830782496456,-0.002181661564992912,0.001090830782496456,-0.018250789427423357,0.09048255075895408,-0.0009484345490201184,0,-0.537779,0,0,0,0,1500,1500,1500,1500,1500,1500
1747553168.8141103,0.01,0.0,-0.31,-0.001090830782496456,0.001090830782496456,0.001090830782496456,-0.018250789427423357,0.09048255075895408,-0.0009484345490201184,0,-0.62681,0,0,0,0,1500,1500,1500,1500,1500,1500
1747553168.9134455,0.01,0.0,-0.31,-0.001090830782496456,0.001090830782496456,0.001090830782496456,-0.018250789427423357,0.09048255075895408,-0.0009484345490201184,0,-0.722657,0,0,0,0,1500,1500,1500,1500,1500,1500
1747553169.0133858,0.01,-0.01,-0.35000000000000003,-0.003272492347489368,-0.002181661564992912,-0.002181661564992912,-0.018250789427423357,0.09048255075895408,-0.0009484345490201184,0,-0.992096,0,0,0,0,1500,1500,1500,1500,1500,1500
1747553169.1125624,0.01,-0.01,-0.35000000000000003,-0.003272492347489368,-0.002181661564992912,-0.002181661564992912,-0.018250789427423357,0.09048255075895408,-0.0009484345490201184,0,-1.371658,0,0,0,0,1461,1461,1500,1500,1500,1500
1747553169.197191,0.01,0.0,-0.29,0.0,0.002181661564992912,0.001090830782496456,-0.018250789427423357,0.09048255075895408,-0.0009484345490201184,0,-1.440882,0,0,0,0,1460,1461,1500,1500,1500,1500
1747553169.2968163,0.03,0.0,-0.37,-0.003272492347489368,-0.001090830782496456,0.001090830782496456,-0.018250789427423357,0.09048255075895408,-0.0009484345490201184,0,-1.734821,0,0,0,0,1460,1460,1461,1500,1500,1500
1747553169.3962715,0.03,0.0,-0.37,-0.003272492347489368,-0.001090830782496456,0.001090830782496456,-0.018250789427423357,0.09048255075895408,-0.0009484345490201184,0,-2.140585,0,0,0,0,1458,1458,1460,1500,1500,1500
1747553169.4793863,0.09,-0.06,-0.36,-0.003272492347489368,-0.001090830782496456,0.001090830782496456,-0.018250789427423357,0.09048255075895408,-0.0009484345490201184,0,-2.404492,0,0,0,0,1455,1456,1460,1500,1500,1500
1747553169.580001,0.09,-0.06,-0.36,-0.003272492347489368,-0.001090830782496456,0.001090830782496456,-0.018250789427423357,0.09048255075895408,-0.0009484345490201184,0,-2.404492,0,0,0,0,1455,1456,1460,1500,1500,1500
1747553169.680356,0.03,0.02,-0.39,0.0,-0.001090830782496456,0.003272492347489368,-0.018250789427423357,0.09048255075895408,-0.0009484345490201184,0,-2.404492,0,0,0,0,1455,1456,1460,1500,1500,1500
1747553169.7799523,0.0,0.0,-0.35000000000000003,0.001090830782496456,0.0,0.001090830782496456,-0.018250789427423357,0.09048255075895408,-0.0009484345490201184,0,-2.404492,0,0,0,0,1455,1456,1460,1500,1500,1500
1747553169.8794384,0.0,0.0,-0.35000000000000003,0.001090830782496456,0.0,0.001090830782496456,-0.018250789427423357,0.09048255075895408,-0.0009484345490201184,0,-2.404492,0,0,0,0,1455,1456,1460,1500,1500,1500
1747553169.96262,0.08,0.05,-0.3,0.0,-0.001090830782496456,-0.001090830782496456,-0.018250789427423357,0.09048255075895408,-0.0009484345490201184,0,-2.404492,0,0,0,0,1455,1456,1460,1500,1500,1500
1747553170.0601165,0.05,0.04,-0.33,-0.001090830782496456,-0.002181661564992912,0.003272492347489368,-0.018250789427423357,0.09048255075895408,-0.0009484345490201184,0,-2.404492,0,0,0,0,1455,1456,1460,1500,1500,1500
1747553170.1638715,0.05,0.04,-0.33,-0.001090830782496456,-0.002181661564992912,0.003272492347489368,-0.018250789427423357,0.09048255075895408,-0.0009484345490201184,0,-2.404492,0,0,0,0,1455,1456,1460,1500,1500,1500
1747553170.2626708,0.0,0.06,-0.35000000000000003,-0.001090830782496456,0.001090830782496456,-0.001090830782496456,-0.018250789427423357,0.09048255075895408,-0.0009484345490201184,0,-2.404492,0,0,0,0,1455,1456,1460,1500,1500,1500
1747553170.3628778,0.0,0.06,-0.35000000000000003,-0.001090830782496456,0.001090830782496456,-0.001090830782496456,-0.018250789427423357,0.09048255075895408,-0.0009484345490201184,0,-1.65878,0,0,0,0,1460,1460,1461,1500,1500,1500
1747553170.4466412,0.04,0.01,-0.34,0.001090830782496456,0.002181661564992912,0.002181661564992912,-0.018250789427423357,0.09048255075895408,-0.0009484345490201184,0,-0.934801,0,0,0,0,1500,1500,1500,1500,1500,1500
1747553170.5471926,0.07,0.02,-0.34,0.003272492347489368,0.001090830782496456,-0.002181661564992912,-0.018250789427423357,0.09048255075895408,-0.0009484345490201184,0,-0.194868,0,0,0,0,1500,1500,1500,1500,1500,1500
1747553170.6466432,0.07,0.02,-0.34,0.003272492347489368,0.001090830782496456,-0.002181661564992912,-0.018250789427423357,0.09048255075895408,-0.0009484345490201184,0,-0.146734,0,0,0,0,1500,1500,1500,1500,1500,1500
1747553170.7297547,0.03,0.05,-0.37,-0.002181661564992912,0.002181661564992912,0.001090830782496456,-0.018250789427423357,0.09048255075895408,-0.0009484345490201184,0,-0.146734,0,0,0,0,1500,1500,1500,1500,1500,1500
1747553170.830256,0.03,0.05,-0.37,-0.002181661564992912,0.002181661564992912,0.001090830782496456,-0.018250789427423357,0.09048255075895408,-0.0009484345490201184,0,-0.125224,0,0,0,0,1500,1500,1500,1500,1500,1500
1747553170.930402,0.0,-0.02,-0.31,0.001090830782496456,0.001090830782496456,0.002181661564992912,-0.018250789427423357,0.09048255075895408,-0.0009484345490201184,0,-0.125224,0,0,0,0,1500,1500,1500,1500,1500,1500
1747553171.0294085,0.05,-0.02,-0.38,-0.003272492347489368,0.001090830782496456,-0.002181661564992912,-0.018250789427423357,0.09048255075895408,-0.0009484345490201184,0,-0.125224,0,0,0,0,1500,1500,1500,1500,1500,1500
1747553171.1301687,0.05,-0.02,-0.38,-0.003272492347489368,0.001090830782496456,-0.002181661564992912,-0.018250789427423357,0.09048255075895408,-0.0009484345490201184,0,-0.125224,0,0,0,0,1500,1500,1500,1500,1500,1500
1747553171.2123117,0.0,0.02,-0.3,0.0,0.0,0.0,-0.018250789427423357,0.09048255075895408,-0.0009484345490201184,0,-0.125224,0,0,0,0,1500,1500,1500,1500,1500,1500
1747553171.3126924,0.0,0.02,-0.3,0.0,0.0,0.0,-0.018250789427423357,0.09048255075895408,-0.0009484345490201184,0,-0.49582,0,0,0,0,1500,1500,1500,1500,1500,1500
1747553171.4125853,0.03,-0.02,-0.36,-0.002181661564992912,-0.002181661564992912,-0.002181661564992912,-0.018250789427423357,0.09048255075895408,-0.0009484345490201184,0,-1.892014,0,0,0,0,1460,1460,1461,1500,1500,1500
1747553171.4971235,0.0,0.03,-0.29,-0.002181661564992912,-0.001090830782496456,-0.002181661564992912,-0.018250789427423357,0.09048255075895408,-0.0009484345490201184,0,-2.58895,0,0,0,0,1454,1455,1460,1500,1500,1500
1747553171.5961874,0.0,0.03,-0.29,-0.002181661564992912,-0.001090830782496456,-0.002181661564992912,-0.018250789427423357,0.09048255075895408,-0.0009484345490201184,0,-5.469804,0,0,0,0,1441,1442,1447,1500,1500,1500
1747553171.6802893,0.13,0.0,-0.38,0.001090830782496456,-0.00545415391248228,-0.001090830782496456,-0.018250789427423357,0.09048255075895408,-0.0009484345490201184,0,-12.29445,0,0,0,0,1414,1416,1426,1500,1500,1500
1747553171.779438,0.13,0.0,-0.38,0.001090830782496456,-0.00545415391248228,-0.001090830782496456,-0.018250789427423357,0.09048255075895408,-0.0009484345490201184,0,-12.5,0,0,0,0,1413,1415,1425,1500,1500,1500
1747553171.8802407,0.05,-0.08,-0.47000000000000003,0.006544984694978736,0.003272492347489368,-0.002181661564992912,-0.018250789427423357,0.09048255075895408,-0.0009484345490201184,0,-12.5,0,0,0,0,1413,1415,1425,1500,1500,1500
1747553171.962867,0.08,-0.15,-0.31,-0.004363323129985824,-0.006544984694978736,0.003272492347489368,-0.018250789427423357,0.09048255075895408,-0.0009484345490201184,0,0,0,0,0,0,1453,1455,1465,1500,1500,1500
1747553172.062876,0.08,-0.15,-0.31,-0.004363323129985824,-0.006544984694978736,0.003272492347489368,-0.018250789427423357,0.09048255075895408,-0.0009484345490201184,0,0,0,0,0,0,1493,1495,1500,1500,1500,1500
1747553172.1635118,-0.19,0.04,-0.3,0.003272492347489368,0.002181661564992912,-0.004363323129985824,-0.01837304333714688,0.09036009941456107,-0.000952845368762842,0,0,0,0,0,0,1500,1500,1500,1500,1500,1500
1747553172.2623498,0.07,0.04,-0.31,0.001090830782496456,-0.002181661564992912,0.0,-0.0184955071987973,0.09036009193345984,-0.0009583813799931792,0,0,0,0,0,0,1500,1500,1500,1500,1500,1500
1747553172.3632572,0.07,0.04,-0.31,0.001090830782496456,-0.002181661564992912,0.0,-0.0184955071987973,0.09036009193345984,-0.0009583813799931792,0,0,0,0,0,0,1500,1500,1500,1500,1500,1500
1747553172.446426,0.02,0.0,-0.36,-0.003272492347489368,-0.002181661564992912,0.001090830782496456,-0.018617971335790497,0.09036008445235863,-0.0009639173911647725,0,0,0,0,0,0,1500,1500,1500,1500,1500,1500
1747553172.5469837,0.02,0.0,-0.36,-0.003272492347489368,-0.002181661564992912,0.001090830782496456,-0.018617971335790497,0.09036008445235863,-0.0009639173911647725,0,0,0,0,0,0,1500,1500,1500,1500,1500,1500
1747553172.6461184,0.03,0.0,-0.28,0.0,-0.002181661564992912,0.001090830782496456,-0.018617971335790497,0.09036008445235863,-0.0009639173911647725,0,0,0,0,0,0,1500,1500,1500,1500,1500,1500
1747553172.7301555,0.03,0.0,-0.28,0.0,-0.002181661564992912,0.001090830782496456,-0.018617971335790497,0.09036008445235863,-0.0009639173911647725,0,0,0,0,0,0,1500,1500,1500,1500,1500,1500
1747553172.8298697,0.05,0.01,-0.38,0.001090830782496456,-0.002181661564992912,0.001090830782496456,-0.018617971335790497,0.09036008445235863,-0.0009639173911647725,0,0,0,0,0,0,1500,1500,1500,1500,1500,1500
1747553172.93023,0.02,0.02,-0.3,0.001090830782496456,-0.001090830782496456,0.001090830782496456,-0.018617971335790497,0.09036008445235863,-0.0009639173911647725,0,0,0,0,0,0,1500,1500,1500,1500,1500,1500
1747553173.0297892,0.02,0.02,-0.3,0.001090830782496456,-0.001090830782496456,0.001090830782496456,-0.018617971335790497,0.09036008445235863,-0.0009639173911647725,0,0,0,0,0,0,1500,1500,1500,1500,1500,1500
1747553173.1297321,0.05,-0.01,-0.37,0.001090830782496456,0.002181661564992912,0.001090830782496456,-0.018617971335790497,0.09036008445235863,-0.0009639173911647725,0,0,0,0,0,0,1500,1500,1500,1500,1500,1500
1747553173.212639,0.05,-0.01,-0.37,0.001090830782496456,0.002181661564992912,0.001090830782496456,-0.018617971335790497,0.09036008445235863,-0.0009639173911647725,0,0,0,0,0,0,1500,1500,1500,1500,1500,1500
1747553173.3132885,0.02,0.0,-0.29,0.00545415391248228,0.001090830782496456,0.002181661564992912,0.018645556835082074,-0.09055058485883441,-0.0007187767799002141,0,0,0,0,0,0,1500,1500,1500,1500,1500,1500
1747553173.4126732,0.05,-0.02,-0.33,0.001090830782496456,-0.002181661564992912,-0.001090830782496456,-0.018617971335790497,0.09036008445235863,-0.0009639173911647725,0,0,0,0,0,0,1500,1500,1500,1500,1500,1500
1747553173.496188,0.05,-0.02,-0.33,0.001090830782496456,-0.002181661564992912,-0.001090830782496456,-0.018617971335790497,0.09036008445235863,-0.0009639173911647725,0,0,0,0,0,0,1500,1500,1500,1500,1500,1500
1747553173.5964942,0.06,0.0,-0.34,0.002181661564992912,0.0,0.001090830782496456,-0.018617971335790497,0.09036008445235863,-0.0009639173911647725,0,-6.616611,0,0,0,0,1460,1460,1460,1500,1500,1500
1747553173.68003,0.06,0.0,-0.34,0.002181661564992912,0.0,0.001090830782496456,-0.018617971335790497,0.09036008445235863,-0.0009639173911647725,0,-12.5,0,0,0,0,1420,1420,1420,1500,1500,1500
1747553173.7795215,0.03,0.01,-0.37,0.002181661564992912,0.0,0.002181661564992912,-0.018617971335790497,0.09036008445235863,-0.0009639173911647725,0,-12.5,0,0,0,0,1380,1380,1380,1500,1500,1500
1747553173.8800435,0.22,0.39,-0.58,-0.002181661564992912,0.00545415391248228,0.01090830782496456,-0.018862684268663978,0.0902376269856871,-0.0009738265496013924,0,-12.5,0,0,0,0,1354,1357,1379,1500,1500,1500
1747553173.963,0.22,0.39,-0.58,-0.002181661564992912,0.00545415391248228,0.01090830782496456,-0.018862684268663978,0.0902376269856871,-0.0009738265496013924,0,-12.5,0,0,0,0,1354,1357,1379,1500,1500,1500
1747553174.0622947,-0.04,-0.64,-0.22,0.003272492347489368,-0.003272492347489368,-0.015271630954950384,-0.018984064574300664,0.0896254272930248,-0.0009735035953360072,0,-12.5,0,0,0,0,1354,1357,1379,1500,1500,1500
1747553174.1593335,0.08,0.0,-0.27,-0.001090830782496456,0.001090830782496456,0.003272492347489368,-0.01960092450159329,0.08913446353761326,-0.001118555817794149,0,-12.5,0,0,0,0,1354,1357,1379,1500,1500,1500
1747553174.2459702,0.08,0.0,-0.27,-0.001090830782496456,0.001090830782496456,0.003272492347489368,-0.01960092450159329,0.08913446353761326,-0.001118555817794149,0,-12.5,0,0,0,0,1354,1357,1379,1500,1500,1500
1747553174.3465543,-0.03,0.11,-0.32,0.001090830782496456,0.0,0.001090830782496456,-0.01960092450159329,0.08913446353761326,-0.001118555817794149,0,-12.5,0,0,0,0,1354,1357,1379,1500,1500,1500
1747553174.4466627,-0.03,0.11,-0.32,0.001090830782496456,0.0,0.001090830782496456,-0.01960092450159329,0.08913446353761326,-0.001118555817794149,0,-12.5,0,0,0,0,1354,1357,1379,1500,1500,1500
1747553174.546605,0.05,0.04,-0.37,-0.004363323129985824,-0.002181661564992912,0.004363323129985824,-0.019723608218592734,0.08925687892671848,-0.0011252330367628029,0,-12.5,0,0,0,0,1354,1357,1379,1500,1500,1500
1747553174.6485612,0.05,0.09,-0.39,0.0,0.001090830782496456,0.002181661564992912,-0.01960115366035234,0.08925689388743457,-0.0011197648987497303,0,-12.5,0,0,0,0,1354,1357,1379,1500,1500,1500
1747553174.7473228,0.05,0.09,-0.39,0.0,0.001090830782496456,0.002181661564992912,-0.01960115366035234,0.08925689388743457,-0.0011197648987497303,0,-12.5,0,0,0,0,1354,1357,1379,1500,1500,1500
1747553174.846382,0.05,0.0,-0.41000000000000003,0.006544984694978736,0.002181661564992912,-0.001090830782496456,-0.01960115366035234,0.08925689388743457,-0.0011197648987497303,0,-12.5,0,0,0,0,1354,1357,1379,1500,1500,1500
1747553174.9304163,0.05,0.0,-0.41000000000000003,0.006544984694978736,0.002181661564992912,-0.001090830782496456,-0.01960115366035234,0.08925689388743457,-0.0011197648987497303,0,-12.5,0,0,0,0,1354,1357,1379,1500,1500,1500
1747553175.0300753,0.06,0.0,-0.33,0.003272492347489368,-0.002181661564992912,0.0,-0.01960115366035234,0.08925689388743457,-0.0011197648987497303,0,-12.5,0,0,0,0,1354,1357,1379,1500,1500,1500
1747553175.1304898,0.0,0.04,-0.33,-0.004363323129985824,0.001090830782496456,0.001090830782496456,-0.01959568656871482,0.08925809074478704,-0.0009973339225638682,0,-12.5,0,0,0,0,1354,1357,1379,1500,1500,1500
1747553175.2131922,0.0,0.04,-0.33,-0.004363323129985824,0.001090830782496456,0.001090830782496456,-0.01959568656871482,0.08925809074478704,-0.0009973339225638682,0,-0.380166,0,0,0,0,1394,1397,1419,1500,1500,1500
1747553175.3125284,0.03,-0.03,-0.28,-0.004363323129985824,-0.002181661564992912,0.004363323129985824,-0.01959568656871482,0.08925809074478704,-0.0009973339225638682,0,0,0,0,0,0,1434,1437,1459,1500,1500,1500
1747553175.4127483,0.03,-0.03,-0.28,-0.004363323129985824,-0.002181661564992912,0.004363323129985824,-0.01959568656871482,0.08925809074478704,-0.0009973339225638682,0,0,0,0,0,0,1474,1477,1499,1500,1500,1500
1747553175.4963672,-0.01,-0.31,-0.32,0.004363323129985824,0.00545415391248228,0.00545415391248228,-0.019718141140151604,0.08925808326442819,-0.0010028020618752242,0,0,0,0,0,0,1500,1500,1500,1500,1500,1500
1747553175.5961404,0.07,-0.12,-0.3,-0.002181661564992912,-0.00545415391248228,-0.004363323129985824,-0.019473894912572235,0.08962539737060371,-0.000995466639577869,0,0,0,0,0,0,1500,1500,1500,1500,1500,1500
1747553175.6961844,0.07,-0.12,-0.3,-0.002181661564992912,-0.00545415391248228,-0.004363323129985824,-0.019473894912572235,0.08962539737060371,-0.000995466639577869,0,10.521246,0,0,0,0,1540,1540,1540,1500,1500,1500
1747553175.7961502,-0.04,-0.01,-0.28,0.002181661564992912,0.003272492347489368,-0.001090830782496456,-0.019473894912572235,0.08962539737060371,-0.000995466639577869,0,12.5,0,0,0,0,1580,1580,1580,1500,1500,1500
1747553175.889693,0.04,0.01,-0.38,0.001090830782496456,0.0,-0.001090830782496456,-0.019473894912572235,0.08962539737060371,-0.000995466639577869,0,12.5,0,0,0,0,1620,1620,1606,1500,1500,1500
1747553175.9792502,0.04,0.01,-0.38,0.001090830782496456,0.0,-0.001090830782496456,-0.019473894912572235,0.08962539737060371,-0.000995466639577869,0,12.5,0,0,0,0,1626,1624,1606,1500,1500,1500
1747553176.0794158,-0.05,0.19,-0.3,-0.001090830782496456,0.0,0.00545415391248228,-0.019841270704108953,0.08962537492878794,-0.0010119389221301765,0,12.5,0,0,0,0,1626,1624,1606,1500,1500,1500
1747553176.1791778,-0.05,0.19,-0.3,-0.001090830782496456,0.0,0.00545415391248228,-0.019841270704108953,0.08962537492878794,-0.0010119389221301765,0,12.5,0,0,0,0,1626,1624,1606,1500,1500,1500
1747553176.2798305,0.05,0.06,-0.42,0.001090830782496456,0.001090830782496456,0.007635815477475192,-0.01959635321739612,0.08962538988999845,-0.001000957400489103,0,12.5,0,0,0,0,1626,1624,1606,1500,1500,1500
1747553176.3760552,-0.11,0.01,-0.3,0.002181661564992912,-0.001090830782496456,0.002181661564992912,-0.019596576029708296,0.08974782563014506,-0.0010021653093931565,0,12.5,0,0,0,0,1626,1624,1606,1500,1500,1500
1747553176.4626281,-0.11,0.01,-0.3,0.002181661564992912,-0.001090830782496456,0.002181661564992912,-0.019596576029708296,0.08974782563014506,-0.0010021653093931565,0,12.5,0,0,0,0,1626,1624,1606,1500,1500,1500
1747553176.5628707,0.19,-0.08,-0.38,-0.002181661564992912,-0.001090830782496456,0.0,-0.019596576029708296,0.08974782563014506,-0.0010021653093931565,0,12.5,0,0,0,0,1626,1624,1606,1500,1500,1500
1747553176.6625683,0.19,-0.08,-0.38,-0.002181661564992912,-0.001090830782496456,0.0,-0.019596576029708296,0.08974782563014506,-0.0010021653093931565,0,12.5,0,0,0,0,1626,1624,1606,1500,1500,1500
1747553176.746255,0.08,-0.04,-0.33,0.0,0.002181661564992912,0.003272492347489368,-0.019596576029708296,0.08974782563014506,-0.0010021653093931565,0,12.5,0,0,0,0,1626,1624,1606,1500,1500,1500
1747553176.8461704,0.1,0.02,-0.33,0.002181661564992912,-0.001090830782496456,0.0,-0.019596576029708296,0.08974782563014506,-0.0010021653093931565,0,1.238486,0,0,0,0,1586,1584,1566,1500,1500,1500
1747553176.946597,0.1,0.02,-0.33,0.002181661564992912,-0.001090830782496456,0.0,-0.019596576029708296,0.08974782563014506,-0.0010021653093931565,0,0,0,0,0,0,1546,1544,1526,1500,1500,1500
1747553177.0464482,-0.01,0.16,-0.5,-0.004363323129985824,-0.001090830782496456,0.002181661564992912,-0.019596576029708296,0.08974782563014506,-0.0010021653093931565,0,0,0,0,0,0,1506,1504,1500,1500,1500,1500
1747553177.1465445,-0.01,0.16,-0.5,-0.004363323129985824,-0.001090830782496456,0.002181661564992912,-0.019596576029708296,0.08974782563014506,-0.0010021653093931565,0,0,0,0,0,0,1500,1500,1500,1500,1500,1500
1747553177.2294853,-0.06,0.07,-0.37,-0.002181661564992912,0.0,0.001090830782496456,-0.019596576029708296,0.08974782563014506,-0.0010021653093931565,0,0,0,0,0,0,1500,1500,1500,1500,1500,1500
1747553177.3295708,0.05,-0.02,-0.38,-0.001090830782496456,0.003272492347489368,0.002181661564992912,-0.019596576029708296,0.08974782563014506,-0.0010021653093931565,0,0,0,0,0,0,1500,1500,1500,1500,1500,1500
1747553177.4286425,0.05,-0.02,-0.38,-0.001090830782496456,0.003272492347489368,0.002181661564992912,-0.019596576029708296,0.08974782563014506,-0.0010021653093931565,0,0,0,0,0,0,1500,1500,1500,1500,1500,1500
1747553177.5297883,0.03,0.01,-0.34,0.002181661564992912,0.003272492347489368,0.001090830782496456,-0.019596576029708296,0.08974782563014506,-0.0010021653093931565,0,0,0,0,0,0,1500,1500,1500,1500,1500,1500
1747553177.6269941,0.04,0.0,-0.34,-0.002181661564992912,0.0,0.001090830782496456,-0.019596576029708296,0.08974782563014506,-0.0010021653093931565,0,0,0,0,0,0,1500,1500,1500,1500,1500,1500
1747553177.7125807,0.04,0.0,-0.34,-0.002181661564992912,0.0,0.001090830782496456,-0.019596576029708296,0.08974782563014506,-0.0010021653093931565,0,0,0,0,0,0,1500,1500,1500,1500,1500,1500
1747553177.8125741,0.01,0.01,-0.31,0.0,0.001090830782496456,-0.001090830782496456,-0.019596576029708296,0.08974782563014506,-0.0010021653093931565,0,0,0,0,0,0,1500,1500,1500,1500,1500,1500
1747553177.912789,0.01,0.01,-0.31,0.0,0.001090830782496456,-0.001090830782496456,-0.019596576029708296,0.08974782563014506,-0.0010021653093931565,0,0,0,0,0,0,1500,1500,1500,1500,1500,1500
1747553177.9960573,0.04,0.03,-0.36,-0.001090830782496456,0.0,-0.001090830782496456,-0.019596576029708296,0.08974782563014506,-0.0010021653093931565,0,0,0,0,0,0,1500,1500,1500,1500,1500,1500
1747553178.0968108,0.04,0.03,-0.36,-0.001090830782496456,0.0,-0.001090830782496456,-0.019596576029708296,0.08974782563014506,-0.0010021653093931565,0,0,0,0,0,0,1500,1500,1500,1500,1500,1500
1747553178.1944637,0.04,0.0,-0.34,-0.001090830782496456,0.003272492347489368,0.0,-0.019596576029708296,0.08974782563014506,-0.0010021653093931565,0,0,0,0,0,0,1500,1500,1500,1500,1500,1500
1747553178.2790856,0.02,0.02,-0.3,-0.001090830782496456,0.0,0.0,-0.019596576029708296,0.08974782563014506,-0.0010021653093931565,0,0,0,0,0,0,1500,1500,1500,1500,1500,1500
1747553178.342279,0.02,0.02,-0.3,-0.001090830782496456,0.0,0.0,-0.019596576029708296,0.08974782563014506,-0.0010021653093931565,0,0,0,0,0,0,1500,1500,1500,1500,1500,1500
1747553178.380076,0.02,0.03,-0.31,-0.004363323129985824,0.001090830782496456,0.002181661564992912,-0.019596576029708296,0.08974782563014506,-0.0010021653093931565,0,0,0,0,0,0,1500,1500,1500,1500,1500,1500
1747553178.4305284,0.01,0.0,-0.32,-0.001090830782496456,-0.003272492347489368,-0.001090830782496456,-0.019596576029708296,0.08974782563014506,-0.0010021653093931565,0,0,0,0,0,0,1500,1500,1500,1500,1500,1500
1747553178.4633431,0.01,0.0,-0.32,-0.001090830782496456,-0.003272492347489368,-0.001090830782496456,-0.019596576029708296,0.08974782563014506,-0.0010021653093931565,0,0,0,0,0,0,1500,1500,1500,1500,1500,1500
1747553178.5298805,0.01,0.0,-0.32,-0.001090830782496456,-0.003272492347489368,-0.001090830782496456,-0.019596576029708296,0.08974782563014506,-0.0010021653093931565,0,0,0,0,0,0,1500,1500,1500,1500,1500,1500
1747553178.5625136,0.03,0.0,-0.32,0.002181661564992912,-0.001090830782496456,-0.001090830782496456,-0.019596576029708296,0.08974782563014506,-0.0010021653093931565,0,0,0,0,0,0,1500,1500,1500,1500,1500,1500
1747553178.6296566,0.05,-0.01,-0.29,-0.003272492347489368,0.001090830782496456,0.003272492347489368,-0.019596576029708296,0.08974782563014506,-0.0010021653093931565,0,0,0,0,0,0,1500,1500,1500,1500,1500,1500
1747553178.663009,0.05,-0.01,-0.29,-0.003272492347489368,0.001090830782496456,0.003272492347489368,-0.019596576029708296,0.08974782563014506,-0.0010021653093931565,0,0,0,0,0,0,1500,1500,1500,1500,1500,1500
1747553178.7122636,0.03,0.0,-0.36,0.0,0.003272492347489368,0.001090830782496456,-0.019596576029708296,0.08974782563014506,-0.0010021653093931565,0,0,0,0,0,0,1500,1500,1500,1500,1500,1500
1747553178.7460515,0.04,0.01,-0.35000000000000003,0.0,-0.00545415391248228,0.0,-0.019596576029708296,0.08974782563014506,-0.0010021653093931565,0,0,0,0,0,0,1500,1500,1500,1500,1500,1500
1747553178.8128173,0.04,0.01,-0.35000000000000003,0.0,-0.00545415391248228,0.0,-0.019596576029708296,0.08974782563014506,-0.0010021653093931565,0,0,0,0,0,0,1500,1500,1500,1500,1500,1500
1747553178.8467143,0.04,0.01,-0.35000000000000003,0.0,-0.00545415391248228,0.0,-0.019596576029708296,0.08974782563014506,-0.0010021653093931565,0,0,0,0,0,0,1500,1500,1500,1500,1500,1500
1747553178.9134316,0.0,0.0,-0.3,0.003272492347489368,0.001090830782496456,-0.001090830782496456,-0.019596576029708296,0.08974782563014506,-0.0010021653093931565,0,0,0,0,0,0,1500,1500,1500,1500,1500,1500
1747553178.9462428,0.0,0.0,-0.3,0.003272492347489368,0.001090830782496456,-0.001090830782496456,-0.019596576029708296,0.08974782563014506,-0.0010021653093931565,0,0,0,0,0,0,1500,1500,1500,1500,1500,1500
1747553179.0133688,0.0,0.0,-0.3,0.003272492347489368,0.001090830782496456,-0.001090830782496456,-0.019596576029708296,0.08974782563014506,-0.0010021653093931565,0,0,0,0,0,0,1500,1500,1500,1500,1500,1500
1747553179.045946,0.02,0.0,-0.32,-0.001090830782496456,-0.001090830782496456,0.001090830782496456,-0.019596576029708296,0.08974782563014506,-0.0010021653093931565,0,0,0,0,0,0,1500,1500,1500,1500,1500,1500
1747553179.1132846,0.04,-0.01,-0.39,0.0,0.002181661564992912,0.001090830782496456,-0.019596576029708296,0.08974782563014506,-0.0010021653093931565,0,0,0,0,0,0,1500,1500,1500,1500,1500,1500
1747553179.1764882,0.04,-0.01,-0.39,0.0,0.002181661564992912,0.001090830782496456,-0.019596576029708296,0.08974782563014506,-0.0010021653093931565,0,0,0,0,0,0,1500,1500,1500,1500,1500,1500
1747553179.1992583,0.01,0.02,-0.28,0.0,0.004363323129985824,0.001090830782496456,-0.019596576029708296,0.08974782563014506,-0.0010021653093931565,0,0,0,0,0,0,1500,1500,1500,1500,1500,1500
1747553179.2634263,0.02,0.0,-0.29,0.0,-0.001090830782496456,0.0,-0.019596576029708296,0.08974782563014506,-0.0010021653093931565,0,0,0,0,0,0,1500,1500,1500,1500,1500,1500
1747553179.297371,0.02,0.0,-0.29,0.0,-0.001090830782496456,0.0,-0.019596576029708296,0.08974782563014506,-0.0010021653093931565,0,0,0,0,0,0,1500,1500,1500,1500,1500,1500
1747553179.3633668,0.01,0.02,-0.27,0.0,-0.002181661564992912,0.0,-0.019596576029708296,0.08974782563014506,-0.0010021653093931565,0,0,0,0,0,0,1500,1500,1500,1500,1500,1500
1747553179.3961937,0.02,0.04,-0.36,-0.001090830782496456,0.006544984694978736,-0.001090830782496456,-0.019596576029708296,0.08974782563014506,-0.0010021653093931565,0,0,0,0,0,0,1500,1500,1500,1500,1500,1500
1747553179.4462252,0.02,0.04,-0.36,-0.001090830782496456,0.006544984694978736,-0.001090830782496456,-0.019596576029708296,0.08974782563014506,-0.0010021653093931565,0,0,0,0,0,0,1500,1500,1500,1500,1500,1500
1747553179.4794984,0.02,0.04,-0.36,-0.001090830782496456,0.006544984694978736,-0.001090830782496456,-0.019596576029708296,0.08974782563014506,-0.0010021653093931565,0,0,0,0,0,0,1500,1500,1500,1500,1500,1500
1747553179.5459254,0.02,0.0,-0.34,0.001090830782496456,-0.004363323129985824,0.0,-0.019596576029708296,0.08974782563014506,-0.0010021653093931565,0,0,0,0,0,0,1500,1500,1500,1500,1500,1500
1747553179.5791442,0.02,0.0,-0.34,0.001090830782496456,-0.004363323129985824,0.0,-0.019596576029708296,0.08974782563014506,-0.0010021653093931565,0,0,0,0,0,0,1500,1500,1500,1500,1500,1500
1747553179.6464202,0.02,0.0,-0.34,0.001090830782496456,-0.004363323129985824,0.0,-0.019596576029708296,0.08974782563014506,-0.0010021653093931565,0,0,0,0,0,0,1500,1500,1500,1500,1500,1500
1747553179.6804628,0.0,-0.01,-0.34,0.003272492347489368,-0.001090830782496456,0.004363323129985824,-0.019596576029708296,0.08974782563014506,-0.0010021653093931565,0,0,0,0,0,0,1500,1500,1500,1500,1500,1500
1747553179.7294679,-0.01,0.02,-0.28,0.001090830782496456,0.007635815477475192,0.003272492347489368,-0.019596576029708296,0.08974782563014506,-0.0010021653093931565,0,0,0,0,0,0,1500,1500,1500,1500,1500,1500
1747553179.779672,-0.01,0.02,-0.28,0.001090830782496456,0.007635815477475192,0.003272492347489368,-0.019596576029708296,0.08974782563014506,-0.0010021653093931565,1,0,0,0,0,0,1461,1538,1500,1540,1540,1540
1747553179.8300078,0.01,0.0,-0.33,-0.002181661564992912,0.002181661564992912,-0.001090830782496456,-0.019596576029708296,0.08974782563014506,-0.0010021653093931565,1,0,0,0,0,0,1461,1538,1500,1560,1547,1547
1747553179.8802466,0.04,0.02,-0.4,0.002181661564992912,0.0,0.0,-0.019596576029708296,0.08974782563014506,-0.0010021653093931565,1,0,0,0,0,0,1461,1538,1500,1560,1547,1547
1747553179.9297118,0.04,0.02,-0.4,0.002181661564992912,0.0,0.0,-0.019596576029708296,0.08974782563014506,-0.0010021653093931565,1,0,0,0,0,0,1461,1538,1500,1560,1547,1547
1747553179.96292,0.04,0.02,-0.4,0.002181661564992912,0.0,0.0,-0.019596576029708296,0.08974782563014506,-0.0010021653093931565,1,0,0,0,0,0,1461,1538,1500,1560,1547,1547
1747553180.0299242,0.35000000000000003,-0.35000000000000003,-0.18,-0.004363323129985824,-0.003272492347489368,-0.001090830782496456,-0.019596576029708296,0.08974782563014506,-0.0010021653093931565,1,0,0,0,0,0,1461,1538,1500,1560,1547,1547
1747553180.06271,0.35000000000000003,-0.35000000000000003,-0.18,-0.004363323129985824,-0.003272492347489368,-0.001090830782496456,-0.019596576029708296,0.08974782563014506,-0.0010021653093931565,1,0,0,0,0,0,1461,1538,1500,1560,1547,1547
1747553180.1195607,0.14,-0.29,-0.3,0.007635815477475192,0.002181661564992912,0.0,-0.01948511090127108,0.0897454542524214,-0.0012415396919806811,1,0,0,0,0,0,1461,1538,1500,1560,1547,1547
1747553180.162998,0.14,-0.29,-0.3,0.007635815477475192,0.002181661564992912,0.0,-0.01948511090127108,0.0897454542524214,-0.0012415396919806811,1,0,0,0,0,0,1461,1538,1500,1560,1547,1547
1747553180.2126832,0.05,-0.3,-0.35000000000000003,-0.00545415391248228,-0.004363323129985824,-0.001090830782496456,-0.01936265156715656,0.08974547669447952,-0.0012360413926778364,1,0,0,0,0,0,1461,1538,1500,1560,1547,1547
1747553180.245859,0.05,-0.3,-0.35000000000000003,-0.00545415391248228,-0.004363323129985824,-0.001090830782496456,-0.01936265156715656,0.08974547669447952,-0.0012360413926778364,1,0,0,0,0,0,1461,1538,1500,1560,1547,1547
1747553180.3121717,0.03,-0.15,-0.18,-0.001090830782496456,0.002181661564992912,0.003272492347489368,-0.01936265156715656,0.08974547669447952,-0.0012360413926778364,1,0,0,0,0,0,1461,1538,1500,1560,1547,1547
1747553180.34648,0.17,-0.05,-0.37,0.004363323129985824,0.001090830782496456,-0.003272492347489368,-0.01936265156715656,0.08974547669447952,-0.0012360413926778364,1,0,0,0,0,0,1461,1538,1500,1560,1547,1547
1747553180.4126198,0.17,-0.05,-0.37,0.004363323129985824,0.001090830782496456,-0.003272492347489368,-0.01936265156715656,0.08974547669447952,-0.0012360413926778364,0,0,0,0,0,0,1500,1500,1500,1520,1507,1507
1747553180.4462962,0.13,-0.06,-0.31,-0.002181661564992912,0.002181661564992912,0.002181661564992912,-0.01936265156715656,0.08974547669447952,-0.0012360413926778364,0,0,0,0,0,0,1500,1500,1500,1500,1500,1500
1747553180.4973614,0.04,0.0,-0.26,0.002181661564992912,-0.002181661564992912,0.0,-0.01936265156715656,0.08974547669447952,-0.0012360413926778364,0,0,0,0,0,0,1500,1500,1500,1500,1500,1500
1747553180.5467467,0.04,0.0,-0.26,0.002181661564992912,-0.002181661564992912,0.0,-0.01936265156715656,0.08974547669447952,-0.0012360413926778364,0,0,0,0,0,0,1500,1500,1500,1500,1500,1500
1747553180.5971477,0.04,0.0,-0.26,0.002181661564992912,-0.002181661564992912,0.0,-0.01936265156715656,0.08974547669447952,-0.0012360413926778364,0,0,0,0,0,0,1500,1500,1500,1500,1500,1500
1747553180.6464753,-0.01,0.09,-0.33,0.0,-0.002181661564992912,-0.001090830782496456,-0.019607095040920747,0.08950056172987061,-0.0012446168379918665,0,0,0,0,0,0,1500,1500,1500,1500,1500,1500
