time,ay,ax,az,gy,gx,gz,roll,pitch,yaw,cmd_fx,cmd_fy,cmd_fz,cmd_tx,cmd_ty,cmd_tz,pwm_1,pwm_2,pwm_3,pwm_4,pwm_5,pwm_6
1748132811.9743636,0.0,0.0,0.0,0.0,0.0,0.0,0.0,0.0,0.0,0,0,0,0,0,0,1500,1500,1500,1500,1500,1500
1748132812.0792491,-0.06,0.05,-0.32,0.004363323129985824,0.001090830782496456,-0.004363323129985824,-0.2166864753486974,-0.08442217621094432,0.008695871744805708,0,0,0,0,0,0,1500,1500,1500,1500,1500,1500
1748132812.1626234,-0.06,0.05,-0.32,0.004363323129985824,0.001090830782496456,-0.004363323129985824,-0.2166864753486974,-0.08442217621094432,0.008695871744805708,0,0,0,0,0,0,1500,1500,1500,1500,1500,1500
1748132812.2634578,-0.08,0.06,-0.33,0.00545415391248228,-0.001090830782496456,0.0,-0.2166893394556175,-0.08428728063121756,0.00880424751122708,0,0,0,0,0,0,1500,1500,1500,1500,1500,1500
1748132812.3558369,-0.05,0.04,-0.36,0.0,-0.009817477042468103,0.0,-0.2168116501138869,-0.08416562095665574,0.00879612616954787,0,0,0,0,0,0,1500,1500,1500,1500,1500,1500
1748132812.4458902,-0.05,0.04,-0.36,0.0,-0.009817477042468103,0.0,-0.2168116501138869,-0.08416562095665574,0.00879612616954787,0,0,0,0,0,0,1500,1500,1500,1500,1500,1500
1748132812.5459461,-0.05,-0.06,-0.03,0.002181661564992912,0.0,0.001090830782496456,-0.2168116501138869,-0.08416562095665574,0.00879612616954787,0,0,0,0,0,0,1500,1500,1500,1500,1500,1500
1748132812.6458905,-0.05,-0.06,-0.03,0.002181661564992912,0.0,0.001090830782496456,-0.2168116501138869,-0.08416562095665574,0.00879612616954787,0,0,0,0,0,0,1500,1500,1500,1500,1500,1500
1748132812.7458339,-0.01,-0.04,0.01,-0.001090830782496456,0.0,0.0,-0.2168116501138869,-0.08416562095665574,0.00879612616954787,0,0,0,0,0,0,1500,1500,1500,1500,1500,1500
1748132812.8467903,-0.04,-0.02,-0.06,0.0,0.0,0.002181661564992912,-0.2168116501138869,-0.08416562095665574,0.00879612616954787,0,0,0,0,0,0,1500,1500,1500,1500,1500,1500
1748132812.9294093,-0.04,-0.02,-0.06,0.0,0.0,0.002181661564992912,-0.2168116501138869,-0.08416562095665574,0.00879612616954787,0,0,0,0,0,0,1500,1500,1500,1500,1500,1500
1748132813.029273,-0.06,-0.09,-0.12,-0.002181661564992912,-0.004363323129985824,-0.002181661564992912,-0.2168116501138869,-0.08416562095665574,0.00879612616954787,0,0,0,0,0,0,1500,1500,1500,1500,1500,1500
1748132813.1287365,-0.06,-0.09,-0.12,-0.002181661564992912,-0.004363323129985824,-0.002181661564992912,-0.2168116501138869,-0.08416562095665574,0.00879612616954787,0,0,0,0,0,0,1500,1500,1500,1500,1500,1500
1748132813.2112901,-0.06,-0.09,0.0,0.00545415391248228,0.001090830782496456,-0.001090830782496456,-0.2168116501138869,-0.08416562095665574,0.00879612616954787,0,0,0,0,0,0,1500,1500,1500,1500,1500,1500
1748132813.3118021,-0.06,-0.07,-0.07,0.002181661564992912,0.001090830782496456,-0.001090830782496456,-0.2168116501138869,-0.08416562095665574,0.00879612616954787,0,0,0,0,0,0,1500,1500,1500,1500,1500,1500
1748132813.4121711,-0.06,-0.07,-0.07,0.002181661564992912,0.001090830782496456,-0.001090830782496456,-0.2168116501138869,-0.08416562095665574,0.00879612616954787,0,0,0,0,0,0,1500,1500,1500,1500,1500,1500
1748132813.5123734,-0.05,-0.1,-0.08,0.004363323129985824,-0.001090830782496456,0.001090830782496456,-0.2168116501138869,-0.08416562095665574,0.00879612616954787,0,0,0,0,0,0,1500,1500,1500,1500,1500,1500
1748132813.6125157,-0.05,-0.1,-0.08,0.004363323129985824,-0.001090830782496456,0.001090830782496456,-0.2168116501138869,-0.08416562095665574,0.00879612616954787,0,0,0,0,0,0,1500,1500,1500,1500,1500,1500
1748132813.6961343,-0.03,-0.14,-0.01,0.002181661564992912,-0.002181661564992912,0.001090830782496456,-0.2168116501138869,-0.08416562095665574,0.00879612616954787,0,0,0,0,0,0,1500,1500,1500,1500,1500,1500
1748132813.7960243,-0.08,-0.1,0.01,0.002181661564992912,0.0,-0.001090830782496456,-0.2168116501138869,-0.08416562095665574,0.00879612616954787,0,0,0,0,0,0,1500,1500,1500,1500,1500,1500
1748132813.895709,-0.08,-0.1,0.01,0.002181661564992912,0.0,-0.001090830782496456,-0.2168116501138869,-0.08416562095665574,0.00879612616954787,0,0,0,0,0,0,1500,1500,1500,1500,1500,1500
1748132813.996002,-0.08,-0.07,-0.08,0.004363323129985824,0.001090830782496456,0.001090830782496456,-0.2168116501138869,-0.08416562095665574,0.00879612616954787,0,0,0,0,0,0,1500,1500,1500,1500,1500,1500
1748132814.0862908,-0.07,-0.14,-0.01,0.003272492347489368,0.0,-0.002181661564992912,-0.2168116501138869,-0.08416562095665574,0.00879612616954787,0,0,0,0,0,0,1500,1500,1500,1500,1500,1500
1748132814.1804779,-0.07,-0.14,-0.01,0.003272492347489368,0.0,-0.002181661564992912,-0.2168116501138869,-0.08416562095665574,0.00879612616954787,0,0,0,0,0,0,1500,1500,1500,1500,1500,1500
1748132814.2798114,-0.08,-0.12,0.0,0.003272492347489368,0.0,0.002181661564992912,-0.2168116501138869,-0.08416562095665574,0.00879612616954787,0,0,0,0,0,0,1500,1500,1500,1500,1500,1500
1748132814.3812106,-0.08,-0.12,0.0,0.003272492347489368,0.0,0.002181661564992912,-0.2168116501138869,-0.08416562095665574,0.00879612616954787,0,0,0,0,0,0,1500,1500,1500,1500,1500,1500
1748132814.4809623,-0.08,-0.07,-0.1,0.007635815477475192,0.001090830782496456,0.003272492347489368,-0.2168116501138869,-0.08416562095665574,0.00879612616954787,0,0,0,0,0,0,1500,1500,1500,1500,1500,1500
1748132814.5701122,-0.07,-0.12,-0.03,0.003272492347489368,-0.14180800172453928,-0.001090830782496456,-0.2168116501138869,-0.08416562095665574,0.00879612616954787,0,0,0,0,0,0,1500,1500,1500,1500,1500,1500
1748132814.6659853,-0.07,-0.12,-0.03,0.003272492347489368,-0.14180800172453928,-0.001090830782496456,-0.2168116501138869,-0.08416562095665574,0.00879612616954787,0,0,0,0,0,0,1500,1500,1500,1500,1500,1500
1748132814.7625108,-0.07,-0.07,-0.04,0.001090830782496456,0.003272492347489368,-0.001090830782496456,-0.2168116501138869,-0.08416562095665574,0.00879612616954787,0,0,0,0,0,0,1500,1500,1500,1500,1500,1500
1748132814.863252,-0.07,-0.07,-0.04,0.001090830782496456,0.003272492347489368,-0.001090830782496456,-0.2168116501138869,-0.08416562095665574,0.00879612616954787,0,0,0,0,0,0,1500,1500,1500,1500,1500,1500
1748132814.9474292,-0.05,-0.09,-0.06,0.001090830782496456,0.0,0.002181661564992912,-0.2168116501138869,-0.08416562095665574,0.00879612616954787,0,0,0,0,0,0,1500,1500,1500,1500,1500,1500
1748132815.0475938,-0.05,-0.09,-0.08,0.004363323129985824,0.0,-0.001090830782496456,-0.2168116501138869,-0.08416562095665574,0.00879612616954787,0,0,0,0,0,0,1500,1500,1500,1500,1500,1500
1748132815.1470559,-0.05,-0.09,-0.08,0.004363323129985824,0.0,-0.001090830782496456,-0.2168116501138869,-0.08416562095665574,0.00879612616954787,0,0,0,0,0,0,1500,1500,1500,1500,1500,1500
1748132815.2467973,-0.08,-0.08,0.01,0.002181661564992912,-0.002181661564992912,-0.001090830782496456,-0.2168116501138869,-0.08416562095665574,0.00879612616954787,0,0,0,0,0,0,1500,1500,1500,1500,1500,1500
1748132815.347496,-0.08,-0.08,0.01,0.002181661564992912,-0.002181661564992912,-0.001090830782496456,-0.2168116501138869,-0.08416562095665574,0.00879612616954787,0,0,0,0,0,0,1500,1500,1500,1500,1500,1500
1748132815.4300587,-0.03,-0.04,-0.05,0.0,0.0,-0.002181661564992912,-0.2168116501138869,-0.08416562095665574,0.00879612616954787,0,0,0,0,0,0,1500,1500,1500,1500,1500,1500
1748132815.529977,-0.05,-0.06,-0.08,0.002181661564992912,0.002181661564992912,0.001090830782496456,-0.2168116501138869,-0.08416562095665574,0.00879612616954787,0,0,0,0,0,0,1500,1500,1500,1500,1500,1500
1748132815.6293702,-0.05,-0.06,-0.08,0.002181661564992912,0.002181661564992912,0.001090830782496456,-0.2168116501138869,-0.08416562095665574,0.00879612616954787,0,0,0,0,0,0,1500,1500,1500,1500,1500,1500
1748132815.730246,-0.04,-0.08,-0.06,-0.004363323129985824,0.0,-0.001090830782496456,-0.2168116501138869,-0.08416562095665574,0.00879612616954787,0,0,0,0,0,0,1500,1500,1500,1500,1500,1500
1748132815.8305395,-0.05,-0.06,-0.09,-0.00545415391248228,-0.002181661564992912,0.0,-0.2168116501138869,-0.08416562095665574,0.00879612616954787,0,0,0,0,0,0,1500,1500,1500,1500,1500,1500
1748132815.9141316,-0.05,-0.06,-0.09,-0.00545415391248228,-0.002181661564992912,0.0,-0.2168116501138869,-0.08416562095665574,0.00879612616954787,0,0,0,0,0,0,1500,1500,1500,1500,1500,1500
1748132816.0150898,-0.05,-0.05,-0.11,0.0,0.00545415391248228,0.002181661564992912,-0.2168116501138869,-0.08416562095665574,0.00879612616954787,0,0,0,0,0,0,1500,1500,1500,1500,1500,1500
1748132816.1136324,-0.05,-0.05,-0.11,0.0,0.00545415391248228,0.002181661564992912,-0.2168116501138869,-0.08416562095665574,0.00879612616954787,0,0,0,0,0,0,1500,1500,1500,1500,1500,1500
1748132816.2135978,-0.05,-0.08,-0.06,0.001090830782496456,0.002181661564992912,0.003272492347489368,-0.2168116501138869,-0.08416562095665574,0.00879612616954787,0,0,0,0,0,0,1500,1500,1500,1500,1500,1500
1748132816.3145692,-0.07,-0.07,-0.01,-0.002181661564992912,-0.002181661564992912,-0.002181661564992912,-0.2168116501138869,-0.08416562095665574,0.00879612616954787,0,0,0,0,0,0,1500,1500,1500,1500,1500,1500
1748132816.4128532,-0.07,-0.07,-0.01,-0.002181661564992912,-0.002181661564992912,-0.002181661564992912,-0.2168116501138869,-0.08416562095665574,0.00879612616954787,0,0,0,0,0,0,1500,1500,1500,1500,1500,1500
1748132816.5141532,-0.03,-0.05,-0.08,-0.006544984694978736,0.003272492347489368,0.0,-0.2168116501138869,-0.08416562095665574,0.00879612616954787,0,0,0,0,0,0,1500,1500,1500,1500,1500,1500
1748132816.613195,-0.03,-0.05,-0.08,-0.006544984694978736,0.003272492347489368,0.0,-0.2168116501138869,-0.08416562095665574,0.00879612616954787,0,0,0,0,0,0,1500,1500,1500,1500,1500,1500
1748132816.696143,-0.05,-0.09,-0.1,0.001090830782496456,-0.001090830782496456,0.001090830782496456,-0.2168116501138869,-0.08416562095665574,0.00879612616954787,0,0,0,0,0,0,1500,1500,1500,1500,1500,1500
1748132816.7958918,-0.06,-0.08,-0.03,-0.002181661564992912,0.00545415391248228,0.002181661564992912,-0.2168116501138869,-0.08416562095665574,0.00879612616954787,0,0,0,0,0,0,1500,1500,1500,1500,1500,1500
1748132816.8956141,-0.06,-0.08,-0.03,-0.002181661564992912,0.00545415391248228,0.002181661564992912,-0.2168116501138869,-0.08416562095665574,0.00879612616954787,0,0,0,0,0,0,1500,1500,1500,1500,1500,1500
1748132816.9957073,-0.05,-0.06,-0.08,-0.004363323129985824,0.003272492347489368,-0.003272492347489368,-0.2168116501138869,-0.08416562095665574,0.00879612616954787,0,0,0,0,0,0,1500,1500,1500,1500,1500,1500
1748132817.0971897,-0.05,-0.08,-0.11,-0.004363323129985824,0.002181661564992912,0.0,-0.2168116501138869,-0.08416562095665574,0.00879612616954787,0,0,0,0,0,0,1500,1500,1500,1500,1500,1500
1748132817.1967618,-0.05,-0.08,-0.11,-0.004363323129985824,0.002181661564992912,0.0,-0.2168116501138869,-0.08416562095665574,0.00879612616954787,0,0,0,0,0,0,1500,1500,1500,1500,1500,1500
1748132817.2957606,-0.06,-0.14,-0.03,0.004363323129985824,-0.006544984694978736,0.00545415391248228,-0.2168116501138869,-0.08416562095665574,0.00879612616954787,0,0,0,0,0,0,1500,1500,1500,1500,1500,1500
1748132817.3958757,-0.06,-0.14,-0.03,0.004363323129985824,-0.006544984694978736,0.00545415391248228,-0.2168116501138869,-0.08416562095665574,0.00879612616954787,0,0,0,0,0,0,1500,1500,1500,1500,1500,1500
1748132817.4961843,-0.07,-0.1,-0.07,0.002181661564992912,0.002181661564992912,0.001090830782496456,-0.2168116501138869,-0.08416562095665574,0.00879612616954787,0,0,0,0,0,0,1500,1500,1500,1500,1500,1500
1748132817.5971057,-0.08,-0.08,-0.07,0.001090830782496456,0.001090830782496456,0.0,-0.2168116501138869,-0.08416562095665574,0.00879612616954787,0,0,0,0,0,0,1500,1500,1500,1500,1500,1500
1748132817.6797962,-0.08,-0.08,-0.07,0.001090830782496456,0.001090830782496456,0.0,-0.2168116501138869,-0.08416562095665574,0.00879612616954787,0,0,0,0,0,0,1500,1500,1500,1500,1500,1500
1748132817.7796457,-0.08,-0.15,0.0,0.001090830782496456,0.007635815477475192,0.001090830782496456,-0.2168116501138869,-0.08416562095665574,0.00879612616954787,0,0,0,0,0,0,1500,1500,1500,1500,1500,1500
1748132817.8794765,-0.08,-0.15,0.0,0.001090830782496456,0.007635815477475192,0.001090830782496456,-0.2168116501138869,-0.08416562095665574,0.00879612616954787,0,0,0,0,0,0,1500,1500,1500,1500,1500,1500
1748132817.9788406,-0.09,-0.07,-0.06,0.003272492347489368,-0.001090830782496456,0.00545415391248228,-0.2168116501138869,-0.08416562095665574,0.00879612616954787,0,0,0,0,0,0,1500,1500,1500,1500,1500,1500
1748132818.0803308,-0.07,-0.09,-0.11,0.003272492347489368,0.0,0.003272492347489368,-0.2168116501138869,-0.08416562095665574,0.00879612616954787,0,0,0,0,0,0,1500,1500,1500,1500,1500,1500
1748132818.162704,-0.07,-0.09,-0.11,0.003272492347489368,0.0,0.003272492347489368,-0.2168116501138869,-0.08416562095665574,0.00879612616954787,0,0,0,0,0,0,1500,1500,1500,1500,1500,1500
1748132818.2628093,-0.06,-0.13,-0.07,0.001090830782496456,-0.002181661564992912,-0.001090830782496456,-0.2168116501138869,-0.08416562095665574,0.00879612616954787,0,0,0,0,0,0,1500,1500,1500,1500,1500,1500
1748132818.3632832,-0.08,-0.16,-0.02,0.003272492347489368,-0.002181661564992912,0.002181661564992912,-0.2168116501138869,-0.08416562095665574,0.00879612616954787,0,0,0,0,0,0,1500,1500,1500,1500,1500,1500
1748132818.4458508,-0.08,-0.16,-0.02,0.003272492347489368,-0.002181661564992912,0.002181661564992912,-0.2168116501138869,-0.08416562095665574,0.00879612616954787,0,0,0,0,0,0,1500,1500,1500,1500,1500,1500
1748132818.5459213,-0.07,-0.11,-0.09,0.003272492347489368,-0.003272492347489368,0.002181661564992912,-0.2168116501138869,-0.08416562095665574,0.00879612616954787,0,0,0,0,0,0,1500,1500,1500,1500,1500,1500
1748132818.6341174,-0.07,-0.11,-0.09,0.003272492347489368,-0.003272492347489368,0.002181661564992912,-0.2168116501138869,-0.08416562095665574,0.00879612616954787,0,0,0,0,0,0,1500,1500,1500,1500,1500,1500
1748132818.7301786,-0.07,-0.14,-0.09,0.001090830782496456,0.0,-0.002181661564992912,-0.2168116501138869,-0.08416562095665574,0.00879612616954787,0,0,0,0,0,0,1500,1500,1500,1500,1500,1500
1748132818.829136,-0.09,-0.15,-0.03,-0.001090830782496456,-0.001090830782496456,-0.002181661564992912,-0.2168116501138869,-0.08416562095665574,0.00879612616954787,0,0,0,0,0,0,1500,1500,1500,1500,1500,1500
1748132818.9284883,-0.09,-0.15,-0.03,-0.001090830782496456,-0.001090830782496456,-0.002181661564992912,-0.2168116501138869,-0.08416562095665574,0.00879612616954787,0,0,0,0,0,0,1500,1500,1500,1500,1500,1500
1748132819.0290391,-0.1,-0.16,-0.02,0.002181661564992912,0.0,0.0,-0.2168116501138869,-0.08416562095665574,0.00879612616954787,0,0,0,0,0,0,1500,1500,1500,1500,1500,1500
1748132819.1291468,-0.1,-0.16,-0.02,0.002181661564992912,0.0,0.0,-0.2168116501138869,-0.08416562095665574,0.00879612616954787,0,0,0,0,0,0,1500,1500,1500,1500,1500,1500
1748132819.228845,-0.09,-0.15,-0.07,-0.001090830782496456,0.0,-0.002181661564992912,-0.2168116501138869,-0.08416562095665574,0.00879612616954787,0,0,0,0,0,0,1500,1500,1500,1500,1500,1500
1748132819.3291636,-0.09,-0.15,-0.01,-0.001090830782496456,0.0,-0.001090830782496456,-0.2168116501138869,-0.08416562095665574,0.00879612616954787,0,0,0,0,0,0,1500,1500,1500,1500,1500,1500
1748132819.411768,-0.09,-0.15,-0.01,-0.001090830782496456,0.0,-0.001090830782496456,-0.2168116501138869,-0.08416562095665574,0.00879612616954787,0,0,0,0,0,0,1500,1500,1500,1500,1500,1500
1748132819.5127866,-0.1,-0.16,-0.04,0.0,-0.002181661564992912,0.0,-0.2168116501138869,-0.08416562095665574,0.00879612616954787,0,0,0,0,0,0,1500,1500,1500,1500,1500,1500
1748132819.6015759,-0.05,-0.14,-0.04,0.001090830782496456,0.004363323129985824,0.0,-0.2168116501138869,-0.08416562095665574,0.00879612616954787,0,0,0,0,0,0,1500,1500,1500,1500,1500,1500
1748132819.6958745,-0.05,-0.14,-0.04,0.001090830782496456,0.004363323129985824,0.0,-0.2168116501138869,-0.08416562095665574,0.00879612616954787,0,0,0,0,0,0,1500,1500,1500,1500,1500,1500
1748132819.7960043,-0.09,-0.15,0.0,0.0,0.0,0.002181661564992912,-0.2168116501138869,-0.08416562095665574,0.00879612616954787,0,0,0,0,0,0,1500,1500,1500,1500,1500,1500
1748132819.895871,-0.09,-0.15,0.0,0.0,0.0,0.002181661564992912,-0.2168116501138869,-0.08416562095665574,0.00879612616954787,0,0,0,0,0,0,1500,1500,1500,1500,1500,1500
1748132819.9965017,-0.09,-0.18,-0.02,-0.001090830782496456,-0.002181661564992912,-0.001090830782496456,-0.2168116501138869,-0.08416562095665574,0.00879612616954787,0,0,0,0,0,0,1500,1500,1500,1500,1500,1500
1748132820.0957737,-0.08,-0.15,-0.04,-0.004363323129985824,-0.001090830782496456,-0.001090830782496456,-0.2168116501138869,-0.08416562095665574,0.00879612616954787,0,0,0,0,0,0,1500,1500,1500,1500,1500,1500
1748132820.178435,-0.08,-0.15,-0.04,-0.004363323129985824,-0.001090830782496456,-0.001090830782496456,-0.2168116501138869,-0.08416562095665574,0.00879612616954787,0,0,0,0,0,0,1500,1500,1500,1500,1500,1500
1748132820.2790835,-0.07,-0.13,-0.08,-0.001090830782496456,-0.001090830782496456,0.001090830782496456,-0.2168116501138869,-0.08416562095665574,0.00879612616954787,0,0,0,0,0,0,1500,1500,1500,1500,1500,1500
1748132820.3797822,-0.07,-0.13,-0.08,-0.001090830782496456,-0.001090830782496456,0.001090830782496456,-0.2168116501138869,-0.08416562095665574,0.00879612616954787,0,0,0,0,0,0,1500,1500,1500,1500,1500,1500
1748132820.479323,-0.08,-0.16,-0.01,0.006544984694978736,-0.001090830782496456,0.002181661564992912,-0.2168116501138869,-0.08416562095665574,0.00879612616954787,0,0,0,0,0,0,1500,1500,1500,1500,1500,1500
1748132820.580771,-0.09,-0.14,-0.08,0.003272492347489368,0.00545415391248228,0.001090830782496456,-0.2168116501138869,-0.08416562095665574,0.00879612616954787,0,0,0,0,0,0,1500,1500,1500,1500,1500,1500
1748132820.6625216,-0.09,-0.14,-0.08,0.003272492347489368,0.00545415391248228,0.001090830782496456,-0.2168116501138869,-0.08416562095665574,0.00879612616954787,0,0,0,0,0,0,1500,1500,1500,1500,1500,1500
1748132820.7619576,-0.05,-0.1,-0.08,-0.001090830782496456,-0.004363323129985824,-0.001090830782496456,-0.2168116501138869,-0.08416562095665574,0.00879612616954787,0,0,0,0,0,0,1500,1500,1500,1500,1500,1500
1748132820.8623104,-0.05,-0.1,-0.08,-0.001090830782496456,-0.004363323129985824,-0.001090830782496456,-0.2168116501138869,-0.08416562095665574,0.00879612616954787,0,0,0,0,0,0,1500,1500,1500,1500,1500,1500
1748132820.9444501,-0.09,-0.14,-0.1,0.003272492347489368,0.001090830782496456,0.0,-0.2168116501138869,-0.08416562095665574,0.00879612616954787,0,0,0,0,0,0,1500,1500,1500,1500,1500,1500
1748132821.0461328,-0.06,-0.11,-0.04,0.001090830782496456,-0.003272492347489368,0.0,-0.2168116501138869,-0.08416562095665574,0.00879612616954787,0,0,0,0,0,0,1500,1500,1500,1500,1500,1500
1748132821.1458547,-0.06,-0.11,-0.04,0.001090830782496456,-0.003272492347489368,0.0,-0.2168116501138869,-0.08416562095665574,0.00879612616954787,0,0,0,0,0,0,1500,1500,1500,1500,1500,1500
1748132821.2458367,-0.06,-0.11,-0.12,0.003272492347489368,0.006544984694978736,0.0,-0.2168116501138869,-0.08416562095665574,0.00879612616954787,0,0,0,0,0,0,1500,1500,1500,1500,1500,1500
1748132821.3457537,-0.08,-0.12,-0.08,0.0,0.001090830782496456,-0.001090830782496456,-0.2168116501138869,-0.08416562095665574,0.00879612616954787,0,0,0,0,0,0,1500,1500,1500,1500,1500,1500
1748132821.4300168,-0.08,-0.12,-0.08,0.0,0.001090830782496456,-0.001090830782496456,-0.2168116501138869,-0.08416562095665574,0.00879612616954787,0,0,0,0,0,0,1500,1500,1500,1500,1500,1500
1748132821.5288944,-0.07,-0.13,-0.02,-0.001090830782496456,0.001090830782496456,0.001090830782496456,-0.2168116501138869,-0.08416562095665574,0.00879612616954787,0,0,0,0,0,0,1500,1500,1500,1500,1500,1500
1748132821.629266,-0.07,-0.13,-0.02,-0.001090830782496456,0.001090830782496456,0.001090830782496456,-0.2168116501138869,-0.08416562095665574,0.00879612616954787,0,0,0,0,0,0,1500,1500,1500,1500,1500,1500
1748132821.7290628,-0.08,-0.1,-0.09,-0.002181661564992912,0.001090830782496456,0.002181661564992912,-0.2168116501138869,-0.08416562095665574,0.00879612616954787,0,0,0,0,0,0,1500,1500,1500,1500,1500,1500
1748132821.8298419,-0.04,-0.08,-0.06,-0.001090830782496456,-0.002181661564992912,-0.003272492347489368,-0.2168116501138869,-0.08416562095665574,0.00879612616954787,0,0,0,0,0,0,1500,1500,1500,1500,1500,1500
1748132821.9206579,-0.04,-0.08,-0.06,-0.001090830782496456,-0.002181661564992912,-0.003272492347489368,-0.2168116501138869,-0.08416562095665574,0.00879612616954787,0,0,0,0,0,0,1500,1500,1500,1500,1500,1500
1748132822.0122788,-0.07,-0.14,-0.02,-0.003272492347489368,0.004363323129985824,-0.001090830782496456,-0.2168116501138869,-0.08416562095665574,0.00879612616954787,0,0,0,0,0,0,1500,1500,1500,1500,1500,1500
1748132822.1119235,-0.07,-0.14,-0.02,-0.003272492347489368,0.004363323129985824,-0.001090830782496456,-0.2168116501138869,-0.08416562095665574,0.00879612616954787,0,0,0,0,0,0,1500,1500,1500,1500,1500,1500
1748132822.193879,-0.06,-0.09,-0.07,0.0,0.001090830782496456,0.002181661564992912,-0.2168116501138869,-0.08416562095665574,0.00879612616954787,0,0,0,0,0,0,1500,1500,1500,1500,1500,1500
1748132822.2932684,-0.06,-0.1,-0.07,-0.002181661564992912,0.0,0.0,-0.2168116501138869,-0.08416562095665574,0.00879612616954787,0,0,0,0,0,0,1500,1500,1500,1500,1500,1500
1748132822.3810778,-0.06,-0.1,-0.07,-0.002181661564992912,0.0,0.0,-0.2168116501138869,-0.08416562095665574,0.00879612616954787,0,0,0,0,0,0,1500,1500,1500,1500,1500,1500
1748132822.4799874,-0.07,-0.12,0.0,-0.003272492347489368,0.001090830782496456,-0.002181661564992912,-0.2168116501138869,-0.08416562095665574,0.00879612616954787,0,0,0,0,0,0,1500,1500,1500,1500,1500,1500
1748132822.58046,-0.07,-0.12,0.0,-0.003272492347489368,0.001090830782496456,-0.002181661564992912,-0.2168116501138869,-0.08416562095665574,0.00879612616954787,0,0,0,0,0,0,1500,1500,1500,1500,1500,1500
1748132822.6641102,-0.06,-0.09,-0.09,0.001090830782496456,-0.00545415391248228,0.0,-0.2168116501138869,-0.08416562095665574,0.00879612616954787,0,0,0,0,0,0,1500,1500,1500,1500,1500,1500
1748132822.761994,-0.06,-0.09,-0.09,0.001090830782496456,-0.00545415391248228,0.0,-0.2168116501138869,-0.08416562095665574,0.00879612616954787,0,0,0,0,0,0,1500,1500,1500,1500,1500,1500
1748132822.8622198,-0.04,-0.07,-0.09,-0.002181661564992912,0.0,-0.002181661564992912,-0.2168116501138869,-0.08416562095665574,0.00879612616954787,0,0,0,0,0,0,1500,1500,1500,1500,1500,1500
1748132822.945626,-0.03,-0.08,-0.07,0.001090830782496456,-0.003272492347489368,-0.001090830782496456,-0.2168116501138869,-0.08416562095665574,0.00879612616954787,0,0,0,0,0,0,1500,1500,1500,1500,1500,1500
1748132823.0445743,-0.03,-0.08,-0.07,0.001090830782496456,-0.003272492347489368,-0.001090830782496456,-0.2168116501138869,-0.08416562095665574,0.00879612616954787,0,0,0,0,0,0,1500,1500,1500,1500,1500,1500
1748132823.145962,-0.04,-0.11,-0.02,0.002181661564992912,-0.001090830782496456,-0.002181661564992912,-0.2168116501138869,-0.08416562095665574,0.00879612616954787,0,0,0,0,0,0,1500,1500,1500,1500,1500,1500
1748132823.2459507,-0.04,-0.07,-0.04,-0.001090830782496456,0.003272492347489368,-0.001090830782496456,-0.2168116501138869,-0.08416562095665574,0.00879612616954787,0,0,0,0,0,0,1500,1500,1500,1500,1500,1500
1748132823.3459666,-0.04,-0.07,-0.04,-0.001090830782496456,0.003272492347489368,-0.001090830782496456,-0.2168116501138869,-0.08416562095665574,0.00879612616954787,0,0,0,0,0,0,1500,1500,1500,1500,1500,1500
1748132823.4292412,-0.04,-0.08,-0.04,0.001090830782496456,0.001090830782496456,-0.003272492347489368,-0.2168116501138869,-0.08416562095665574,0.00879612616954787,0,0,0,0,0,0,1500,1500,1500,1500,1500,1500
1748132823.530187,-0.04,-0.08,-0.04,0.001090830782496456,0.001090830782496456,-0.003272492347489368,-0.2168116501138869,-0.08416562095665574,0.00879612616954787,0,0,0,0,0,0,1500,1500,1500,1500,1500,1500
1748132823.6292853,-0.06,-0.12,0.01,0.001090830782496456,0.001090830782496456,0.0,-0.2168116501138869,-0.08416562095665574,0.00879612616954787,0,0,0,0,0,0,1500,1500,1500,1500,1500,1500
1748132823.7289765,-0.04,-0.05,-0.05,0.0,0.001090830782496456,-0.001090830782496456,-0.2168116501138869,-0.08416562095665574,0.00879612616954787,0,0,0,0,0,0,1500,1500,1500,1500,1500,1500
1748132823.829331,-0.04,-0.05,-0.05,0.0,0.001090830782496456,-0.001090830782496456,-0.2168116501138869,-0.08416562095665574,0.00879612616954787,0,0,0,0,0,0,1500,1500,1500,1500,1500,1500
1748132823.9124877,-0.06,-0.07,-0.07,-0.002181661564992912,0.003272492347489368,0.001090830782496456,-0.2168116501138869,-0.08416562095665574,0.00879612616954787,0,0,0,0,0,0,1500,1500,1500,1500,1500,1500
1748132824.0124981,-0.06,-0.07,-0.07,-0.002181661564992912,0.003272492347489368,0.001090830782496456,-0.2168116501138869,-0.08416562095665574,0.00879612616954787,0,0,0,0,0,0,1500,1500,1500,1500,1500,1500
1748132824.112558,-0.03,-0.09,0.0,0.0,-0.001090830782496456,0.003272492347489368,-0.2168116501138869,-0.08416562095665574,0.00879612616954787,0,0,0,0,0,0,1500,1500,1500,1500,1500,1500
1748132824.1945224,-0.07,-0.05,-0.09,0.0,0.001090830782496456,-0.001090830782496456,-0.2168116501138869,-0.08416562095665574,0.00879612616954787,0,0,0,0,0,0,1500,1500,1500,1500,1500,1500
1748132824.2944717,-0.07,-0.05,-0.09,0.0,0.001090830782496456,-0.001090830782496456,-0.2168116501138869,-0.08416562095665574,0.00879612616954787,0,0,0,0,0,0,1500,1500,1500,1500,1500,1500
1748132824.394443,-0.07,-0.07,-0.1,0.001090830782496456,0.0,-0.004363323129985824,-0.2168116501138869,-0.08416562095665574,0.00879612616954787,0,0,0,0,0,0,1500,1500,1500,1500,1500,1500
1748132824.4959342,-0.07,-0.07,-0.1,0.001090830782496456,0.0,-0.004363323129985824,-0.2168116501138869,-0.08416562095665574,0.00879612616954787,0,0,0,0,0,0,1500,1500,1500,1500,1500,1500
1748132824.5957272,-0.05,-0.09,0.0,-0.002181661564992912,-0.002181661564992912,-0.002181661564992912,-0.2168116501138869,-0.08416562095665574,0.00879612616954787,0,0,0,0,0,0,1500,1500,1500,1500,1500,1500
1748132824.6809247,-0.06,-0.04,-0.05,-0.002181661564992912,-0.003272492347489368,0.002181661564992912,-0.2168116501138869,-0.08416562095665574,0.00879612616954787,0,0,0,0,0,0,1500,1500,1500,1500,1500,1500
1748132824.7792876,-0.06,-0.04,-0.05,-0.002181661564992912,-0.003272492347489368,0.002181661564992912,-0.2168116501138869,-0.08416562095665574,0.00879612616954787,0,0,0,0,0,0,1500,1500,1500,1500,1500,1500
1748132824.8791606,-0.05,-0.05,-0.09,-0.002181661564992912,-0.002181661564992912,-0.002181661564992912,-0.2168116501138869,-0.08416562095665574,0.00879612616954787,0,0,0,0,0,0,1500,1500,1500,1500,1500,1500
1748132824.9793136,-0.05,-0.09,0.01,-0.004363323129985824,0.003272492347489368,-0.001090830782496456,-0.2168116501138869,-0.08416562095665574,0.00879612616954787,0,0,0,0,0,0,1500,1500,1500,1500,1500,1500
1748132825.079798,-0.05,-0.09,0.01,-0.004363323129985824,0.003272492347489368,-0.001090830782496456,-0.2168116501138869,-0.08416562095665574,0.00879612616954787,0,0,0,0,0,0,1500,1500,1500,1500,1500,1500
1748132825.1706262,-0.05,-0.07,-0.06,-0.004363323129985824,0.003272492347489368,-0.001090830782496456,-0.2168116501138869,-0.08416562095665574,0.00879612616954787,0,0,0,0,0,0,1500,1500,1500,1500,1500,1500
1748132825.2613828,-0.05,-0.07,-0.06,-0.004363323129985824,0.003272492347489368,-0.001090830782496456,-0.2168116501138869,-0.08416562095665574,0.00879612616954787,0,0,0,0,0,0,1500,1500,1500,1500,1500,1500
1748132825.3611672,-0.06,-0.06,-0.12,0.001090830782496456,-0.001090830782496456,0.0,-0.2168116501138869,-0.08416562095665574,0.00879612616954787,0,0,0,0,0,0,1500,1500,1500,1500,1500,1500
1748132825.4444876,-0.06,-0.12,-0.03,0.001090830782496456,0.0,-0.003272492347489368,-0.2168116501138869,-0.08416562095665574,0.00879612616954787,0,0,0,0,0,0,1500,1500,1500,1500,1500,1500
1748132825.5458972,-0.06,-0.12,-0.03,0.001090830782496456,0.0,-0.003272492347489368,-0.2168116501138869,-0.08416562095665574,0.00879612616954787,0,0,0,0,0,0,1500,1500,1500,1500,1500,1500
1748132825.6449127,-0.06,-0.08,-0.05,0.0,-0.004363323129985824,-0.003272492347489368,-0.2168116501138869,-0.08416562095665574,0.00879612616954787,0,0,0,0,0,0,1500,1500,1500,1500,1500,1500
1748132825.745109,-0.06,-0.08,-0.05,0.0,-0.004363323129985824,-0.003272492347489368,-0.2168116501138869,-0.08416562095665574,0.00879612616954787,0,0,0,0,0,0,1500,1500,1500,1500,1500,1500
1748132825.845691,-0.08,-0.08,-0.04,0.001090830782496456,0.001090830782496456,0.001090830782496456,-0.2168116501138869,-0.08416562095665574,0.00879612616954787,0,0,0,0,0,0,1500,1500,1500,1500,1500,1500
1748132825.9292758,-0.05,-0.13,-0.03,0.001090830782496456,0.001090830782496456,0.002181661564992912,-0.2168116501138869,-0.08416562095665574,0.00879612616954787,0,0,0,0,0,0,1500,1500,1500,1500,1500,1500
1748132826.0293841,-0.05,-0.13,-0.03,0.001090830782496456,0.001090830782496456,0.002181661564992912,-0.2168116501138869,-0.08416562095665574,0.00879612616954787,0,0,0,0,0,0,1500,1500,1500,1500,1500,1500
1748132826.1282463,-0.08,-0.1,0.0,0.002181661564992912,0.004363323129985824,0.001090830782496456,-0.2168116501138869,-0.08416562095665574,0.00879612616954787,0,0,0,0,0,0,1500,1500,1500,1500,1500,1500
1748132826.2292438,-0.08,-0.1,0.0,0.002181661564992912,0.004363323129985824,0.001090830782496456,-0.2168116501138869,-0.08416562095665574,0.00879612616954787,0,0,0,0,0,0,1500,1500,1500,1500,1500,1500
1748132826.3295133,-0.07,-0.09,-0.06,0.001090830782496456,0.003272492347489368,-0.002181661564992912,-0.2168116501138869,-0.08416562095665574,0.00879612616954787,0,0,0,0,0,0,1500,1500,1500,1500,1500,1500
1748132826.4282358,-0.08,-0.12,-0.11,-0.002181661564992912,-0.007635815477475192,0.0,-0.2168116501138869,-0.08416562095665574,0.00879612616954787,0,0,0,0,0,0,1500,1500,1500,1500,1500,1500
1748132826.529499,-0.08,-0.12,-0.11,-0.002181661564992912,-0.007635815477475192,0.0,-0.2168116501138869,-0.08416562095665574,0.00879612616954787,0,0,0,0,0,0,1500,1500,1500,1500,1500,1500
1748132826.6286924,-0.07,-0.12,-0.03,0.003272492347489368,-0.001090830782496456,0.002181661564992912,-0.2168116501138869,-0.08416562095665574,0.00879612616954787,0,0,0,0,0,0,1500,1500,1500,1500,1500,1500
1748132826.7283177,-0.07,-0.11,-0.09,-0.002181661564992912,-0.001090830782496456,0.001090830782496456,-0.2168116501138869,-0.08416562095665574,0.00879612616954787,0,0,0,0,0,0,1500,1500,1500,1500,1500,1500
1748132826.828322,-0.07,-0.11,-0.09,-0.002181661564992912,-0.001090830782496456,0.001090830782496456,-0.2168116501138869,-0.08416562095665574,0.00879612616954787,0,0,0,0,0,0,1500,1500,1500,1500,1500,1500
1748132826.9129198,-0.06,-0.11,-0.08,-0.003272492347489368,0.0,-0.003272492347489368,-0.2168116501138869,-0.08416562095665574,0.00879612616954787,0,0,0,0,0,0,1500,1500,1500,1500,1500,1500
1748132827.012266,-0.06,-0.11,-0.08,-0.003272492347489368,0.0,-0.003272492347489368,-0.2168116501138869,-0.08416562095665574,0.00879612616954787,0,0,0,0,0,0,1500,1500,1500,1500,1500,1500
1748132827.1117003,-0.1,-0.13,-0.02,-0.002181661564992912,-0.001090830782496456,-0.002181661564992912,-0.2168116501138869,-0.08416562095665574,0.00879612616954787,0,0,0,0,0,0,1500,1500,1500,1500,1500,1500
1748132827.1953506,-0.06,-0.1,-0.07,0.003272492347489368,0.001090830782496456,-0.003272492347489368,-0.2168116501138869,-0.08416562095665574,0.00879612616954787,0,0,0,0,0,0,1500,1500,1500,1500,1500,1500
1748132827.2945156,-0.06,-0.1,-0.07,0.003272492347489368,0.001090830782496456,-0.003272492347489368,-0.2168116501138869,-0.08416562095665574,0.00879612616954787,0,0,0,0,0,0,1500,1500,1500,1500,1500,1500
1748132827.3942168,-0.06,-0.11,-0.1,0.001090830782496456,0.002181661564992912,-0.00545415391248228,-0.2168116501138869,-0.08416562095665574,0.00879612616954787,0,0,0,0,0,0,1500,1500,1500,1500,1500,1500
1748132827.5024087,-0.07,-0.13,-0.06,0.0,-0.001090830782496456,-0.003272492347489368,-0.2168116501138869,-0.08416562095665574,0.00879612616954787,0,0,0,0,0,0,1500,1500,1500,1500,1500,1500
1748132827.5968487,-0.07,-0.13,-0.06,0.0,-0.001090830782496456,-0.003272492347489368,-0.2168116501138869,-0.08416562095665574,0.00879612616954787,0,0,0,0,0,0,1500,1500,1500,1500,1500,1500
1748132827.6807227,-0.09,-0.14,-0.04,0.003272492347489368,-0.003272492347489368,0.0,-0.2168116501138869,-0.08416562095665574,0.00879612616954787,0,0,0,0,0,0,1500,1500,1500,1500,1500,1500
1748132827.7805305,-0.09,-0.14,-0.04,0.003272492347489368,-0.003272492347489368,0.0,-0.2168116501138869,-0.08416562095665574,0.00879612616954787,0,0,0,0,0,0,1500,1500,1500,1500,1500,1500
1748132827.8795195,-0.08,-0.12,-0.01,0.002181661564992912,0.001090830782496456,0.0,-0.2168116501138869,-0.08416562095665574,0.00879612616954787,0,0,0,0,0,0,1500,1500,1500,1500,1500,1500
1748132827.980223,-0.07,-0.08,-0.09,0.001090830782496456,-0.002181661564992912,-0.002181661564992912,-0.2168116501138869,-0.08416562095665574,0.00879612616954787,0,0,0,0,0,0,1500,1500,1500,1500,1500,1500
1748132828.0809069,-0.07,-0.08,-0.09,0.001090830782496456,-0.002181661564992912,-0.002181661564992912,-0.2168116501138869,-0.08416562095665574,0.00879612616954787,0,0,0,0,0,0,1500,1500,1500,1500,1500,1500
1748132828.1634984,-0.06,-0.12,-0.08,0.001090830782496456,0.001090830782496456,-0.001090830782496456,-0.2168116501138869,-0.08416562095665574,0.00879612616954787,0,0,0,0,0,0,1500,1500,1500,1500,1500,1500
1748132828.2637427,-0.06,-0.12,-0.08,0.001090830782496456,0.001090830782496456,-0.001090830782496456,-0.2168116501138869,-0.08416562095665574,0.00879612616954787,0,0,0,0,0,0,1500,1500,1500,1500,1500,1500
1748132828.366909,-0.09,-0.12,-0.01,0.00545415391248228,-0.002181661564992912,0.002181661564992912,-0.2168116501138869,-0.08416562095665574,0.00879612616954787,0,0,0,0,0,0,1500,1500,1500,1500,1500,1500
1748132828.4646919,-0.03,-0.09,-0.06,-0.006544984694978736,0.003272492347489368,0.0,2.5939707528285627,-0.08343061994044199,-0.1596307998645438,0,0,0,0,0,0,1500,1500,1500,1500,1500,1500
1748132828.5645463,-0.03,-0.09,-0.06,-0.006544984694978736,0.003272492347489368,0.0,2.5939707528285627,-0.08343061994044199,-0.1596307998645438,0,0,0,0,0,0,1500,1500,1500,1500,1500,1500
1748132828.6576836,-0.07,-0.08,-0.11,-0.001090830782496456,0.0,0.0,-0.2168116501138869,-0.08416562095665574,0.00879612616954787,0,0,0,0,0,0,1500,1500,1500,1500,1500,1500
1748132828.74596,-0.07,-0.08,-0.11,-0.001090830782496456,0.0,0.0,-0.2168116501138869,-0.08416562095665574,0.00879612616954787,0,0,0,0,0,0,1500,1500,1500,1500,1500,1500
1748132828.847115,-0.06,-0.06,-0.11,0.0,0.001090830782496456,0.0,-0.2168116501138869,-0.08416562095665574,0.00879612616954787,0,0,0,0,0,0,1500,1500,1500,1500,1500,1500
1748132828.946696,-0.08,-0.09,-0.07,0.002181661564992912,0.0,0.001090830782496456,-0.2168116501138869,-0.08416562095665574,0.00879612616954787,0,0,0,0,0,0,1500,1500,1500,1500,1500,1500
1748132829.050592,-0.08,-0.09,-0.07,0.002181661564992912,0.0,0.001090830782496456,-0.2168116501138869,-0.08416562095665574,0.00879612616954787,0,0,0,0,0,0,1500,1500,1500,1500,1500,1500
1748132829.1473444,-0.07,-0.11,0.0,-0.002181661564992912,-0.002181661564992912,0.001090830782496456,-0.2168116501138869,-0.08416562095665574,0.00879612616954787,0,0,0,0,0,0,1500,1500,1500,1500,1500,1500
1748132829.2473757,-0.07,-0.12,-0.06,0.001090830782496456,0.007635815477475192,-0.001090830782496456,-0.2168116501138869,-0.08416562095665574,0.00879612616954787,0,0,0,0,0,0,1500,1500,1500,1500,1500,1500
1748132829.3470001,-0.07,-0.12,-0.06,0.001090830782496456,0.007635815477475192,-0.001090830782496456,-0.2168116501138869,-0.08416562095665574,0.00879612616954787,0,0,0,0,0,0,1500,1500,1500,1500,1500,1500
1748132829.43016,-0.07,-0.07,-0.1,0.0,-0.003272492347489368,-0.001090830782496456,-0.2168116501138869,-0.08416562095665574,0.00879612616954787,0,0,0,0,0,0,1500,1500,1500,1500,1500,1500
1748132829.5345836,-0.07,-0.07,-0.1,0.0,-0.003272492347489368,-0.001090830782496456,-0.2168116501138869,-0.08416562095665574,0.00879612616954787,0,0,0,0,0,0,1500,1500,1500,1500,1500,1500
1748132829.6159883,-0.09,-0.09,-0.11,0.0,0.0,0.0,-0.2168116501138869,-0.08416562095665574,0.00879612616954787,0,0,0,0,0,0,1500,1500,1500,1500,1500,1500
1748132829.7106838,-0.07,-0.1,-0.1,0.003272492347489368,-0.14180800172453928,-0.002181661564992912,-0.2168116501138869,-0.08416562095665574,0.00879612616954787,0,0,0,0,0,0,1500,1500,1500,1500,1500,1500
1748132829.8145735,-0.07,-0.1,-0.1,0.003272492347489368,-0.14180800172453928,-0.002181661564992912,-0.2168116501138869,-0.08416562095665574,0.00879612616954787,0,0,0,0,0,0,1500,1500,1500,1500,1500,1500
1748132829.8978379,-0.07,-0.12,0.0,0.001090830782496456,0.002181661564992912,0.0,-0.2168116501138869,-0.08416562095665574,0.00879612616954787,0,0,0,0,0,0,1500,1500,1500,1500,1500,1500
1748132829.9977612,-0.07,-0.12,0.0,0.001090830782496456,0.002181661564992912,0.0,-0.2168116501138869,-0.08416562095665574,0.00879612616954787,0,0,0,0,0,0,1500,1500,1500,1500,1500,1500
1748132830.097324,-0.04,-0.09,-0.04,0.001090830782496456,-0.001090830782496456,0.0,-0.2168116501138869,-0.08416562095665574,0.00879612616954787,0,0,0,0,0,0,1500,1500,1500,1500,1500,1500
1748132830.197853,-0.04,-0.07,-0.11,0.0,-0.001090830782496456,0.001090830782496456,-0.2168116501138869,-0.08416562095665574,0.00879612616954787,0,0,0,0,0,0,1500,1500,1500,1500,1500,1500
1748132830.2981114,-0.04,-0.07,-0.11,0.0,-0.001090830782496456,0.001090830782496456,-0.2168116501138869,-0.08416562095665574,0.00879612616954787,0,0,0,0,0,0,1500,1500,1500,1500,1500,1500
1748132830.3980956,-0.07,-0.11,-0.01,-0.001090830782496456,-0.002181661564992912,0.003272492347489368,-0.2168116501138869,-0.08416562095665574,0.00879612616954787,0,0,0,0,0,0,1500,1500,1500,1500,1500,1500
1748132830.4983504,-0.1,-0.1,0.02,-0.003272492347489368,0.002181661564992912,0.003272492347489368,-0.2168116501138869,-0.08416562095665574,0.00879612616954787,0,0,0,0,0,0,1500,1500,1500,1500,1500,1500
1748132830.5971172,-0.1,-0.1,0.02,-0.003272492347489368,0.002181661564992912,0.003272492347489368,-0.2168116501138869,-0.08416562095665574,0.00879612616954787,0,0,0,0,0,0,1500,1500,1500,1500,1500,1500
1748132830.6971724,-0.07,-0.1,-0.02,-0.002181661564992912,0.002181661564992912,0.003272492347489368,-0.2168116501138869,-0.08416562095665574,0.00879612616954787,0,0,0,0,0,0,1500,1500,1500,1500,1500,1500
1748132830.8003285,-0.07,-0.1,-0.02,-0.002181661564992912,0.002181661564992912,0.003272492347489368,-0.2168116501138869,-0.08416562095665574,0.00879612616954787,0,0,0,0,0,0,1500,1500,1500,1500,1500,1500
1748132830.8972933,-0.05,-0.09,-0.05,0.0,-0.003272492347489368,0.003272492347489368,-0.2168116501138869,-0.08416562095665574,0.00879612616954787,0,0,0,0,0,0,1500,1500,1500,1500,1500,1500
1748132830.9966996,-0.04,-0.05,-0.1,-0.003272492347489368,0.0,0.001090830782496456,-0.2168116501138869,-0.08416562095665574,0.00879612616954787,0,0,0,0,0,0,1500,1500,1500,1500,1500,1500
1748132831.098009,-0.04,-0.05,-0.1,-0.003272492347489368,0.0,0.001090830782496456,-0.2168116501138869,-0.08416562095665574,0.00879612616954787,0,0,0,0,0,0,1500,1500,1500,1500,1500,1500
1748132831.198661,-0.08,-0.11,0.0,-0.002181661564992912,0.006544984694978736,-0.001090830782496456,-0.2168116501138869,-0.08416562095665574,0.00879612616954787,0,0,0,0,0,0,1500,1500,1500,1500,1500,1500
1748132831.2891712,-0.06,-0.1,0.01,0.002181661564992912,0.00545415391248228,0.003272492347489368,-0.2168116501138869,-0.08416562095665574,0.00879612616954787,0,0,0,0,0,0,1500,1500,1500,1500,1500,1500
1748132831.398099,-0.06,-0.1,0.01,0.002181661564992912,0.00545415391248228,0.003272492347489368,-0.2168116501138869,-0.08416562095665574,0.00879612616954787,0,0,0,0,0,0,1500,1500,1500,1500,1500,1500
1748132831.49708,-0.06,-0.07,-0.04,0.004363323129985824,-0.002181661564992912,0.0,-0.2168116501138869,-0.08416562095665574,0.00879612616954787,0,0,0,0,0,0,1500,1500,1500,1500,1500,1500
1748132831.5993276,-0.06,-0.07,-0.04,0.004363323129985824,-0.002181661564992912,0.0,-0.2168116501138869,-0.08416562095665574,0.00879612616954787,0,0,0,0,0,0,1500,1500,1500,1500,1500,1500
1748132831.6975393,-0.07,-0.06,-0.07,0.001090830782496456,0.001090830782496456,-0.002181661564992912,-0.2168116501138869,-0.08416562095665574,0.00879612616954787,0,0,0,0,0,0,1500,1500,1500,1500,1500,1500
1748132831.797897,-0.07,-0.07,-0.11,0.001090830782496456,0.003272492347489368,0.002181661564992912,-0.2168116501138869,-0.08416562095665574,0.00879612616954787,0,0,0,0,0,0,1500,1500,1500,1500,1500,1500
1748132831.8975806,-0.07,-0.07,-0.11,0.001090830782496456,0.003272492347489368,0.002181661564992912,-0.2168116501138869,-0.08416562095665574,0.00879612616954787,0,0,0,0,0,0,1500,1500,1500,1500,1500,1500
1748132832.0014436,-0.06,-0.11,0.01,0.002181661564992912,-0.001090830782496456,0.003272492347489368,-0.2168116501138869,-0.08416562095665574,0.00879612616954787,0,0,0,0,0,0,1500,1500,1500,1500,1500,1500
1748132832.0856724,-0.06,-0.08,0.0,-0.004363323129985824,-0.003272492347489368,-0.001090830782496456,-0.2168116501138869,-0.08416562095665574,0.00879612616954787,0,0,0,0,0,0,1500,1500,1500,1500,1500,1500
1748132832.1802557,-0.06,-0.08,0.0,-0.004363323129985824,-0.003272492347489368,-0.001090830782496456,-0.2168116501138869,-0.08416562095665574,0.00879612616954787,0,0,0,0,0,0,1500,1500,1500,1500,1500,1500
1748132832.2803326,-0.04,-0.08,-0.06,0.0,0.004363323129985824,-0.002181661564992912,-0.2168116501138869,-0.08416562095665574,0.00879612616954787,0,0,0,0,0,0,1500,1500,1500,1500,1500,1500
1748132832.3789513,-0.04,-0.08,-0.06,0.0,0.004363323129985824,-0.002181661564992912,-0.2168116501138869,-0.08416562095665574,0.00879612616954787,0,0,0,0,0,0,1500,1500,1500,1500,1500,1500
1748132832.4793065,-0.05,-0.06,-0.07,0.002181661564992912,0.001090830782496456,0.002181661564992912,-0.2168116501138869,-0.08416562095665574,0.00879612616954787,0,0,0,0,0,0,1500,1500,1500,1500,1500,1500
1748132832.5792482,-0.05,-0.12,0.0,0.004363323129985824,0.0,-0.001090830782496456,-0.2168116501138869,-0.08416562095665574,0.00879612616954787,0,0,0,0,0,0,1500,1500,1500,1500,1500,1500
1748132832.665939,-0.05,-0.12,0.0,0.004363323129985824,0.0,-0.001090830782496456,-0.2168116501138869,-0.08416562095665574,0.00879612616954787,0,0,0,0,0,0,1500,1500,1500,1500,1500,1500
1748132832.765667,-0.05,-0.1,-0.03,-0.002181661564992912,0.0,-0.002181661564992912,-0.2168116501138869,-0.08416562095665574,0.00879612616954787,0,0,0,0,0,0,1500,1500,1500,1500,1500,1500
1748132832.8643484,-0.05,-0.1,-0.03,-0.002181661564992912,0.0,-0.002181661564992912,-0.2168116501138869,-0.08416562095665574,0.00879612616954787,0,0,0,0,0,0,1500,1500,1500,1500,1500,1500
1748132832.966014,-0.04,-0.07,-0.03,-0.002181661564992912,0.0,0.001090830782496456,-0.2168116501138869,-0.08416562095665574,0.00879612616954787,0,0,0,0,0,0,1500,1500,1500,1500,1500,1500
1748132833.063218,-0.05,-0.05,-0.06,0.001090830782496456,0.002181661564992912,-0.001090830782496456,-0.2168116501138869,-0.08416562095665574,0.00879612616954787,0,0,0,0,0,0,1500,1500,1500,1500,1500,1500
1748132833.1625628,-0.05,-0.05,-0.06,0.001090830782496456,0.002181661564992912,-0.001090830782496456,-0.2168116501138869,-0.08416562095665574,0.00879612616954787,0,0,0,0,0,0,1500,1500,1500,1500,1500,1500
1748132833.263702,-0.06,-0.09,-0.01,-0.001090830782496456,0.003272492347489368,-0.002181661564992912,-0.2168116501138869,-0.08416562095665574,0.00879612616954787,0,0,0,0,0,0,1500,1500,1500,1500,1500,1500
1748132833.3637066,-0.04,-0.07,0.01,-0.002181661564992912,0.003272492347489368,-0.003272492347489368,-0.2168116501138869,-0.08416562095665574,0.00879612616954787,0,0,0,0,0,0,1500,1500,1500,1500,1500,1500
1748132833.4636004,-0.04,-0.07,0.01,-0.002181661564992912,0.003272492347489368,-0.003272492347489368,-0.2168116501138869,-0.08416562095665574,0.00879612616954787,0,0,0,0,0,0,1500,1500,1500,1500,1500,1500
1748132833.56368,-0.04,-0.08,0.0,0.001090830782496456,-0.001090830782496456,-0.001090830782496456,-0.2168116501138869,-0.08416562095665574,0.00879612616954787,0,0,0,0,0,0,1500,1500,1500,1500,1500,1500
1748132833.6490734,-0.04,-0.08,0.0,0.001090830782496456,-0.001090830782496456,-0.001090830782496456,-0.2168116501138869,-0.08416562095665574,0.00879612616954787,0,0,0,0,0,0,1500,1500,1500,1500,1500,1500
1748132833.7475035,-0.05,-0.04,-0.05,0.001090830782496456,-0.002181661564992912,0.0,-0.2168116501138869,-0.08416562095665574,0.00879612616954787,0,0,0,0,0,0,1500,1500,1500,1500,1500,1500
1748132833.8527844,-0.05,-0.06,-0.11,-0.003272492347489368,0.001090830782496456,-0.003272492347489368,-0.2168116501138869,-0.08416562095665574,0.00879612616954787,0,0,0,0,0,0,1500,1500,1500,1500,1500,1500
1748132833.955744,-0.05,-0.06,-0.11,-0.003272492347489368,0.001090830782496456,-0.003272492347489368,-0.2168116501138869,-0.08416562095665574,0.00879612616954787,0,0,0,0,0,0,1500,1500,1500,1500,1500,1500
1748132834.0541224,-0.06,-0.07,0.02,-0.003272492347489368,0.002181661564992912,-0.004363323129985824,-0.2168116501138869,-0.08416562095665574,0.00879612616954787,0,0,0,0,0,0,1500,1500,1500,1500,1500,1500
1748132834.152466,-0.05,-0.07,0.0,0.001090830782496456,-0.003272492347489368,-0.003272492347489368,-0.2168116501138869,-0.08416562095665574,0.00879612616954787,0,0,0,0,0,0,1500,1500,1500,1500,1500,1500
1748132834.2485585,-0.05,-0.07,0.0,0.001090830782496456,-0.003272492347489368,-0.003272492347489368,-0.2168116501138869,-0.08416562095665574,0.00879612616954787,0,0,0,0,0,0,1500,1500,1500,1500,1500,1500
1748132834.342288,-0.04,-0.03,-0.03,0.001090830782496456,-0.004363323129985824,0.0,-0.2168116501138869,-0.08416562095665574,0.00879612616954787,0,0,0,0,0,0,1500,1500,1500,1500,1500,1500
1748132834.4393997,-0.04,-0.03,-0.03,0.001090830782496456,-0.004363323129985824,0.0,-0.2168116501138869,-0.08416562095665574,0.00879612616954787,0,0,0,0,0,0,1500,1500,1500,1500,1500,1500
1748132834.5417485,-0.04,-0.03,-0.06,-0.002181661564992912,-0.00545415391248228,0.001090830782496456,-0.2168116501138869,-0.08416562095665574,0.00879612616954787,0,0,0,0,0,0,1500,1500,1500,1500,1500,1500
1748132834.6379592,-0.04,-0.06,-0.09,-0.004363323129985824,-0.001090830782496456,0.003272492347489368,-0.2168116501138869,-0.08416562095665574,0.00879612616954787,0,0,0,0,0,0,1500,1500,1500,1500,1500,1500
1748132834.728113,-0.04,-0.06,-0.09,-0.004363323129985824,-0.001090830782496456,0.003272492347489368,-0.2168116501138869,-0.08416562095665574,0.00879612616954787,0,0,0,0,0,0,1500,1500,1500,1500,1500,1500
1748132834.8290198,-0.04,-0.08,-0.01,0.001090830782496456,0.002181661564992912,0.0,-0.2168116501138869,-0.08416562095665574,0.00879612616954787,0,0,0,0,0,0,1500,1500,1500,1500,1500,1500
1748132834.9269934,-0.05,-0.04,-0.01,0.001090830782496456,-0.004363323129985824,0.0,-0.2168116501138869,-0.08416562095665574,0.00879612616954787,0,0,0,0,0,0,1500,1500,1500,1500,1500,1500
1748132835.0283935,-0.05,-0.04,-0.01,0.001090830782496456,-0.004363323129985824,0.0,-0.2168116501138869,-0.08416562095665574,0.00879612616954787,0,0,0,0,0,0,1500,1500,1500,1500,1500,1500
1748132835.1279306,-0.05,-0.02,-0.05,-0.002181661564992912,0.003272492347489368,0.001090830782496456,-0.2168116501138869,-0.08416562095665574,0.00879612616954787,0,0,0,0,0,0,1500,1500,1500,1500,1500,1500
1748132835.2123585,-0.05,-0.02,-0.05,-0.002181661564992912,0.003272492347489368,0.001090830782496456,-0.2168116501138869,-0.08416562095665574,0.00879612616954787,0,0,0,0,0,0,1500,1500,1500,1500,1500,1500
1748132835.3136535,-0.05,-0.06,-0.04,-0.002181661564992912,0.0,0.002181661564992912,-0.2168116501138869,-0.08416562095665574,0.00879612616954787,0,0,0,0,0,0,1500,1500,1500,1500,1500,1500
1748132835.400003,-0.04,-0.08,0.0,0.001090830782496456,-0.001090830782496456,0.0,-0.2168116501138869,-0.08416562095665574,0.00879612616954787,0,0,0,0,0,0,1500,1500,1500,1500,1500,1500
1748132835.4966452,-0.04,-0.08,0.0,0.001090830782496456,-0.001090830782496456,0.0,-0.2168116501138869,-0.08416562095665574,0.00879612616954787,0,0,0,0,0,0,1500,1500,1500,1500,1500,1500
1748132835.595868,-0.06,-0.05,-0.04,-0.003272492347489368,-0.002181661564992912,-0.002181661564992912,-0.2168116501138869,-0.08416562095665574,0.00879612616954787,0,0,0,0,0,0,1500,1500,1500,1500,1500,1500
1748132835.683043,-0.06,-0.05,-0.04,-0.003272492347489368,-0.002181661564992912,-0.002181661564992912,-0.2168116501138869,-0.08416562095665574,0.00879612616954787,0,0,0,0,0,0,1500,1500,1500,1500,1500,1500
1748132835.7784452,-0.07,-0.04,-0.07,-0.00545415391248228,0.00545415391248228,0.002181661564992912,-0.2168116501138869,-0.08416562095665574,0.00879612616954787,0,0,0,0,0,0,1500,1500,1500,1500,1500,1500
1748132835.8783135,-0.07,-0.04,-0.07,-0.00545415391248228,0.00545415391248228,0.002181661564992912,-0.2168116501138869,-0.08416562095665574,0.00879612616954787,0,0,0,0,0,0,1500,1500,1500,1500,1500,1500
1748132835.9815557,-0.05,-0.04,-0.08,-0.003272492347489368,0.002181661564992912,0.0,-0.2168116501138869,-0.08416562095665574,0.00879612616954787,0,0,0,0,0,0,1500,1500,1500,1500,1500,1500
1748132836.0794945,-0.06,-0.06,-0.08,-0.001090830782496456,0.001090830782496456,-0.002181661564992912,-0.2168116501138869,-0.08416562095665574,0.00879612616954787,0,0,0,0,0,0,1500,1500,1500,1500,1500,1500
1748132836.1635425,-0.06,-0.06,-0.08,-0.001090830782496456,0.001090830782496456,-0.002181661564992912,-0.2168116501138869,-0.08416562095665574,0.00879612616954787,0,0,0,0,0,0,1500,1500,1500,1500,1500,1500
1748132836.2649684,-0.08,-0.11,0.0,-0.004363323129985824,-0.003272492347489368,0.0,-0.2168116501138869,-0.08416562095665574,0.00879612616954787,0,0,0,0,0,0,1500,1500,1500,1500,1500,1500
1748132836.3538148,-0.06,-0.12,-0.01,0.001090830782496456,-0.002181661564992912,0.002181661564992912,-0.2168116501138869,-0.08416562095665574,0.00879612616954787,0,0,0,0,0,0,1500,1500,1500,1500,1500,1500
1748132836.4443996,-0.06,-0.12,-0.01,0.001090830782496456,-0.002181661564992912,0.002181661564992912,-0.2168116501138869,-0.08416562095665574,0.00879612616954787,0,0,0,0,0,0,1500,1500,1500,1500,1500,1500
1748132836.544428,-0.08,-0.09,-0.03,-0.001090830782496456,-0.004363323129985824,0.001090830782496456,-0.2168116501138869,-0.08416562095665574,0.00879612616954787,0,0,0,0,0,0,1500,1500,1500,1500,1500,1500
1748132836.6447854,-0.08,-0.09,-0.03,-0.001090830782496456,-0.004363323129985824,0.001090830782496456,-0.2168116501138869,-0.08416562095665574,0.00879612616954787,0,0,0,0,0,0,1500,1500,1500,1500,1500,1500
1748132836.744252,-0.08,-0.09,-0.07,-0.00545415391248228,0.00545415391248228,-0.002181661564992912,-0.2168116501138869,-0.08416562095665574,0.00879612616954787,0,0,0,0,0,0,1500,1500,1500,1500,1500,1500
1748132836.8449664,-0.09,-0.15,-0.08,-0.006544984694978736,0.001090830782496456,0.0,-0.2168116501138869,-0.08416562095665574,0.00879612616954787,0,0,0,0,0,0,1500,1500,1500,1500,1500,1500
1748132836.9281168,-0.09,-0.15,-0.08,-0.006544984694978736,0.001090830782496456,0.0,-0.2168116501138869,-0.08416562095665574,0.00879612616954787,0,0,0,0,0,0,1500,1500,1500,1500,1500,1500
1748132837.0290723,-0.09,-0.17,-0.04,-0.001090830782496456,-0.002181661564992912,-0.002181661564992912,-0.2168116501138869,-0.08416562095665574,0.00879612616954787,0,0,0,0,0,0,1500,1500,1500,1500,1500,1500
1748132837.1279628,-0.09,-0.17,-0.04,-0.001090830782496456,-0.002181661564992912,-0.002181661564992912,-0.2168116501138869,-0.08416562095665574,0.00879612616954787,0,0,0,0,0,0,1500,1500,1500,1500,1500,1500
1748132837.2113352,-0.09,-0.15,-0.02,-0.003272492347489368,0.004363323129985824,0.002181661564992912,-0.2168116501138869,-0.08416562095665574,0.00879612616954787,0,0,0,0,0,0,1500,1500,1500,1500,1500,1500
1748132837.3117442,-0.11,-0.19,0.0,0.0,0.0,0.0,-0.2171700839526895,-0.08403883332947916,0.008798360328990524,0,0,0,0,0,0,1500,1500,1500,1500,1500,1500
1748132837.411246,-0.11,-0.19,0.0,0.0,0.0,0.0,-0.2171700839526895,-0.08403883332947916,0.008798360328990524,0,0,0,0,0,0,1500,1500,1500,1500,1500,1500
1748132837.512318,-0.06,-0.15,-0.13,-0.004363323129985824,-0.002181661564992912,0.001090830782496456,-0.21926161394491658,-0.08304739119963622,0.008900319556064648,0,0,0,0,0,0,1500,1500,1500,1500,1500,1500
1748132837.6119134,-0.06,-0.15,-0.13,-0.004363323129985824,-0.002181661564992912,0.001090830782496456,-0.21926161394491658,-0.08304739119963622,0.008900319556064648,0,0,0,0,0,0,1500,1500,1500,1500,1500,1500
1748132837.6948776,-0.08,-0.17,-0.11,-0.00545415391248228,0.002181661564992912,0.001090830782496456,-0.22109838967191167,-0.08215897965575575,0.009125318502508544,0,0,0,0,0,0,1500,1500,1500,1500,1500,1500
1748132837.7948601,-0.09,-0.22,0.0,-0.002181661564992912,0.003272492347489368,0.0,-0.22319276625821005,-0.08128897738581924,0.009237083732843042,0,0,0,0,0,0,1500,1500,1500,1500,1500,1500
1748132837.8948286,-0.09,-0.22,0.0,-0.002181661564992912,0.003272492347489368,0.0,-0.22319276625821005,-0.08128897738581924,0.009237083732843042,0,0,0,0,0,0,1500,1500,1500,1500,1500,1500
1748132837.9947488,-0.09,-0.17,0.01,0.002181661564992912,0.0,0.003272492347489368,-0.2252768179198252,-0.08027860966736257,0.009454793486110332,0,0,0,0,0,0,1500,1500,1500,1500,1500,1500
1748132838.0944343,-0.09,-0.17,0.01,0.002181661564992912,0.0,0.003272492347489368,-0.2252768179198252,-0.08027860966736257,0.009454793486110332,0,0,0,0,0,0,1500,1500,1500,1500,1500,1500
1748132838.1946204,-0.07,-0.17,-0.01,0.0,-0.001090830782496456,0.0,-0.22712481695572595,-0.07953000822420558,0.009566948597488998,0,0,0,0,0,0,1500,1500,1500,1500,1500,1500
1748132838.2943764,-0.07,-0.18,-0.1,-0.001090830782496456,0.0,-0.001090830782496456,-0.22921374032628122,-0.07876241578500372,0.009808961651368242,0,0,0,0,0,0,1500,1500,1500,1500,1500,1500
1748132838.3938234,-0.07,-0.18,-0.1,-0.001090830782496456,0.0,-0.001090830782496456,-0.22921374032628122,-0.07876241578500372,0.009808961651368242,0,0,0,0,0,0,1500,1500,1500,1500,1500,1500
1748132838.494154,-0.05,-0.18,-0.09,-0.001090830782496456,-0.00545415391248228,-0.001090830782496456,-0.23129590854656887,-0.0778871053154229,0.009913651775505164,0,0,0,0,0,0,1500,1500,1500,1500,1500,1500
1748132838.5949779,-0.08,-0.2,0.0,-0.001090830782496456,-0.002181661564992912,0.0,-0.23339445190170846,-0.07713807712428356,0.01003090180765298,0,0,0,0,0,0,1500,1500,1500,1500,1500,1500
1748132838.6799743,-0.08,-0.2,0.0,-0.001090830782496456,-0.002181661564992912,0.0,-0.23339445190170846,-0.07713807712428356,0.01003090180765298,0,0,0,0,0,0,1500,1500,1500,1500,1500,1500
1748132838.7794583,-0.08,-0.21,-0.02,-0.003272492347489368,-0.004363323129985824,-0.004363323129985824,-0.23560672768244398,-0.07624829862432851,0.010258290065211138,0,0,0,0,0,0,1500,1500,1500,1500,1500,1500
1748132838.878725,-0.08,-0.21,-0.02,-0.003272492347489368,-0.004363323129985824,-0.004363323129985824,-0.23560672768244398,-0.07624829862432851,0.010258290065211138,0,0,0,0,0,0,1500,1500,1500,1500,1500,1500
1748132838.9603024,-0.08,-0.19,-0.08,-0.004363323129985824,-0.001090830782496456,-0.001090830782496456,-0.23781927958389074,-0.07535825184516287,0.010483712993051258,0,0,0,0,0,0,1500,1500,1500,1500,1500,1500
1748132839.0625916,-0.09,-0.17,-0.12,0.0,0.001090830782496456,0.0,-0.2402774916623688,-0.0744823631990179,0.010594934533069172,0,0,0.193498,0,0,0,1500,1500,1500,1500,1500,1500
1748132839.164622,-0.09,-0.17,-0.12,0.0,0.001090830782496456,0.0,-0.2402774916623688,-0.0744823631990179,0.010594934533069172,0,0,2.020124,0,0,0,1500,1500,1500,1500,1460,1540
1748132839.2658784,-0.07,-0.19,-0.06,-0.002181661564992912,-0.002181661564992912,0.001090830782496456,-0.24249077649601533,-0.07359188154680374,0.010816347229357055,0,0,4.744582,0,0,0,1500,1500,1460,1500,1420,1580
1748132839.3613827,-0.07,-0.22,-0.02,-0.002181661564992912,-0.002181661564992912,-0.001090830782496456,-0.2448250282210393,-0.07271591341694587,0.010918898596302339,0,0,5.178019,0,0,0,1500,1500,1460,1500,1380,1609
1748132839.4541721,-0.07,-0.22,-0.02,-0.002181661564992912,-0.002181661564992912,-0.001090830782496456,-0.2448250282210393,-0.07271591341694587,0.010918898596302339,0,0,5.239938,0,0,0,1500,1500,1460,1500,1373,1609
1748132839.5473382,0.02,-0.16,-0.01,0.019634954084936207,-0.002181661564992912,-0.018544123302439753,-0.24579488322387233,-0.07211847991332089,0.010758035798564911,0,0,5.704334,0,0,0,1500,1500,1460,1500,1365,1615
1748132839.637177,0.02,-0.16,-0.01,0.019634954084936207,-0.002181661564992912,-0.018544123302439753,-0.24579488322387233,-0.07211847991332089,0.010758035798564911,0,0,6.013932,0,0,0,1500,1500,1460,1500,1361,1619
1748132839.7313035,-0.21,-0.17,0.41000000000000003,0.031634092692397225,0.026179938779914945,-0.02399827721492203,-0.23976441190177564,-0.0719087388916623,0.0074355325537883285,0,0,6.26161,0,0,0,1500,1500,1459,1500,1358,1621
1748132839.8390584,-0.21,-0.17,0.41000000000000003,0.031634092692397225,0.026179938779914945,-0.02399827721492203,-0.23976441190177564,-0.0719087388916623,0.0074355325537883285,0,0,7.5,0,0,0,1538,1538,1456,1500,1343,1635
1748132839.9335332,0.04,-0.27,0.3,0.014180800172453928,0.13962634015954636,-0.014180800172453928,-0.23542288364436678,-0.05888634144043931,0.0010625661150006844,0,0,5.890093,0,0,0,1500,1500,1460,1500,1363,1617
1748132840.0350573,0.0,-0.29,0.35000000000000003,0.006544984694978736,0.16798794050445423,-0.003272492347489368,-0.23537032132433536,-0.03602544832281431,-0.00422317879677159,0,0,4.156347,0,0,0,1500,1500,1461,1500,1388,1597
1748132840.1464155,-0.14,-0.15,-0.27,0.019634954084936207,0.18762289458939044,-0.007635815477475192,-0.23500387995380825,-0.008177200192633459,-0.010958236467106402,0,0,4.156347,0,0,0,1500,1500,1461,1500,1388,1597
1748132840.2462094,-0.14,-0.15,-0.27,0.019634954084936207,0.18762289458939044,-0.007635815477475192,-0.23500387995380825,-0.008177200192633459,-0.010958236467106402,0,0,4.404025,0,0,0,1500,1500,1461,1500,1385,1600
1748132840.3520439,-0.05,-0.4,0.0,0.08290313946973066,0.16798794050445423,-0.022907446432425576,-0.22872044158569063,0.018359589824027876,-0.01882066427467299,0,0,4.404025,0,0,0,1500,1500,1461,1500,1385,1600
1748132840.4470506,-0.05,-0.4,0.0,0.08290313946973066,0.16798794050445423,-0.022907446432425576,-0.22872044158569063,0.018359589824027876,-0.01882066427467299,0,0,3.227554,0,0,0,1500,1500,1500,1500,1403,1585
1748132840.54704,0.0,-0.28,-0.02,0.13853550937704992,0.18216874067690814,-0.032724923474893676,-0.21593367473802702,0.042089967772231104,-0.028634611057481985,0,0,1.865325,0,0,0,1500,1500,1500,1500,1424,1566
1748132840.6460266,-0.07,-0.22,-0.09,0.18216874067690814,0.17016960206944712,-0.039269908169872414,-0.1948167604833212,0.06823639334105015,-0.04005291901851108,0,0,1.803406,0,0,0,1500,1500,1500,1500,1426,1565
1748132840.748449,-0.07,-0.22,-0.09,0.18216874067690814,0.17016960206944712,-0.039269908169872414,-0.1948167604833212,0.06823639334105015,-0.04005291901851108,0,0,1.122291,0,0,0,1500,1500,1500,1500,1440,1553
1748132840.847311,-0.07,-0.19,-0.12,0.2279836335417593,0.14289883250703572,-0.05235987755982989,-0.17073625479703639,0.09047424664753066,-0.05165698274946467,0,0,0,0,0,0,1500,1500,1500,1500,1480,1513
1748132840.9461205,-0.04,-0.18,-0.15,0.27379852640661045,0.12326387842209953,-0.06435901616729091,-0.13773552899104305,0.11070102645370532,-0.06439130847195365,0,0,0,0,0,0,1500,1500,1500,1500,1500,1500
1748132841.047207,-0.04,-0.18,-0.15,0.27379852640661045,0.12326387842209953,-0.06435901616729091,-0.13773552899104305,0.11070102645370532,-0.06439130847195365,0,0,0,0,0,0,1500,1500,1500,1500,1500,1500
1748132841.135155,-0.16,-0.35000000000000003,-0.06,0.3196134192714616,0.09708393964218458,-0.06872233929727672,-0.10026500607808952,0.1271214261185462,-0.07657548814258866,0,0,0,0,0,0,1500,1500,1500,1500,1500,1500
1748132841.2284863,-0.01,-0.14,-0.14,0.33052172709642613,0.07744898555724837,-0.07090400086226964,-0.05503430848427273,0.14019302984876192,-0.08933951491718828,0,0,0,0,0,0,1500,1500,1500,1500,1500,1500
1748132841.3314588,-0.01,-0.14,-0.14,0.33052172709642613,0.07744898555724837,-0.07090400086226964,-0.05503430848427273,0.14019302984876192,-0.08933951491718828,0,0,0,0,0,0,1500,1500,1500,1500,1500,1500
1748132841.431402,0.0,-0.18,-0.15,0.33488505022641196,0.07308566242726255,-0.07744898555724837,-0.010712627318765683,0.15104797517519195,-0.10099546806360785,0,0,0,0,0,0,1500,1500,1500,1500,1500,1500
1748132841.5308228,0.0,-0.18,-0.15,0.33488505022641196,0.07308566242726255,-0.07744898555724837,-0.010712627318765683,0.15104797517519195,-0.10099546806360785,0,0,0,0,0,0.7,1540,1460,1500,1500,1500,1500
