time,ay,ax,az,gy,gx,gz,roll,pitch,yaw,cmd_fx,cmd_fy,cmd_fz,cmd_tx,cmd_ty,cmd_tz,pwm_1,pwm_2,pwm_3,pwm_4,pwm_5,pwm_6
1747617369.8164933,0.0,0.0,0.0,0.0,0.0,0.0,0.0,0.0,0.0,0,0,0,0,0,0,1500,1500,1500,1500,1500,1500
1747617369.9062777,-0.08,0.0,-0.38,0.001090830782496456,0.0,-0.001090830782496456,-0.0017185558925649981,-0.12214282350549771,0.0001050911178162464,0,0,0,0,0,0,1500,1500,1500,1500,1500,1500
1747617370.0064855,-0.08,0.0,-0.38,0.001090830782496456,0.0,-0.001090830782496456,-0.0017185558925649981,-0.12214282350549771,0.0001050911178162464,0,0,0,0,0,0,1500,1500,1500,1500,1500,1500
1747617370.0891411,-0.06,0.0,-0.46,0.0,0.002181661564992912,-0.002181661564992912,0.0017250715321633192,0.12260824014611596,0.0001050911178162464,0,0,0,0,0,0,1500,1500,1500,1500,1500,1500
1747617370.1923063,-0.06,0.0,-0.46,0.0,0.002181661564992912,-0.002181661564992912,0.0017250715321633192,0.12260824014611596,0.0001050911178162464,0,0,0,0,0,0,1500,1500,1500,1500,1500,1500
1747617370.2886784,-0.08,0.0,-0.41000000000000003,-0.006544984694978736,-0.002181661564992912,0.002181661564992912,-0.0017185301051565042,-0.12202007054881273,0.00010498445135394003,0,0,0,0,0,0,1500,1500,1500,1500,1500,1500
1747617370.3887556,-0.05,0.01,-0.41000000000000003,0.0,-0.001090830782496456,-0.001090830782496456,-0.0017185301051565042,-0.12202007054881273,0.00010498445135394003,0,0,0,0,0,0,1500,1500,1500,1500,1500,1500
1747617370.4888468,-0.05,0.01,-0.41000000000000003,0.0,-0.001090830782496456,-0.001090830782496456,-0.0017185301051565042,-0.12202007054881273,0.00010498445135394003,0,0,0,0,0,0,1500,1500,1500,1500,1500,1500
1747617370.5714345,-0.05,0.02,-0.43,0.00545415391248228,0.0,0.001090830782496456,-0.0017185301051565042,-0.12202007054881273,0.00010498445135394003,0,0,0,0,0,0,1500,1500,1500,1500,1500,1500
1747617370.6709075,-0.05,0.02,-0.43,0.00545415391248228,0.0,0.001090830782496456,-0.0017185301051565042,-0.12202007054881273,0.00010498445135394003,0,0,0,0,0,0,1500,1500,1500,1500,1500,1500
1747617370.7741146,-0.06,-0.01,-0.42,0.0,0.001090830782496456,0.001090830782496456,-0.0017185301051565042,-0.12202007054881273,0.00010498445135394003,0,0,0,0,0,0,1500,1500,1500,1500,1500,1500
1747617370.8731213,-0.07,0.01,-0.4,-0.001090830782496456,-0.00545415391248228,0.0,-0.0017185301051565042,-0.12202007054881273,0.00010498445135394003,0,0,0,0,0,0,1500,1500,1500,1500,1500,1500
1747617370.973132,-0.07,0.01,-0.4,-0.001090830782496456,-0.00545415391248228,0.0,-0.0017185301051565042,-0.12202007054881273,0.00010498445135394003,0,0,0,0,0,0,1500,1500,1500,1500,1500,1500
1747617371.0555274,-0.05,-0.02,-0.44,0.0,0.004363323129985824,-0.001090830782496456,-0.0017185301051565042,-0.12202007054881273,0.00010498445135394003,0,0,0,0,0,0,1500,1500,1500,1500,1500,1500
1747617371.1531427,-0.05,-0.02,-0.44,0.0,0.004363323129985824,-0.001090830782496456,-0.0017185301051565042,-0.12202007054881273,0.00010498445135394003,0,0,0,0,0,0,1500,1500,1500,1500,1500,1500
1747617371.2549198,-0.06,0.01,-0.42,-0.001090830782496456,0.002181661564992912,0.0,-0.0017185301051565042,-0.12202007054881273,0.00010498445135394003,0,0,0,0,0,0,1500,1500,1500,1500,1500,1500
1747617371.34048,-0.06,0.01,-0.39,0.002181661564992912,-0.002181661564992912,-0.002181661564992912,-0.0017185301051565042,-0.12202007054881273,0.00010498445135394003,0,0,0,0,0,0,1500,1500,1500,1500,1500,1500
1747617371.4368403,-0.06,0.01,-0.39,0.002181661564992912,-0.002181661564992912,-0.002181661564992912,-0.0017185301051565042,-0.12202007054881273,0.00010498445135394003,0,0,0,0,0,0,1500,1500,1500,1500,1500,1500
1747617371.538819,-0.06,0.0,-0.41000000000000003,-0.002181661564992912,-0.00545415391248228,-0.001090830782496456,-0.0017185301051565042,-0.12202007054881273,0.00010498445135394003,0,0,0,0,0,0,1500,1500,1500,1500,1500,1500
1747617371.6377234,-0.04,0.0,-0.42,-0.001090830782496456,-0.002181661564992912,-0.001090830782496456,-0.0017185301051565042,-0.12202007054881273,0.00010498445135394003,0,0,0,0,0,0,1500,1500,1500,1500,1500,1500
1747617371.7373366,-0.04,0.0,-0.42,-0.001090830782496456,-0.002181661564992912,-0.001090830782496456,-0.0017185301051565042,-0.12202007054881273,0.00010498445135394003,0,0,0,0,0,0,1500,1500,1500,1500,1500,1500
1747617371.8641884,-0.05,-0.01,-0.4,0.0,0.001090830782496456,-0.001090830782496456,-0.0017185301051565042,-0.12202007054881273,0.00010498445135394003,0,0,0,0,0,0,1500,1500,1500,1500,1500,1500
1747617371.9542913,-0.05,0.0,-0.4,-0.003272492347489368,0.0,-0.001090830782496456,-0.0017185301051565042,-0.12202007054881273,0.00010498445135394003,0,0,0,0,0,0,1500,1500,1500,1500,1500,1500
1747617372.054258,-0.05,0.0,-0.4,-0.003272492347489368,0.0,-0.001090830782496456,-0.0017185301051565042,-0.12202007054881273,0.00010498445135394003,0,0,0,0,0,0,1500,1500,1500,1500,1500,1500
1747617372.1539943,-0.06,0.0,-0.45,0.0,0.0,0.0,-0.0017185301051565042,-0.12202007054881273,0.00010498445135394003,0,0,0,0,0,0,1500,1500,1500,1500,1500,1500
1747617372.2553222,-0.04,0.0,-0.43,0.0,0.003272492347489368,0.002181661564992912,-0.0017185301051565042,-0.12202007054881273,0.00010498445135394003,0,0,0,0,0,0,1500,1500,1500,1500,1500,1500
1747617372.338864,-0.04,0.0,-0.43,0.0,0.003272492347489368,0.002181661564992912,-0.0017185301051565042,-0.12202007054881273,0.00010498445135394003,0,0,0,0,0,0,1500,1500,1500,1500,1500,1500
1747617372.4366605,-0.04,0.0,-0.41000000000000003,-0.002181661564992912,0.0,0.00545415391248228,-0.0017185301051565042,-0.12202007054881273,0.00010498445135394003,0,0,0,0,0,0,1500,1500,1500,1500,1500,1500
1747617372.5402079,-0.04,0.0,-0.41000000000000003,-0.002181661564992912,0.0,0.00545415391248228,-0.0017185301051565042,-0.12202007054881273,0.00010498445135394003,0,0,0,0,0,0,1500,1500,1500,1500,1500,1500
1747617372.6380947,-0.05,0.0,-0.42,0.002181661564992912,0.0,0.001090830782496456,-0.0017185301051565042,-0.12202007054881273,0.00010498445135394003,0,0,0,0,0,0,1500,1500,1500,1500,1500,1500
1747617372.7413166,-0.06,0.01,-0.42,0.001090830782496456,-0.001090830782496456,0.0,-0.0017185301051565042,-0.12202007054881273,0.00010498445135394003,0,0,0,0,0,0,1500,1500,1500,1500,1500,1500
1747617372.8383474,-0.06,0.01,-0.42,0.001090830782496456,-0.001090830782496456,0.0,-0.0017185301051565042,-0.12202007054881273,0.00010498445135394003,0,0,0,0,0,0,1500,1500,1500,1500,1500,1500
1747617372.942066,-0.06,0.0,-0.42,0.0,0.0,0.0,-0.0017185301051565042,-0.12202007054881273,0.00010498445135394003,0,0,0,0,0,0,1500,1500,1500,1500,1500,1500
1747617373.0244358,-0.06,0.0,-0.42,0.0,0.0,0.0,-0.0017185301051565042,-0.12202007054881273,0.00010498445135394003,0,0,0,0,0,0,1500,1500,1500,1500,1500,1500
1747617373.1233695,-0.05,0.0,-0.41000000000000003,0.0,-0.00545415391248228,-0.001090830782496456,-0.0017185301051565042,-0.12202007054881273,0.00010498445135394003,0,0,0,0,0,0,1500,1500,1500,1500,1500,1500
1747617373.224834,-0.04,0.0,-0.44,0.002181661564992912,0.003272492347489368,-0.001090830782496456,-0.0017185301051565042,-0.12202007054881273,0.00010498445135394003,0,0,0,0,0,0,1500,1500,1500,1500,1500,1500
1747617373.3050663,-0.04,0.0,-0.44,0.002181661564992912,0.003272492347489368,-0.001090830782496456,-0.0017185301051565042,-0.12202007054881273,0.00010498445135394003,0,0,0,0,0,0,1500,1500,1500,1500,1500,1500
1747617373.4058826,-0.08,0.0,-0.41000000000000003,0.0,0.002181661564992912,0.002181661564992912,-0.0017185301051565042,-0.12202007054881273,0.00010498445135394003,0,0,0,0,0,0,1500,1500,1500,1500,1500,1500
1747617373.5063314,-0.08,0.0,-0.41000000000000003,0.0,0.002181661564992912,0.002181661564992912,-0.0017185301051565042,-0.12202007054881273,0.00010498445135394003,0,0,0,0,0,0,1500,1500,1500,1500,1500,1500
1747617373.588065,-0.05,-0.01,-0.42,0.0,0.003272492347489368,0.001090830782496456,-0.0017185301051565042,-0.12202007054881273,0.00010498445135394003,0,0,0,0,0,0,1500,1500,1500,1500,1500,1500
1747617373.687549,-0.05,0.0,-0.42,0.0,-0.001090830782496456,0.0,-0.0017185301051565042,-0.12202007054881273,0.00010498445135394003,0,0,0,0,0,0,1500,1500,1500,1500,1500,1500
1747617373.7746093,-0.05,0.0,-0.42,0.0,-0.001090830782496456,0.0,-0.0017185301051565042,-0.12202007054881273,0.00010498445135394003,0,0,0,0,0,0,1500,1500,1500,1500,1500,1500
1747617373.8746047,-0.06,0.0,-0.41000000000000003,0.003272492347489368,-0.003272492347489368,-0.001090830782496456,-0.0017185301051565042,-0.12202007054881273,0.00010498445135394003,0,0,0,0,0,0,1500,1500,1500,1500,1500,1500
1747617373.97136,-0.06,0.0,-0.41000000000000003,0.003272492347489368,-0.003272492347489368,-0.001090830782496456,-0.0017185301051565042,-0.12202007054881273,0.00010498445135394003,0,0,0,0,0,0,1500,1500,1500,1500,1500,1500
1747617374.073149,-0.04,0.0,-0.4,0.001090830782496456,0.003272492347489368,-0.001090830782496456,-0.0017185301051565042,-0.12202007054881273,0.00010498445135394003,0,0,0,0,0,0,1500,1500,1500,1500,1500,1500
1747617374.171522,-0.05,0.0,-0.43,0.0,0.001090830782496456,0.001090830782496456,-0.017431669745236012,-0.12202007054881273,0.0010648418937456293,0,0,0,0,0,0,1500,1500,1500,1500,1500,1500
1747617374.270565,-0.05,0.0,-0.43,0.0,0.001090830782496456,0.001090830782496456,-0.017431669745236012,-0.12202007054881273,0.0010648418937456293,0,0,0,0,0,0,1500,1500,1500,1500,1500,1500
1747617374.3558846,-0.06,0.0,-0.43,0.003272492347489368,0.0,0.001090830782496456,0.0017250456469862306,0.12248501474334234,0.00010498445135394003,0,0,0,0,0,0,1500,1500,1500,1500,1500,1500
1747617374.4539626,-0.06,0.0,-0.43,0.003272492347489368,0.0,0.001090830782496456,0.0017250456469862306,0.12248501474334234,0.00010498445135394003,0,0,0,0,0,0,1500,1500,1500,1500,1500,1500
1747617374.5536194,-0.04,0.02,-0.4,0.0,0.003272492347489368,0.0,-0.0017185301051565042,-0.12202007054881273,0.00010498445135394003,0,0,0,0,0,0,1500,1500,1500,1500,1500,1500
1747617374.6367252,-0.04,0.0,-0.42,0.001090830782496456,0.001090830782496456,-0.001090830782496456,-0.0017185301051565042,-0.12202007054881273,0.00010498445135394003,0,0,0,0,0,0,1500,1500,1500,1500,1500,1500
1747617374.739451,-0.04,0.0,-0.42,0.001090830782496456,0.001090830782496456,-0.001090830782496456,-0.0017185301051565042,-0.12202007054881273,0.00010498445135394003,0,0,0,0,0,0,1500,1500,1500,1500,1500,1500
1747617374.8377347,-0.05,0.01,-0.41000000000000003,0.002181661564992912,0.0,0.0,-0.0017185301051565042,-0.12202007054881273,0.00010498445135394003,0,0,0,0,0,0,1500,1500,1500,1500,1500,1500
1747617374.9376054,-0.05,0.01,-0.41000000000000003,0.002181661564992912,0.0,0.0,-0.0017185301051565042,-0.12202007054881273,0.00010498445135394003,0,0,0,0,0,0,1500,1500,1500,1500,1500,1500
1747617375.036426,-0.06,0.0,-0.41000000000000003,-0.001090830782496456,0.001090830782496456,0.001090830782496456,-0.0017185301051565042,-0.12202007054881273,0.00010498445135394003,0,0,0,0,0,0,1500,1500,1500,1500,1500,1500
1747617375.1222465,-0.04,-0.02,-0.42,0.002181661564992912,0.001090830782496456,0.003272492347489368,-0.0017185301051565042,-0.12202007054881273,0.00010498445135394003,0,0,0,0,0,0,1500,1500,1500,1500,1500,1500
1747617375.2212155,-0.04,-0.02,-0.42,0.002181661564992912,0.001090830782496456,0.003272492347489368,-0.0017185301051565042,-0.12202007054881273,0.00010498445135394003,0,0,0,0,0,0,1500,1500,1500,1500,1500,1500
1747617375.3085442,-0.04,0.02,-0.42,-0.003272492347489368,0.00545415391248228,-0.002181661564992912,-0.0017185301051565042,-0.12202007054881273,0.00010498445135394003,0,0,0,0,0,0,1500,1500,1500,1500,1500,1500
1747617375.4111397,-0.04,0.02,-0.42,-0.003272492347489368,0.00545415391248228,-0.002181661564992912,-0.0017185301051565042,-0.12202007054881273,0.00010498445135394003,0,0,0,0,0,0,1500,1500,1500,1500,1500,1500
1747617375.5036545,-0.07,0.01,-0.39,-0.002181661564992912,0.003272492347489368,-0.001090830782496456,-0.0017185301051565042,-0.12202007054881273,0.00010498445135394003,0,0,0,0,0,0,1500,1500,1500,1500,1500,1500
1747617375.586543,-0.03,-0.02,-0.41000000000000003,0.0,0.003272492347489368,0.001090830782496456,-0.017431669745236012,-0.12202007054881273,0.0010648418937456293,0,0,0,0,0,0,1500,1500,1500,1500,1500,1500
1747617375.6871305,-0.03,-0.02,-0.41000000000000003,0.0,0.003272492347489368,0.001090830782496456,-0.017431669745236012,-0.12202007054881273,0.0010648418937456293,0,0,0,0,0,0,1500,1500,1500,1500,1500,1500
1747617375.788447,-0.04,0.01,-0.41000000000000003,0.001090830782496456,0.002181661564992912,0.002181661564992912,-0.0017185301051565042,-0.12202007054881273,0.00010498445135394003,0,0,0,0,0,0,1500,1500,1500,1500,1500,1500
1747617375.8872983,-0.04,0.01,-0.41000000000000003,0.001090830782496456,0.002181661564992912,0.002181661564992912,-0.0017185301051565042,-0.12202007054881273,0.00010498445135394003,0,0,0,0,0,0,1500,1500,1500,1500,1500,1500
1747617375.986857,-0.05,0.01,-0.42,0.0,-0.003272492347489368,0.0,-0.0017185301051565042,-0.12202007054881273,0.00010498445135394003,0,0,0,0,0,0,1500,1500,1500,1500,1500,1500
1747617376.0751836,-0.05,0.0,-0.42,0.0,-0.001090830782496456,-0.001090830782496456,-0.0017185301051565042,-0.12202007054881273,0.00010498445135394003,0,0,0,0,0,0,1500,1500,1500,1500,1500,1500
1747617376.170721,-0.05,0.0,-0.42,0.0,-0.001090830782496456,-0.001090830782496456,-0.0017185301051565042,-0.12202007054881273,0.00010498445135394003,0,0,0,0,0,0,1500,1500,1500,1500,1500,1500
1747617376.2593076,-0.05,0.0,-0.47000000000000003,0.0,0.0,-0.001090830782496456,-0.0017185301051565042,-0.12202007054881273,0.00010498445135394003,0,0,0,0,0,0,1500,1500,1500,1500,1500,1500
1747617376.35519,-0.05,0.0,-0.47000000000000003,0.0,0.0,-0.001090830782496456,-0.0017185301051565042,-0.12202007054881273,0.00010498445135394003,0,0,0,0,0,0,1500,1500,1500,1500,1500,1500
1747617376.4606678,-0.04,0.0,-0.42,-0.002181661564992912,0.0,0.002181661564992912,-0.0017185301051565042,-0.12202007054881273,0.00010498445135394003,0,0,0,0,0,0,1500,1500,1500,1500,1500,1500
1747617376.570209,-0.04,0.0,-0.42,-0.002181661564992912,-0.002181661564992912,0.003272492347489368,-0.0017185301051565042,-0.12202007054881273,0.00010498445135394003,0,0,0,0,0,0,1500,1500,1500,1500,1500,1500
1747617376.670016,-0.04,0.0,-0.42,-0.002181661564992912,-0.002181661564992912,0.003272492347489368,-0.0017185301051565042,-0.12202007054881273,0.00010498445135394003,0,0,0,0,0,0,1500,1500,1500,1500,1500,1500
1747617376.77123,-0.06,0.0,-0.43,0.001090830782496456,-0.003272492347489368,0.002181661564992912,-0.0017185301051565042,-0.12202007054881273,0.00010498445135394003,0,0,0,0,0,0,1500,1500,1500,1500,1500,1500
1747617376.8558075,-0.04,0.02,-0.4,0.001090830782496456,0.0,0.0,-0.0017185301051565042,-0.12202007054881273,0.00010498445135394003,0,0,0,0,0,0,1500,1500,1500,1500,1500,1500
1747617376.9541647,-0.04,0.02,-0.4,0.001090830782496456,0.0,0.0,-0.0017185301051565042,-0.12202007054881273,0.00010498445135394003,0,0,0,0,0,0,1500,1500,1500,1500,1500,1500
1747617377.0531938,-0.04,0.02,-0.4,-0.003272492347489368,0.0,0.0,-0.0017185301051565042,-0.12202007054881273,0.00010498445135394003,0,0,0,0,0,0,1500,1500,1500,1500,1500,1500
1747617377.1384752,-0.04,0.02,-0.4,-0.003272492347489368,0.0,0.0,-0.0017185301051565042,-0.12202007054881273,0.00010498445135394003,0,0,0,0,0,0,1500,1500,1500,1500,1500,1500
1747617377.2393436,-0.05,0.01,-0.42,0.002181661564992912,0.002181661564992912,0.003272492347489368,-0.0017185301051565042,-0.12202007054881273,0.00010498445135394003,0,0,0,0,0,0,1500,1500,1500,1500,1500,1500
1747617377.3216527,-0.04,0.03,-0.42,0.0,-0.004363323129985824,0.001090830782496456,-0.0017185301051565042,-0.12202007054881273,0.00010498445135394003,0,0,0,0,0,0,1500,1500,1500,1500,1500,1500
1747617377.4212782,-0.04,0.03,-0.42,0.0,-0.004363323129985824,0.001090830782496456,-0.0017185301051565042,-0.12202007054881273,0.00010498445135394003,0,0,0,0,0,0,1500,1500,1500,1500,1500,1500
1747617377.5203476,-0.06,0.0,-0.42,-0.001090830782496456,-0.001090830782496456,0.001090830782496456,-0.0017185301051565042,-0.12202007054881273,0.00010498445135394003,0,0,0,0,0,0,1500,1500,1500,1500,1500,1500
1747617377.6031835,-0.06,0.0,-0.42,-0.001090830782496456,-0.001090830782496456,0.001090830782496456,-0.0017185301051565042,-0.12202007054881273,0.00010498445135394003,0,0,0,0,0,0,1500,1500,1500,1500,1500,1500
1747617377.7033954,-0.05,0.0,-0.42,0.0,-0.001090830782496456,0.0,-0.0017185301051565042,-0.12202007054881273,0.00010498445135394003,0,0,0,0,0,0,1500,1500,1500,1500,1500,1500
1747617377.8065467,-0.05,0.0,-0.45,0.001090830782496456,-0.001090830782496456,0.0,-0.0017185301051565042,-0.12202007054881273,0.00010498445135394003,0,0,0,0,0,0,1500,1500,1500,1500,1500,1500
1747617377.9046524,-0.05,0.0,-0.45,0.001090830782496456,-0.001090830782496456,0.0,-0.0017185301051565042,-0.12202007054881273,0.00010498445135394003,0,0,0,0,0,0,1500,1500,1500,1500,1500,1500
1747617378.0034251,-0.06,0.01,-0.41000000000000003,0.001090830782496456,0.0,-0.001090830782496456,-3.1413049140865184,1.5707963267948966,-3.1410768311335757,0,0,0,0,0,0,1500,1500,1500,1500,1500,1500
1747617378.0870025,-0.06,0.01,-0.41000000000000003,0.001090830782496456,0.0,-0.001090830782496456,-3.1413049140865184,1.5707963267948966,-3.1410768311335757,0,0,0,0,0,0,1500,1500,1500,1500,1500,1500
1747617378.1898956,-0.05,0.0,-0.42,-0.002181661564992912,-0.001090830782496456,0.0,-0.0017185301051565042,-0.12202007054881273,0.00010498445135394003,0,0,0,0,0,0,1500,1500,1500,1500,1500,1500
1747617378.2743526,-0.05,0.0,-0.42,-0.001090830782496456,0.001090830782496456,0.001090830782496456,-0.0017185301051565042,-0.12202007054881273,0.00010498445135394003,0,0,0,0,0,0,1500,1500,1500,1500,1500,1500
1747617378.3723648,-0.05,0.0,-0.42,-0.001090830782496456,0.001090830782496456,0.001090830782496456,-0.0017185301051565042,-0.12202007054881273,0.00010498445135394003,0,0,0,0,0,0,1500,1500,1500,1500,1500,1500
1747617378.472534,-0.06,-0.01,-0.42,0.0,0.0,-0.002181661564992912,-0.0017185301051565042,-0.12202007054881273,0.00010498445135394003,0,0,0,0,0,0,1500,1500,1500,1500,1500,1500
1747617378.5716665,-0.06,-0.01,-0.42,0.0,0.0,-0.002181661564992912,-0.0017185301051565042,-0.12202007054881273,0.00010498445135394003,0,0,0,0,0,0,1500,1500,1500,1500,1500,1500
1747617378.6708362,-0.05,0.03,-0.39,-0.001090830782496456,0.002181661564992912,0.001090830782496456,-0.0017185301051565042,-0.12202007054881273,0.00010498445135394003,0,0,0,0,0,0,1500,1500,1500,1500,1500,1500
1747617378.771268,-0.03,-0.01,-0.43,0.001090830782496456,-0.001090830782496456,0.002181661564992912,-0.0017185301051565042,-0.12202007054881273,0.00010498445135394003,0,0,0,0,0,0,1500,1500,1500,1500,1500,1500
1747617378.854563,-0.03,-0.01,-0.43,0.001090830782496456,-0.001090830782496456,0.002181661564992912,-0.0017185301051565042,-0.12202007054881273,0.00010498445135394003,0,0,0,0,0,0,1500,1500,1500,1500,1500,1500
1747617378.9530437,-0.04,0.0,-0.45,0.001090830782496456,-0.003272492347489368,-0.002181661564992912,-0.0017185301051565042,-0.12202007054881273,0.00010498445135394003,0,0,0,0,0,0,1500,1500,1500,1500,1500,1500
1747617379.0508573,-0.05,0.01,-0.38,0.0,0.0,0.0,-0.0017185301051565042,-0.12202007054881273,0.00010498445135394003,0,0,0,0,0,0,1500,1500,1500,1500,1500,1500
1747617379.1371672,-0.05,0.01,-0.38,0.0,0.0,0.0,-0.0017185301051565042,-0.12202007054881273,0.00010498445135394003,0,0,0,0,0,0,1500,1500,1500,1500,1500,1500
1747617379.237507,-0.05,0.0,-0.42,0.001090830782496456,0.002181661564992912,-0.001090830782496456,-0.0017185301051565042,-0.12202007054881273,0.00010498445135394003,0,0,0,0,0,0,1500,1500,1500,1500,1500,1500
1747617379.3231783,-0.05,0.0,-0.42,0.001090830782496456,0.002181661564992912,-0.001090830782496456,-0.0017185301051565042,-0.12202007054881273,0.00010498445135394003,0,0,0,0,0,0,1500,1500,1500,1500,1500,1500
1747617379.4204626,-0.06,0.01,-0.44,0.002181661564992912,-0.004363323129985824,-0.003272492347489368,-0.0017185301051565042,-0.12202007054881273,0.00010498445135394003,0,0,0,0,0,0,1500,1500,1500,1500,1500,1500
1747617379.5204406,-0.06,0.01,-0.44,0.002181661564992912,-0.004363323129985824,-0.003272492347489368,-0.0017185301051565042,-0.12202007054881273,0.00010498445135394003,0,0,0,0,0,0,1500,1500,1500,1500,1500,1500
1747617379.6062403,-0.05,0.0,-0.42,-0.001090830782496456,-0.006544984694978736,0.0,-0.0017185301051565042,-0.12202007054881273,0.00010498445135394003,0,0,0,0,0,0,1500,1500,1500,1500,1500,1500
1747617379.7042792,-0.05,0.0,-0.41000000000000003,0.0,-0.003272492347489368,-0.002181661564992912,-0.0017185301051565042,-0.12202007054881273,0.00010498445135394003,0,0,0,0,0,0,1500,1500,1500,1500,1500,1500
1747617379.8040946,-0.05,0.0,-0.41000000000000003,0.0,-0.003272492347489368,-0.002181661564992912,-0.0017185301051565042,-0.12202007054881273,0.00010498445135394003,0,0,0,0,0,0,1500,1500,1500,1500,1500,1500
1747617379.904219,-0.07,0.0,-0.42,-0.001090830782496456,0.001090830782496456,-0.001090830782496456,-0.0017185301051565042,-0.12202007054881273,0.00010498445135394003,0,0,0,0,0,0,1500,1500,1500,1500,1500,1500
1747617379.9985342,-0.05,0.0,-0.41000000000000003,-0.002181661564992912,-0.002181661564992912,-0.002181661564992912,-0.0017185301051565042,-0.12202007054881273,0.00010498445135394003,0,0,0,0,0,0,1500,1500,1500,1500,1500,1500
1747617380.0865273,-0.05,0.0,-0.41000000000000003,-0.002181661564992912,-0.002181661564992912,-0.002181661564992912,-0.0017185301051565042,-0.12202007054881273,0.00010498445135394003,0,0,0,0,0,0,1500,1500,1500,1500,1500,1500
1747617380.1883178,-0.04,0.0,-0.41000000000000003,-0.001090830782496456,0.002181661564992912,0.001090830782496456,-0.0017185301051565042,-0.12202007054881273,0.00010498445135394003,0,0,0,0,0,0,1500,1500,1500,1500,1500,1500
1747617380.287692,-0.04,0.0,-0.41000000000000003,-0.001090830782496456,0.002181661564992912,0.001090830782496456,-0.0017185301051565042,-0.12202007054881273,0.00010498445135394003,0,0,0,0,0,0,1500,1500,1500,1500,1500,1500
1747617380.3705592,-0.05,0.0,-0.43,-0.002181661564992912,-0.001090830782496456,0.0,-0.0017185301051565042,-0.12202007054881273,0.00010498445135394003,0,0,0,0,0,0,1500,1500,1500,1500,1500,1500
1747617380.4713588,-0.05,0.0,-0.43,-0.002181661564992912,-0.001090830782496456,0.0,-0.0017185301051565042,-0.12202007054881273,0.00010498445135394003,0,0,0,0,0,0,1500,1500,1500,1500,1500,1500
1747617380.5710104,-0.04,0.0,-0.41000000000000003,0.0,0.002181661564992912,-0.002181661564992912,-0.0017185301051565042,-0.12202007054881273,0.00010498445135394003,0,0,0,0,0,0,1500,1500,1500,1500,1500,1500
1747617380.6702902,-0.06,0.02,-0.43,-0.001090830782496456,-0.001090830782496456,0.003272492347489368,-0.0017185301051565042,-0.12202007054881273,0.00010498445135394003,0,0,0,0,0,0,1500,1500,1500,1500,1500,1500
1747617380.769989,-0.06,0.02,-0.43,-0.001090830782496456,-0.001090830782496456,0.003272492347489368,-0.0017185301051565042,-0.12202007054881273,0.00010498445135394003,0,0,0,0,0,0,1500,1500,1500,1500,1500,1500
1747617380.855263,-0.05,0.0,-0.42,0.0,0.001090830782496456,0.0,-0.0017185301051565042,-0.12202007054881273,0.00010498445135394003,0,0,0,0,0,0,1500,1500,1500,1500,1500,1500
1747617380.9493175,-0.03,0.0,-0.41000000000000003,0.0,0.001090830782496456,0.0,-0.0017185301051565042,-0.12202007054881273,0.00010498445135394003,0,0,0,0,0,0,1500,1500,1500,1500,1500,1500
1747617381.0562315,-0.03,0.0,-0.41000000000000003,0.0,0.001090830782496456,0.0,-0.0017185301051565042,-0.12202007054881273,0.00010498445135394003,0,0,0,0,0,0,1500,1500,1500,1500,1500,1500
1747617381.1545641,-0.04,0.0,-0.41000000000000003,-0.001090830782496456,-0.001090830782496456,0.002181661564992912,-0.0017185301051565042,-0.12202007054881273,0.00010498445135394003,0,0,0,0,0,0,1500,1500,1500,1500,1500,1500
1747617381.2532854,-0.04,0.0,-0.41000000000000003,-0.001090830782496456,-0.001090830782496456,0.002181661564992912,-0.0017185301051565042,-0.12202007054881273,0.00010498445135394003,0,0,0,0,0,0,1500,1500,1500,1500,1500,1500
1747617381.3366444,-0.05,0.0,-0.42,-0.001090830782496456,0.0,0.002181661564992912,-0.0017185301051565042,-0.12202007054881273,0.00010498445135394003,0,0,0,0,0,0,1500,1500,1500,1500,1500,1500
1747617381.4376876,-0.04,0.0,-0.39,0.004363323129985824,-0.001090830782496456,0.002181661564992912,-0.0017185301051565042,-0.12202007054881273,0.00010498445135394003,0,0,0,0,0,0,1500,1500,1500,1500,1500,1500
1747617381.5388343,-0.04,0.0,-0.39,0.004363323129985824,-0.001090830782496456,0.002181661564992912,-0.0017185301051565042,-0.12202007054881273,0.00010498445135394003,0,0,0,0,0,0,1500,1500,1500,1500,1500,1500
1747617381.6380508,-0.04,0.0,-0.45,-0.002181661564992912,0.001090830782496456,0.001090830782496456,-0.0017185301051565042,-0.12202007054881273,0.00010498445135394003,0,0,0,0,0,0,1500,1500,1500,1500,1500,1500
1747617381.7380607,-0.06,0.0,-0.43,-0.001090830782496456,-0.001090830782496456,0.001090830782496456,-0.0017185301051565042,-0.12202007054881273,0.00010498445135394003,0,0,0,0,0,0,1500,1500,1500,1500,1500,1500
1747617381.8364136,-0.06,0.0,-0.43,-0.001090830782496456,-0.001090830782496456,0.001090830782496456,-0.0017185301051565042,-0.12202007054881273,0.00010498445135394003,0,0,0,0,0,0,1500,1500,1500,1500,1500,1500
1747617381.9376497,-0.05,0.0,-0.42,0.0,0.001090830782496456,-0.001090830782496456,-0.0017185301051565042,-0.12202007054881273,0.00010498445135394003,0,0,0,0,0,0,1500,1500,1500,1500,1500,1500
1747617382.0366423,-0.05,0.0,-0.42,0.0,0.001090830782496456,-0.001090830782496456,-0.0017185301051565042,-0.12202007054881273,0.00010498445135394003,0,-0.014485,0,0,0,0,1500,1500,1500,1500,1500,1500
1747617382.1241271,-0.06,0.01,-0.44,0.00545415391248228,-0.002181661564992912,0.001090830782496456,-0.0017185301051565042,-0.12202007054881273,0.00010498445135394003,0,-12.5,0,0,0,0,1460,1460,1460,1500,1500,1500
1747617382.2219176,-0.04,0.01,-0.4,-0.001090830782496456,-0.002181661564992912,0.0,-0.0017185301051565042,-0.12202007054881273,0.00010498445135394003,0,-12.5,0,0,0,0,1446,1447,1452,1500,1500,1500
1747617382.320413,-0.04,0.01,-0.4,-0.001090830782496456,-0.002181661564992912,0.0,-0.0017185301051565042,-0.12202007054881273,0.00010498445135394003,0,-12.5,0,0,0,0,1446,1447,1452,1500,1500,1500
1747617382.420675,-0.14,-0.14,-0.27,-0.00545415391248228,-0.003272492347489368,-0.002181661564992912,-0.0017185301051565042,-0.12202007054881273,0.00010498445135394003,0,-12.5,0,0,0,-0.000215,1446,1447,1452,1500,1500,1500
1747617382.5247755,0.0,0.03,-0.46,0.002181661564992912,-0.001090830782496456,0.001090830782496456,-0.0017185301051565042,-0.12202007054881273,0.00010498445135394003,0,-12.5,0,0,0,-0.000215,1446,1447,1452,1500,1500,1500
1747617382.6199744,0.0,0.03,-0.46,0.002181661564992912,-0.001090830782496456,0.001090830782496456,-0.0017185301051565042,-0.12202007054881273,0.00010498445135394003,0,-12.5,0,0,0,-0.000215,1446,1447,1452,1500,1500,1500
1747617382.720363,-0.1,-0.04,-0.43,-0.002181661564992912,0.0,-0.001090830782496456,-0.0017185301051565042,-0.12202007054881273,0.00010498445135394003,0,-12.5,0,0,0,-0.000215,1446,1447,1452,1500,1500,1500
1747617382.8210807,-0.1,-0.04,-0.43,-0.002181661564992912,0.0,-0.001090830782496456,-0.0017185301051565042,-0.12202007054881273,0.00010498445135394003,0,-12.5,0,0,0,-0.000215,1446,1447,1452,1500,1500,1500
1747617382.919778,-0.07,0.0,-0.39,0.0,-0.004363323129985824,0.001090830782496456,-0.0017185301051565042,-0.12202007054881273,0.00010498445135394003,0,-12.5,0,0,0,-0.000465,1446,1447,1452,1500,1500,1500
1747617383.0206976,-0.03,0.0,-0.45,0.0,0.003272492347489368,0.0,-0.0017185301051565042,-0.12202007054881273,0.00010498445135394003,0,-12.5,0,0,0,-0.000465,1446,1447,1452,1500,1500,1500
1747617383.1033442,-0.03,0.0,-0.45,0.0,0.003272492347489368,0.0,-0.0017185301051565042,-0.12202007054881273,0.00010498445135394003,0,-12.5,0,0,0,-0.000465,1446,1447,1452,1500,1500,1500
1747617383.203348,-0.04,0.01,-0.42,0.001090830782496456,-0.001090830782496456,-0.003272492347489368,-0.0017185301051565042,-0.12202007054881273,0.00010498445135394003,0,-12.5,0,0,0,-0.000465,1446,1447,1452,1500,1500,1500
1747617383.3029478,-0.04,0.01,-0.42,0.001090830782496456,-0.001090830782496456,-0.003272492347489368,-0.0017185301051565042,-0.12202007054881273,0.00010498445135394003,0,-12.5,0,0,0,-0.000465,1446,1447,1452,1500,1500,1500
1747617383.3875163,-0.01,0.02,-0.42,0.001090830782496456,0.0,0.0,-0.0017185301051565042,-0.12202007054881273,0.00010498445135394003,0,-12.5,0,0,0,-0.000465,1446,1447,1452,1500,1500,1500
1747617383.4885378,-0.01,0.0,-0.47000000000000003,0.0,0.0,0.001090830782496456,-0.0017185301051565042,-0.12202007054881273,0.00010498445135394003,0,-12.5,0,0,0,-0.000465,1446,1447,1452,1500,1500,1500
1747617383.58917,-0.01,0.0,-0.47000000000000003,0.0,0.0,0.001090830782496456,-0.0017185301051565042,-0.12202007054881273,0.00010498445135394003,0,-12.5,0,0,0,-0.000465,1446,1447,1452,1500,1500,1500
1747617383.6863408,-0.01,0.01,-0.44,-0.001090830782496456,0.0,0.002181661564992912,-0.0017185301051565042,-0.12202007054881273,0.00010498445135394003,0,-12.5,0,0,0,-0.000465,1446,1447,1452,1500,1500,1500
1747617383.7869468,-0.01,0.01,-0.44,-0.001090830782496456,0.0,0.002181661564992912,-0.0017185301051565042,-0.12202007054881273,0.00010498445135394003,0,-12.5,0,0,0,-0.000465,1446,1447,1452,1500,1500,1500
1747617383.8721948,-0.04,0.01,-0.45,0.0,-0.004363323129985824,0.001090830782496456,-0.0017185301051565042,-0.12202007054881273,0.00010498445135394003,0,-12.5,0,0,0,-0.000465,1446,1447,1452,1500,1500,1500
1747617383.970037,-0.09,-0.04,-0.38,-0.004363323129985824,0.0,0.001090830782496456,-0.0017185301051565042,-0.12202007054881273,0.00010498445135394003,0,-0.673882,0,0,0,0,1486,1487,1492,1500,1500,1500
1747617384.0702498,-0.09,-0.04,-0.38,-0.004363323129985824,0.0,0.001090830782496456,-0.0017185301051565042,-0.12202007054881273,0.00010498445135394003,0,0,0,0,0,0,1500,1500,1500,1500,1500,1500
1747617384.1720974,-0.06,-0.02,-0.38,0.0,0.001090830782496456,0.002181661564992912,-0.0017185301051565042,-0.12202007054881273,0.00010498445135394003,0,0,0,0,0,0,1500,1500,1500,1500,1500,1500
1747617384.2650728,-0.06,0.0,-0.41000000000000003,-0.001090830782496456,0.003272492347489368,0.001090830782496456,-0.0017185301051565042,-0.12202007054881273,0.00010498445135394003,0,0,0,0,0,0,1500,1500,1500,1500,1500,1500
1747617384.354798,-0.06,0.0,-0.41000000000000003,-0.001090830782496456,0.003272492347489368,0.001090830782496456,-0.0017185301051565042,-0.12202007054881273,0.00010498445135394003,0,0,0,0,0,0,1500,1500,1500,1500,1500,1500
1747617384.4531991,-0.05,0.0,-0.4,0.0,0.0,-0.002181661564992912,-0.0017185301051565042,-0.12202007054881273,0.00010498445135394003,0,0,0,0,0,0,1500,1500,1500,1500,1500,1500
1747617384.5542552,-0.05,0.0,-0.4,0.0,0.0,-0.002181661564992912,-0.0017185301051565042,-0.12202007054881273,0.00010498445135394003,0,0,0,0,0,0,1500,1500,1500,1500,1500,1500
1747617384.653495,-0.04,0.0,-0.42,-0.004363323129985824,0.0,0.002181661564992912,-0.0017185301051565042,-0.12202007054881273,0.00010498445135394003,0,0,0,0,0,0,1500,1500,1500,1500,1500,1500
1747617384.7530348,-0.06,0.01,-0.45,0.002181661564992912,-0.004363323129985824,0.0,-0.0017185301051565042,-0.12202007054881273,0.00010498445135394003,0,0,0,0,0,0,1500,1500,1500,1500,1500,1500
1747617384.8369706,-0.06,0.01,-0.45,0.002181661564992912,-0.004363323129985824,0.0,-0.0017185301051565042,-0.12202007054881273,0.00010498445135394003,0,0,0,0,0,0,1500,1500,1500,1500,1500,1500
1747617384.937103,-0.05,0.0,-0.42,0.0,0.0,0.0,-0.0017185301051565042,-0.12202007054881273,0.00010498445135394003,0,0,0,0,0,0,1500,1500,1500,1500,1500,1500
1747617385.037667,-0.05,0.0,-0.42,0.0,0.0,0.0,-0.0017185301051565042,-0.12202007054881273,0.00010498445135394003,0,0,0,0,0,0,1500,1500,1500,1500,1500,1500
1747617385.120545,-0.06,0.0,-0.4,0.0,0.001090830782496456,-0.003272492347489368,-0.0017185301051565042,-0.12202007054881273,0.00010498445135394003,0,0,0,0,0,0,1500,1500,1500,1500,1500,1500
1747617385.2153175,-0.04,0.02,-0.43,0.0,0.001090830782496456,0.0,-0.0017185301051565042,-0.12202007054881273,0.00010498445135394003,0,0,0,0,0,0,1500,1500,1500,1500,1500,1500
1747617385.3197672,-0.04,0.02,-0.43,0.0,0.001090830782496456,0.0,-0.0017185301051565042,-0.12202007054881273,0.00010498445135394003,0,0,0,0,0,0,1500,1500,1500,1500,1500,1500
1747617385.420305,-0.04,0.0,-0.41000000000000003,0.002181661564992912,0.001090830782496456,0.0,-0.0017185301051565042,-0.12202007054881273,0.00010498445135394003,0,0,0,0,0,0,1500,1500,1500,1500,1500,1500
1747617385.5217307,-0.04,0.0,-0.41000000000000003,0.002181661564992912,0.001090830782496456,0.0,-0.0017185301051565042,-0.12202007054881273,0.00010498445135394003,0,0,0,0,0,0,1500,1500,1500,1500,1500,1500
1747617385.6033487,-0.05,-0.01,-0.42,-0.001090830782496456,-0.002181661564992912,-0.001090830782496456,-0.0017185301051565042,-0.12202007054881273,0.00010498445135394003,0,0,0,0,0,0,1500,1500,1500,1500,1500,1500
1747617385.7030172,-0.04,0.02,-0.42,0.002181661564992912,-0.001090830782496456,0.0,-0.0017185301051565042,-0.12202007054881273,0.00010498445135394003,0,0,0,0,0,0,1500,1500,1500,1500,1500,1500
1747617385.8033423,-0.04,0.02,-0.42,0.002181661564992912,-0.001090830782496456,0.0,-0.0017185301051565042,-0.12202007054881273,0.00010498445135394003,0,0,0,0,0,0,1500,1500,1500,1500,1500,1500
1747617385.9041817,-0.05,0.03,-0.42,0.0,-0.002181661564992912,0.003272492347489368,-0.0017185301051565042,-0.12202007054881273,0.00010498445135394003,0,-5.200141,0,0,0,0,1460,1460,1461,1500,1500,1500
1747617386.003242,-0.05,0.03,-0.42,0.0,-0.002181661564992912,0.003272492347489368,-0.0017185301051565042,-0.12202007054881273,0.00010498445135394003,0,-12.5,0,0,0,0,1446,1447,1452,1500,1500,1500
1747617386.0862832,-0.06,0.0,-0.42,0.002181661564992912,-0.004363323129985824,0.0,-0.0017185301051565042,-0.12202007054881273,0.00010498445135394003,0,-12.5,0,0,0,0,1446,1447,1452,1500,1500,1500
1747617386.18695,-0.03,0.12,-0.39,-0.003272492347489368,0.001090830782496456,0.006544984694978736,-0.0017185301051565042,-0.12202007054881273,0.00010498445135394003,0,-12.5,0,0,0,0,1446,1447,1452,1500,1500,1500
1747617386.2868464,-0.03,0.12,-0.39,-0.003272492347489368,0.001090830782496456,0.006544984694978736,-0.0017185301051565042,-0.12202007054881273,0.00010498445135394003,0,-12.5,0,0,0,0,1446,1447,1452,1500,1500,1500
1747617386.3709543,-0.13,-0.05,-0.36,-0.002181661564992912,0.001090830782496456,0.002181661564992912,-0.0017185301051565042,-0.12202007054881273,0.00010498445135394003,0,-12.5,0,0,0,0,1446,1447,1452,1500,1500,1500
1747617386.4696748,-0.13,-0.05,-0.36,-0.002181661564992912,0.001090830782496456,0.002181661564992912,-0.0017185301051565042,-0.12202007054881273,0.00010498445135394003,0,-12.5,0,0,0,0,1446,1447,1452,1500,1500,1500
1747617386.5719483,-0.05,0.0,-0.4,0.004363323129985824,-0.002181661564992912,0.001090830782496456,-0.0017185301051565042,-0.12202007054881273,0.00010498445135394003,0,-12.5,0,0,0,0,1446,1447,1452,1500,1500,1500
1747617386.6706753,-0.06,0.02,-0.38,0.002181661564992912,-0.002181661564992912,0.0,-0.0017185301051565042,-0.12202007054881273,0.00010498445135394003,0,-12.5,0,0,0,0,1446,1447,1452,1500,1500,1500
1747617386.7707257,-0.06,0.02,-0.38,0.002181661564992912,-0.002181661564992912,0.0,-0.0017185301051565042,-0.12202007054881273,0.00010498445135394003,0,-12.5,0,0,0,0,1446,1447,1452,1500,1500,1500
1747617386.8530214,-0.06,0.0,-0.42,0.001090830782496456,-0.003272492347489368,0.001090830782496456,-0.0017185301051565042,-0.12202007054881273,0.00010498445135394003,0,-12.5,0,0,0,0,1446,1447,1452,1500,1500,1500
1747617386.9507985,0.0,0.01,-0.44,-0.001090830782496456,-0.002181661564992912,-0.001090830782496456,-0.0017185301051565042,-0.12202007054881273,0.00010498445135394003,0,-12.5,0,0,0,0,1446,1447,1452,1500,1500,1500
1747617387.054697,0.0,0.01,-0.44,-0.001090830782496456,-0.002181661564992912,-0.001090830782496456,-0.0017185301051565042,-0.12202007054881273,0.00010498445135394003,0,-12.5,0,0,0,0,1446,1447,1452,1500,1500,1500
1747617387.1556854,-0.07,0.0,-0.44,0.002181661564992912,0.003272492347489368,-0.001090830782496456,-0.0017185301051565042,-0.12202007054881273,0.00010498445135394003,0,-12.5,0,0,0,0,1446,1447,1452,1500,1500,1500
1747617387.2537036,-0.07,0.0,-0.44,0.002181661564992912,0.003272492347489368,-0.001090830782496456,-0.0017185301051565042,-0.12202007054881273,0.00010498445135394003,0,-12.5,0,0,0,0,1446,1447,1452,1500,1500,1500
1747617387.3366067,-0.05,0.02,-0.42,0.002181661564992912,-0.003272492347489368,-0.001090830782496456,-0.0017185301051565042,-0.12202007054881273,0.00010498445135394003,0,-12.5,0,0,0,0,1446,1447,1452,1500,1500,1500
1747617387.4365625,-0.07,0.04,-0.42,-0.002181661564992912,-0.002181661564992912,0.001090830782496456,-0.0017185301051565042,-0.12202007054881273,0.00010498445135394003,0,-12.5,0,0,0,0,1446,1447,1452,1500,1500,1500
1747617387.536191,-0.07,0.04,-0.42,-0.002181661564992912,-0.002181661564992912,0.001090830782496456,-0.0017185301051565042,-0.12202007054881273,0.00010498445135394003,0,0,0,0,0,0,1486,1487,1492,1500,1500,1500
1747617387.619359,-0.03,0.0,-0.4,-0.003272492347489368,-0.002181661564992912,0.002181661564992912,-0.0017185301051565042,-0.12202007054881273,0.00010498445135394003,0,0,0,0,0,0,1500,1500,1500,1500,1500,1500
1747617387.7373025,-0.03,0.0,-0.4,-0.003272492347489368,-0.002181661564992912,0.002181661564992912,-0.0017185301051565042,-0.12202007054881273,0.00010498445135394003,0,0,0,0,0,0,1500,1500,1500,1500,1500,1500
1747617387.835414,-0.01,0.02,-0.47000000000000003,0.001090830782496456,0.004363323129985824,0.001090830782496456,-0.0017185301051565042,-0.12202007054881273,0.00010498445135394003,0,0,0,0,0,0,1500,1500,1500,1500,1500,1500
1747617387.9375699,-0.05,0.0,-0.42,0.003272492347489368,-0.001090830782496456,-0.001090830782496456,-0.0017185301051565042,-0.12202007054881273,0.00010498445135394003,0,0,0,0,0,0,1500,1500,1500,1500,1500,1500
1747617388.0374744,-0.05,0.0,-0.42,0.003272492347489368,-0.001090830782496456,-0.001090830782496456,-0.0017185301051565042,-0.12202007054881273,0.00010498445135394003,0,0,0,0,0,0,1500,1500,1500,1500,1500,1500
1747617388.1513662,-0.06,0.01,-0.42,-0.001090830782496456,-0.002181661564992912,0.0,-0.0017185301051565042,-0.12202007054881273,0.00010498445135394003,0,0,0,0,0,0,1500,1500,1500,1500,1500,1500
1747617388.2550414,-0.04,0.0,-0.43,0.003272492347489368,-0.001090830782496456,-0.001090830782496456,-0.0017185301051565042,-0.12202007054881273,0.00010498445135394003,0,0,0,0,0,0,1500,1500,1500,1500,1500,1500
1747617388.3367105,-0.04,0.0,-0.43,0.003272492347489368,-0.001090830782496456,-0.001090830782496456,-0.0017185301051565042,-0.12202007054881273,0.00010498445135394003,0,0,0,0,0,0,1500,1500,1500,1500,1500,1500
1747617388.4370315,-0.05,0.01,-0.42,-0.004363323129985824,-0.002181661564992912,-0.001090830782496456,-0.0017185301051565042,-0.12202007054881273,0.00010498445135394003,0,0,0,0,0,0,1500,1500,1500,1500,1500,1500
1747617388.5267794,-0.05,0.02,-0.4,0.001090830782496456,0.002181661564992912,-0.002181661564992912,-0.0017185301051565042,-0.12202007054881273,0.00010498445135394003,0,0,0,0,0,0,1500,1500,1500,1500,1500,1500
1747617388.6223826,-0.05,0.02,-0.4,0.001090830782496456,0.002181661564992912,-0.002181661564992912,-0.0017185301051565042,-0.12202007054881273,0.00010498445135394003,0,0,0,0,0,0,1500,1500,1500,1500,1500,1500
1747617388.7206001,-0.05,0.01,-0.39,0.001090830782496456,0.0,0.001090830782496456,-0.0017185301051565042,-0.12202007054881273,0.00010498445135394003,0,0,0,0,0,0,1500,1500,1500,1500,1500,1500
1747617388.8067322,-0.05,0.01,-0.39,0.001090830782496456,0.0,0.001090830782496456,-0.0017185301051565042,-0.12202007054881273,0.00010498445135394003,0,0,0,0,0,0,1500,1500,1500,1500,1500,1500
1747617388.9048123,-0.04,0.02,-0.43,-0.001090830782496456,-0.002181661564992912,0.0,-0.0017185301051565042,-0.12202007054881273,0.00010498445135394003,0,0,0,0,0,0,1500,1500,1500,1500,1500,1500
1747617389.003318,-0.05,0.0,-0.43,0.001090830782496456,0.003272492347489368,0.001090830782496456,-0.0017185301051565042,-0.12202007054881273,0.00010498445135394003,0,0,0,0,0,0,1500,1500,1500,1500,1500,1500
1747617389.1066608,-0.05,0.0,-0.43,0.001090830782496456,0.003272492347489368,0.001090830782496456,-0.0017185301051565042,-0.12202007054881273,0.00010498445135394003,0,0,0,0,0,0,1500,1500,1500,1500,1500,1500
1747617389.204161,-0.04,0.0,-0.4,0.002181661564992912,0.003272492347489368,0.002181661564992912,-0.0017185301051565042,-0.12202007054881273,0.00010498445135394003,0,0,0,0,0,0,1500,1500,1500,1500,1500,1500
1747617389.3032503,-0.04,0.0,-0.4,0.002181661564992912,0.003272492347489368,0.002181661564992912,-0.0017185301051565042,-0.12202007054881273,0.00010498445135394003,0,0,0,0,0,0,1500,1500,1500,1500,1500,1500
1747617389.3878565,-0.05,0.0,-0.42,0.004363323129985824,0.0,0.001090830782496456,-0.0017185301051565042,-0.12202007054881273,0.00010498445135394003,0,0,0,0,0,0,1500,1500,1500,1500,1500,1500
1747617389.4865143,-0.04,0.01,-0.44,-0.002181661564992912,0.003272492347489368,0.0,-0.0017185301051565042,-0.12202007054881273,0.00010498445135394003,0,0,0,0,0,0,1500,1500,1500,1500,1500,1500
1747617389.5869727,-0.04,0.01,-0.44,-0.002181661564992912,0.003272492347489368,0.0,-0.0017185301051565042,-0.12202007054881273,0.00010498445135394003,0,0,0,0,0,0,1500,1500,1500,1500,1500,1500
1747617389.6875486,-0.04,0.0,-0.4,-0.002181661564992912,0.003272492347489368,0.001090830782496456,-0.0017185301051565042,-0.12202007054881273,0.00010498445135394003,0,0,0,0,0,0,1500,1500,1500,1500,1500,1500
1747617389.7742157,-0.04,0.0,-0.4,-0.002181661564992912,0.003272492347489368,0.001090830782496456,-0.0017185301051565042,-0.12202007054881273,0.00010498445135394003,0,0,0,0,0,0,1500,1500,1500,1500,1500,1500
1747617389.8698692,-0.06,0.0,-0.41000000000000003,-0.002181661564992912,0.004363323129985824,0.003272492347489368,-0.0017185301051565042,-0.12202007054881273,0.00010498445135394003,0,0,0,0,0,0,1500,1500,1500,1500,1500,1500
1747617389.9696677,-0.05,0.01,-0.42,-0.002181661564992912,0.002181661564992912,0.002181661564992912,-0.0017185301051565042,-0.12202007054881273,0.00010498445135394003,0,0,0,0,0,0,1500,1500,1500,1500,1500,1500
1747617390.0700946,-0.05,0.01,-0.42,-0.002181661564992912,0.002181661564992912,0.002181661564992912,-0.0017185301051565042,-0.12202007054881273,0.00010498445135394003,0,0,0,0,0,0,1500,1500,1500,1500,1500,1500
1747617390.169635,-0.04,0.0,-0.43,0.001090830782496456,-0.001090830782496456,-0.002181661564992912,-0.0017185301051565042,-0.12202007054881273,0.00010498445135394003,0,0,0,0,0,0,1500,1500,1500,1500,1500,1500
1747617390.2699387,-0.04,0.0,-0.43,0.001090830782496456,-0.001090830782496456,-0.002181661564992912,-0.0017185301051565042,-0.12202007054881273,0.00010498445135394003,0,0,0,0,0,0,1500,1500,1500,1500,1500,1500
1747617390.3544707,-0.06,0.01,-0.41000000000000003,0.001090830782496456,0.002181661564992912,-0.001090830782496456,-0.0017185301051565042,-0.12202007054881273,0.00010498445135394003,0,0,0,0,0,0,1500,1500,1500,1500,1500,1500
1747617390.4533415,-0.04,0.0,-0.44,-0.001090830782496456,-0.001090830782496456,-0.003272492347489368,-0.0017185301051565042,-0.12202007054881273,0.00010498445135394003,0,0,0,0,0,0,1500,1500,1500,1500,1500,1500
1747617390.5540302,-0.04,0.0,-0.44,-0.001090830782496456,-0.001090830782496456,-0.003272492347489368,-0.0017185301051565042,-0.12202007054881273,0.00010498445135394003,0,-9.960774,0,0,0,0,1460,1460,1460,1500,1500,1500
1747617390.6533265,-0.06,0.01,-0.43,0.001090830782496456,0.003272492347489368,0.003272492347489368,-0.0017185301051565042,-0.12202007054881273,0.00010498445135394003,0,-12.5,0,0,0,-0.172475,1432,1440,1443,1500,1500,1500
1747617390.7522473,-0.05,0.0,-0.39,0.001090830782496456,-0.004363323129985824,0.0,-0.001715447908420375,-0.10632227458234379,9.13688250097732e-05,0,-12.5,0,0,0,-0.184141,1432,1441,1443,1500,1500,1500
1747617390.8368447,-0.05,0.0,-0.39,0.001090830782496456,-0.004363323129985824,0.0,-0.001715447908420375,-0.10632227458234379,9.13688250097732e-05,0,-12.5,0,0,0,-0.184141,1432,1441,1443,1500,1500,1500
1747617390.9360874,0.19,0.31,-0.72,-0.002181661564992912,0.001090830782496456,0.001090830782496456,-0.0017185301051565042,-0.12202007054881273,0.00010498445135394003,0,-12.5,0,0,0,-0.190117,1431,1441,1443,1500,1500,1500
1747617391.0363636,0.19,0.31,-0.72,-0.002181661564992912,0.001090830782496456,0.001090830782496456,-0.0017185301051565042,-0.12202007054881273,0.00010498445135394003,0,-12.5,0,0,0,-0.190117,1431,1441,1443,1500,1500,1500
1747617391.1199796,0.0,0.03,-0.42,-0.002181661564992912,0.001090830782496456,0.001090830782496456,-0.0017185301051565042,-0.12202007054881273,0.00010498445135394003,0,-12.5,0,0,0,-0.190117,1431,1441,1443,1500,1500,1500
1747617391.2208407,-0.06,-0.01,-0.46,-0.001090830782496456,0.0,0.0,-0.0017185301051565042,-0.12202007054881273,0.00010498445135394003,0,-12.5,0,0,0,-0.190117,1431,1441,1443,1500,1500,1500
1747617391.305637,-0.06,-0.01,-0.46,-0.001090830782496456,0.0,0.0,-0.0017185301051565042,-0.12202007054881273,0.00010498445135394003,0,-12.5,0,0,0,-0.190117,1431,1441,1443,1500,1500,1500
1747617391.403121,-0.03,-0.02,-0.41000000000000003,0.001090830782496456,0.002181661564992912,-0.001090830782496456,-0.0017185301051565042,-0.12202007054881273,0.00010498445135394003,0,-12.5,0,0,0,-0.190117,1431,1441,1443,1500,1500,1500
1747617391.5016377,-0.03,-0.02,-0.41000000000000003,0.001090830782496456,0.002181661564992912,-0.001090830782496456,-0.0017185301051565042,-0.12202007054881273,0.00010498445135394003,0,-12.5,0,0,0,-0.190117,1431,1441,1443,1500,1500,1500
1747617391.5862906,-0.04,-0.01,-0.43,-0.001090830782496456,0.003272492347489368,-0.002181661564992912,-0.0017185301051565042,-0.12202007054881273,0.00010498445135394003,0,-12.5,0,0,0,-0.190117,1431,1441,1443,1500,1500,1500
1747617391.686002,-0.08,-0.01,-0.42,0.002181661564992912,0.0,-0.001090830782496456,-0.0017185301051565042,-0.12202007054881273,0.00010498445135394003,0,-12.5,0,0,0,-0.190117,1431,1441,1443,1500,1500,1500
1747617391.7864246,-0.08,-0.01,-0.42,0.002181661564992912,0.0,-0.001090830782496456,-0.0017185301051565042,-0.12202007054881273,0.00010498445135394003,0,-12.5,0,0,0,-0.190117,1431,1441,1443,1500,1500,1500
1747617391.8686917,-0.03,-0.01,-0.4,-0.004363323129985824,0.001090830782496456,0.0,-0.0017185301051565042,-0.12202007054881273,0.00010498445135394003,0,-12.5,0,0,0,-0.190117,1431,1441,1443,1500,1500,1500
1747617391.9709213,-0.03,-0.01,-0.4,-0.004363323129985824,0.001090830782496456,0.0,-0.0017185301051565042,-0.12202007054881273,0.00010498445135394003,0,-12.5,0,0,0,-0.012403,1435,1436,1443,1500,1500,1500
1747617392.0698,-0.03,-0.01,-0.46,0.0,0.002181661564992912,0.001090830782496456,-0.0017185301051565042,-0.12202007054881273,0.00010498445135394003,0,0,0,0,0,0,1475,1476,1483,1500,1500,1500
1747617392.171811,-0.04,0.12,-0.5,0.0,0.001090830782496456,0.001090830782496456,-0.0017185301051565042,-0.12202007054881273,0.00010498445135394003,0,0,0,0,0,0,1500,1500,1500,1500,1500,1500
1747617392.270898,-0.04,0.12,-0.5,0.0,0.001090830782496456,0.001090830782496456,-0.0017185301051565042,-0.12202007054881273,0.00010498445135394003,0,0,0,0,0,0,1500,1500,1500,1500,1500,1500
1747617392.353103,-0.01,0.02,-0.43,0.0,0.0,0.001090830782496456,-0.0017185301051565042,-0.12202007054881273,0.00010498445135394003,0,0,0,0,0,0,1500,1500,1500,1500,1500,1500
1747617392.4523468,-0.01,0.02,-0.43,0.0,0.0,0.001090830782496456,-0.0017185301051565042,-0.12202007054881273,0.00010498445135394003,0,0,0,0,0,0,1500,1500,1500,1500,1500,1500
1747617392.5540564,-0.08,0.0,-0.42,0.0,0.004363323129985824,0.001090830782496456,-0.0017185301051565042,-0.12202007054881273,0.00010498445135394003,0,0,0,0,0,0,1500,1500,1500,1500,1500,1500
1747617392.6532805,-0.05,-0.01,-0.43,0.001090830782496456,0.003272492347489368,0.004363323129985824,-0.0017185301051565042,-0.12202007054881273,0.00010498445135394003,0,0,0,0,0,0,1500,1500,1500,1500,1500,1500
1747617392.7533753,-0.05,-0.01,-0.43,0.001090830782496456,0.003272492347489368,0.004363323129985824,-0.0017185301051565042,-0.12202007054881273,0.00010498445135394003,0,0,0,0,0,0,1500,1500,1500,1500,1500,1500
1747617392.8364758,-0.04,0.01,-0.42,0.001090830782496456,0.001090830782496456,-0.004363323129985824,-0.0017185301051565042,-0.12202007054881273,0.00010498445135394003,0,0,0,0,0,0,1500,1500,1500,1500,1500,1500
1747617392.936346,-0.04,0.01,-0.42,0.001090830782496456,0.001090830782496456,-0.004363323129985824,-0.0017185301051565042,-0.12202007054881273,0.00010498445135394003,0,0,0,0,0,0,1500,1500,1500,1500,1500,1500
1747617393.0376832,-0.04,0.0,-0.41000000000000003,-0.001090830782496456,0.001090830782496456,0.0,-0.0017185301051565042,-0.12202007054881273,0.00010498445135394003,0,0,0,0,0,0,1500,1500,1500,1500,1500,1500
1747617393.1192744,-0.05,0.0,-0.42,-0.001090830782496456,0.002181661564992912,-0.002181661564992912,-0.0017185301051565042,-0.12202007054881273,0.00010498445135394003,0,0,0,0,0,0,1500,1500,1500,1500,1500,1500
1747617393.2187328,-0.05,0.0,-0.42,-0.001090830782496456,0.002181661564992912,-0.002181661564992912,-0.0017185301051565042,-0.12202007054881273,0.00010498445135394003,0,0,0,0,0,0,1500,1500,1500,1500,1500,1500
1747617393.321294,-0.07,0.0,-0.43,0.004363323129985824,0.001090830782496456,0.0,-0.0017185301051565042,-0.12202007054881273,0.00010498445135394003,0,0,0,0,0,0,1500,1500,1500,1500,1500,1500
1747617393.4199617,-0.07,0.0,-0.43,0.004363323129985824,0.001090830782496456,0.0,-0.0017185301051565042,-0.12202007054881273,0.00010498445135394003,0,0,0,0,0,0,1500,1500,1500,1500,1500,1500
1747617393.518942,-0.05,0.0,-0.39,-0.001090830782496456,0.003272492347489368,0.0,-0.0017185301051565042,-0.12202007054881273,0.00010498445135394003,0,0,0,0,0,0,1500,1500,1500,1500,1500,1500
1747617393.6047947,-0.05,0.0,-0.44,0.001090830782496456,0.00545415391248228,-0.001090830782496456,-0.0017185301051565042,-0.12202007054881273,0.00010498445135394003,0,0,0,0,0,0,1500,1500,1500,1500,1500,1500
1747617393.703175,-0.05,0.0,-0.44,0.001090830782496456,0.00545415391248228,-0.001090830782496456,-0.0017185301051565042,-0.12202007054881273,0.00010498445135394003,0,0,0,0,0,0,1500,1500,1500,1500,1500,1500
1747617393.8031352,-0.04,0.01,-0.41000000000000003,0.0,0.001090830782496456,0.0,-0.0017185301051565042,-0.12202007054881273,0.00010498445135394003,0,-12.5,0,0,0,-0.234621,1460,1460,1460,1500,1500,1500
1747617393.8855262,-0.04,0.01,-0.41000000000000003,0.0,0.001090830782496456,0.0,-0.0017185301051565042,-0.12202007054881273,0.00010498445135394003,0,-12.5,0,0,0,-0.262151,1420,1429,1431,1500,1500,1500
1747617393.9877026,-0.04,0.0,-0.41000000000000003,0.003272492347489368,-0.001090830782496456,0.0,-0.0017185301051565042,-0.12202007054881273,0.00010498445135394003,0,-12.5,0,0,0,-0.110497,1416,1423,1431,1500,1500,1500
1747617394.0860882,-0.27,-0.24,-0.63,-0.00545415391248228,-0.001090830782496456,0.002181661564992912,-0.0017185301051565042,-0.12202007054881273,0.00010498445135394003,0,-12.5,0,0,0,-0.110497,1416,1423,1431,1500,1500,1500
1747617394.1855094,-0.27,-0.24,-0.63,-0.00545415391248228,-0.001090830782496456,0.002181661564992912,-0.0017185301051565042,-0.12202007054881273,0.00010498445135394003,0,-12.5,0,0,0,-0.184141,1414,1426,1431,1500,1500,1500
1747617394.2860813,0.04,0.17,-0.55,0.004363323129985824,0.0,-0.001090830782496456,-0.0017185301051565042,-0.12202007054881273,0.00010498445135394003,0,-12.5,0,0,0,-0.208618,1413,1427,1431,1500,1500,1500
1747617394.369501,0.04,0.17,-0.55,0.004363323129985824,0.0,-0.001090830782496456,-0.0017185301051565042,-0.12202007054881273,0.00010498445135394003,0,-12.5,0,0,0,-0.208618,1413,1427,1431,1500,1500,1500
1747617394.4692588,-0.04,-0.01,-0.43,0.0,-0.002181661564992912,0.0,-0.0017185301051565042,-0.12202007054881273,0.00010498445135394003,0,-12.5,0,0,0,-0.208618,1413,1427,1431,1500,1500,1500
1747617394.5698357,-0.06,0.0,-0.45,-0.001090830782496456,-0.001090830782496456,-0.001090830782496456,-0.0017185301051565042,-0.12202007054881273,0.00010498445135394003,0,-12.5,0,0,0,-0.208618,1413,1427,1431,1500,1500,1500
1747617394.670466,-0.06,0.0,-0.45,-0.001090830782496456,-0.001090830782496456,-0.001090830782496456,-0.0017185301051565042,-0.12202007054881273,0.00010498445135394003,0,-12.5,0,0,0,-0.208618,1413,1427,1431,1500,1500,1500
1747617394.769487,-0.03,0.0,-0.42,0.001090830782496456,0.004363323129985824,0.0,-0.0017185301051565042,-0.12202007054881273,0.00010498445135394003,0,-12.5,0,0,0,-0.208618,1413,1427,1431,1500,1500,1500
1747617394.8526723,-0.03,0.0,-0.42,0.001090830782496456,0.004363323129985824,0.0,-0.0017185301051565042,-0.12202007054881273,0.00010498445135394003,0,-12.5,0,0,0,-0.208618,1413,1427,1431,1500,1500,1500
1747617394.9557538,-0.04,0.01,-0.44,0.0,0.001090830782496456,0.001090830782496456,-0.0017185301051565042,-0.12202007054881273,0.00010498445135394003,0,-12.5,0,0,0,-0.052349,1419,1421,1431,1500,1500,1500
1747617395.0532334,-0.07,0.0,-0.42,0.002181661564992912,0.003272492347489368,0.0,-0.0017185301051565042,-0.12202007054881273,0.00010498445135394003,0,0,0,0,0,0,1459,1461,1471,1500,1500,1500
1747617395.1380594,-0.07,0.0,-0.42,0.002181661564992912,0.003272492347489368,0.0,-0.0017185301051565042,-0.12202007054881273,0.00010498445135394003,0,0,0,0,0,0,1499,1500,1500,1500,1500,1500
1747617395.2398772,0.18,0.18,-0.51,0.0,-0.004363323129985824,-0.003272492347489368,-0.0017185301051565042,-0.12202007054881273,0.00010498445135394003,0,0,0,0,0,0,1500,1500,1500,1500,1500,1500
1747617395.32247,0.18,0.18,-0.51,0.0,-0.004363323129985824,-0.003272492347489368,-0.0017185301051565042,-0.12202007054881273,0.00010498445135394003,0,0,0,0,0,0,1500,1500,1500,1500,1500,1500
1747617395.4209964,-0.08,0.0,-0.44,0.001090830782496456,0.004363323129985824,-0.001090830782496456,-0.0017185301051565042,-0.12202007054881273,0.00010498445135394003,0,0,0,0,0,0,1500,1500,1500,1500,1500,1500
1747617395.520159,-0.04,0.0,-0.39,0.001090830782496456,-0.001090830782496456,0.002181661564992912,-0.0017185301051565042,-0.12202007054881273,0.00010498445135394003,0,0,0,0,0,0,1500,1500,1500,1500,1500,1500
1747617395.603225,-0.04,0.0,-0.39,0.001090830782496456,-0.001090830782496456,0.002181661564992912,-0.0017185301051565042,-0.12202007054881273,0.00010498445135394003,0,0,0,0,0,0,1500,1500,1500,1500,1500,1500
1747617395.7042148,-0.04,0.0,-0.41000000000000003,-0.001090830782496456,-0.001090830782496456,0.0,-0.0017185301051565042,-0.12202007054881273,0.00010498445135394003,0,0,0,0,0,0,1500,1500,1500,1500,1500,1500
1747617395.7996845,-0.04,0.0,-0.44,-0.002181661564992912,0.0,0.0,-0.0017185301051565042,-0.12202007054881273,0.00010498445135394003,0,0,0,0,0,0,1500,1500,1500,1500,1500,1500
1747617395.8856683,-0.04,0.0,-0.44,-0.002181661564992912,0.0,0.0,-0.0017185301051565042,-0.12202007054881273,0.00010498445135394003,0,0,0,0,0,0,1500,1500,1500,1500,1500,1500
1747617395.9876666,-0.03,0.02,-0.39,-0.001090830782496456,0.004363323129985824,0.0,-0.0017185301051565042,-0.12202007054881273,0.00010498445135394003,0,0,0,0,0,0,1500,1500,1500,1500,1500,1500
1747617396.0716615,-0.03,0.02,-0.39,-0.001090830782496456,0.004363323129985824,0.0,-0.0017185301051565042,-0.12202007054881273,0.00010498445135394003,0,0,0,0,0,0,1500,1500,1500,1500,1500,1500
1747617396.1698954,-0.04,0.0,-0.43,0.001090830782496456,0.0,0.002181661564992912,-0.0017185301051565042,-0.12202007054881273,0.00010498445135394003,0,0,0,0,0,0,1500,1500,1500,1500,1500,1500
1747617396.2698267,-0.04,0.0,-0.43,0.001090830782496456,0.0,0.002181661564992912,-0.0017185301051565042,-0.12202007054881273,0.00010498445135394003,0,0,0,0,0,0,1500,1500,1500,1500,1500,1500
1747617396.3544922,-0.04,-0.01,-0.43,0.0,0.002181661564992912,-0.001090830782496456,-0.0017185301051565042,-0.12202007054881273,0.00010498445135394003,0,0,0,0,0,0,1500,1500,1500,1500,1500,1500
1747617396.4532428,-0.06,0.0,-0.43,0.003272492347489368,-0.003272492347489368,0.001090830782496456,-0.0017185301051565042,-0.12202007054881273,0.00010498445135394003,0,0,0,0,0,0,1500,1500,1500,1500,1500,1500
1747617396.5530868,-0.06,0.0,-0.43,0.003272492347489368,-0.003272492347489368,0.001090830782496456,-0.0017185301051565042,-0.12202007054881273,0.00010498445135394003,0,0,0,0,0,0,1500,1500,1500,1500,1500,1500
1747617396.6383908,-0.06,0.0,-0.41000000000000003,-0.001090830782496456,0.00545415391248228,-0.002181661564992912,-0.0017185301051565042,-0.12202007054881273,0.00010498445135394003,0,-8.037135,0,0,0,-0.144981,1460,1460,1460,1500,1500,1500
1747617396.7359116,-0.06,0.0,-0.41000000000000003,-0.001090830782496456,0.00545415391248228,-0.002181661564992912,-0.0017185301051565042,-0.12202007054881273,0.00010498445135394003,0,-12.5,0,0,0,-0.404931,1420,1421,1420,1500,1500,1500
1747617396.835589,-0.04,0.01,-0.42,0.001090830782496456,-0.002181661564992912,0.0,-0.0017185301051565042,-0.12202007054881273,0.00010498445135394003,0,-12.5,0,0,0,-0.404931,1387,1421,1417,1500,1500,1500
1747617396.9360106,0.07,0.2,-0.54,-0.001090830782496456,-0.001090830782496456,0.004363323129985824,-0.0017185301051565042,-0.12202007054881273,0.00010498445135394003,0,-12.5,0,0,0,-0.422704,1386,1422,1417,1500,1500,1500
1747617397.0354784,0.07,0.2,-0.54,-0.001090830782496456,-0.001090830782496456,0.004363323129985824,-0.0017185301051565042,-0.12202007054881273,0.00010498445135394003,0,-12.5,0,0,0,-0.422704,1386,1422,1417,1500,1500,1500
1747617397.119502,-0.05,0.1,-0.41000000000000003,0.006544984694978736,0.002181661564992912,-0.002181661564992912,-0.0017185301051565042,-0.12202007054881273,0.00010498445135394003,0,-12.5,0,0,0,-0.422704,1386,1422,1417,1500,1500,1500
1747617397.2197485,-0.05,0.1,-0.41000000000000003,0.006544984694978736,0.002181661564992912,-0.002181661564992912,-0.0017185301051565042,-0.12202007054881273,0.00010498445135394003,0,-12.5,0,0,0,-0.422704,1386,1422,1417,1500,1500,1500
1747617397.3202329,-0.04,-0.06,-0.42,0.0,0.0,0.001090830782496456,-0.0017185301051565042,-0.12202007054881273,0.00010498445135394003,0,-12.5,0,0,0,-0.422704,1386,1422,1417,1500,1500,1500
1747617397.4201362,-0.09,0.03,-0.42,0.003272492347489368,0.001090830782496456,0.001090830782496456,-0.0017185301051565042,-0.12202007054881273,0.00010498445135394003,0,-12.5,0,0,0,-0.422704,1386,1422,1417,1500,1500,1500
1747617397.51964,-0.09,0.03,-0.42,0.003272492347489368,0.001090830782496456,0.001090830782496456,-0.0017185301051565042,-0.12202007054881273,0.00010498445135394003,0,-12.5,0,0,0,-0.422704,1386,1422,1417,1500,1500,1500
1747617397.603857,-0.04,-0.01,-0.45,-0.001090830782496456,-0.00545415391248228,0.0,-0.0017185301051565042,-0.12202007054881273,0.00010498445135394003,0,-12.5,0,0,0,-0.065756,1403,1405,1417,1500,1500,1500
1747617397.7055833,-0.06,-0.04,-0.44,0.0,-0.001090830782496456,0.0,-0.0017185301051565042,-0.12202007054881273,0.00010498445135394003,0,0,0,0,0,0,1443,1445,1457,1500,1500,1500
1747617397.8045278,-0.06,-0.04,-0.44,0.0,-0.001090830782496456,0.0,-0.0017185301051565042,-0.12202007054881273,0.00010498445135394003,0,0,0,0,0,0,1483,1485,1497,1500,1500,1500
1747617397.9019642,-0.19,-0.09,-0.41000000000000003,0.0,0.0,0.0,-0.0017185301051565042,-0.12202007054881273,0.00010498445135394003,0,0,0,0,0,0,1500,1500,1500,1500,1500,1500
1747617398.0037386,-0.19,-0.09,-0.41000000000000003,0.0,0.0,0.0,-0.0017185301051565042,-0.12202007054881273,0.00010498445135394003,0,0,0,0,0,0,1500,1500,1500,1500,1500,1500
1747617398.0873356,0.05,0.07,-0.48,0.004363323129985824,-0.002181661564992912,0.0,-0.0017185301051565042,-0.12202007054881273,0.00010498445135394003,0,0,0,0,0,0,1500,1500,1500,1500,1500,1500
1747617398.1877124,-0.04,-0.01,-0.38,-0.002181661564992912,-0.002181661564992912,0.0,-0.0017185301051565042,-0.12202007054881273,0.00010498445135394003,0,0,0,0,0,0,1500,1500,1500,1500,1500,1500
1747617398.2859645,-0.04,-0.01,-0.38,-0.002181661564992912,-0.002181661564992912,0.0,-0.0017185301051565042,-0.12202007054881273,0.00010498445135394003,0,0,0,0,0,0,1500,1500,1500,1500,1500,1500
1747617398.370021,-0.06,0.01,-0.4,0.001090830782496456,-0.002181661564992912,-0.001090830782496456,-0.0017185301051565042,-0.12202007054881273,0.00010498445135394003,0,0,0,0,0,0,1500,1500,1500,1500,1500,1500
