time,ay,ax,az,gy,gx,gz,roll,pitch,yaw,cmd_fx,cmd_fy,cmd_fz,cmd_tx,cmd_ty,cmd_tz,pwm_1,pwm_2,pwm_3,pwm_4,pwm_5,pwm_6
1747549480.5072408,0.0,0.0,0.0,0.0,0.0,0.0,0.0,0.0,0.0,0,0,0,0,0,0,1500,1500,1500,1500,1500,1500
1747549480.6062431,0.01,0.03,-0.34,0.001090830782496456,0.002181661564992912,-0.001090830782496456,-0.007352179700141735,0.10074928123616199,-0.0003706834776309099,0,0,0,0,0,0,1500,1500,1500,1500,1500,1500
1747549480.7068784,0.01,0.03,-0.34,0.001090830782496456,0.002181661564992912,-0.001090830782496456,-0.007352179700141735,0.10074928123616199,-0.0003706834776309099,0,0,0,0,0,0,1500,1500,1500,1500,1500,1500
1747549480.7883744,0.02,-0.01,-0.37,-0.001090830782496456,-0.002181661564992912,0.001090830782496456,-0.007352179700141735,0.10074928123616199,-0.0003706834776309099,0,0,0,0,0,0,1500,1500,1500,1500,1500,1500
1747549480.8898458,0.02,-0.01,-0.37,-0.001090830782496456,-0.002181661564992912,0.001090830782496456,-0.007352179700141735,0.10074928123616199,-0.0003706834776309099,0,0,0,0,0,0,1500,1500,1500,1500,1500,1500
1747549480.9898539,0.03,0.02,-0.35000000000000003,-0.003272492347489368,-0.003272492347489368,0.003272492347489368,-0.007352179700141735,0.10074928123616199,-0.0003706834776309099,0,0,0,0,0,0,1500,1500,1500,1500,1500,1500
1747549481.0730128,0.0,-0.01,-0.28,-0.001090830782496456,-0.004363323129985824,-0.002181661564992912,-0.007352179700141735,0.10074928123616199,-0.0003706834776309099,0,0,0,0,0,0,1500,1500,1500,1500,1500,1500
1747549481.1730704,0.0,-0.01,-0.28,-0.001090830782496456,-0.004363323129985824,-0.002181661564992912,-0.007352179700141735,0.10074928123616199,-0.0003706834776309099,0,0,0,0,0,0,1500,1500,1500,1500,1500,1500
1747549481.2737477,0.01,0.0,-0.35000000000000003,0.001090830782496456,0.001090830782496456,0.0,-0.007352179700141735,0.10074928123616199,-0.0003706834776309099,0,0,0,0,0,0,1500,1500,1500,1500,1500,1500
1747549481.3731694,,,,0.0,0.0,0.0,-0.007352179700141735,0.10074928123616199,-0.0003706834776309099,0,0,0,0,0,0,1500,1500,1500,1500,1500,1500
1747549481.4733496,,,,0.0,0.0,0.0,-0.007352179700141735,0.10074928123616199,-0.0003706834776309099,0,0,0,0,0,0,1500,1500,1500,1500,1500,1500
1747549481.5566378,0.04,0.0,-0.4,-0.003272492347489368,-0.002181661564992912,0.001090830782496456,-0.007352179700141735,0.10074928123616199,-0.0003706834776309099,0,0,0,0,0,0,1500,1500,1500,1500,1500,1500
1747549481.6567318,0.04,0.0,-0.4,-0.003272492347489368,-0.002181661564992912,0.001090830782496456,-0.007352179700141735,0.10074928123616199,-0.0003706834776309099,0,0,0,0,0,0,1500,1500,1500,1500,1500,1500
1747549481.755909,0.02,0.01,-0.32,0.001090830782496456,-0.001090830782496456,-0.001090830782496456,-0.007352179700141735,0.10074928123616199,-0.0003706834776309099,0,0,0,0,0,0,1500,1500,1500,1500,1500,1500
1747549481.8399825,0.02,0.01,-0.32,0.001090830782496456,-0.001090830782496456,-0.001090830782496456,-0.007352179700141735,0.10074928123616199,-0.0003706834776309099,0,0,0,0,0,0,1500,1500,1500,1500,1500,1500
1747549481.9395103,0.02,-0.04,-0.37,-0.002181661564992912,0.003272492347489368,-0.001090830782496456,-0.007352179700141735,0.10074928123616199,-0.0003706834776309099,0,0,0,0,0,0,1500,1500,1500,1500,1500,1500
1747549482.0396492,0.01,0.01,-0.35000000000000003,0.001090830782496456,-0.002181661564992912,0.002181661564992912,-0.007352179700141735,0.10074928123616199,-0.0003706834776309099,0,0,0,0,0,0,1500,1500,1500,1500,1500,1500
1747549482.1399508,0.01,0.01,-0.35000000000000003,0.001090830782496456,-0.002181661564992912,0.002181661564992912,-0.007352179700141735,0.10074928123616199,-0.0003706834776309099,0,0,0,0,0,0,1500,1500,1500,1500,1500,1500
1747549482.2397907,0.02,0.0,-0.34,-0.003272492347489368,-0.003272492347489368,0.001090830782496456,-0.007352179700141735,0.10074928123616199,-0.0003706834776309099,0,0,0,0,0,0,1500,1500,1500,1500,1500,1500
1747549482.3225462,0.01,0.0,-0.33,-0.001090830782496456,-0.002181661564992912,-0.001090830782496456,-0.007352179700141735,0.10074928123616199,-0.0003706834776309099,0,0,0,0,0,0,1500,1500,1500,1500,1500,1500
1747549482.4231033,0.01,0.0,-0.33,-0.001090830782496456,-0.002181661564992912,-0.001090830782496456,-0.007352179700141735,0.10074928123616199,-0.0003706834776309099,0,0,0,0,0,0,1500,1500,1500,1500,1500,1500
1747549482.52321,0.03,0.0,-0.36,-0.001090830782496456,-0.001090830782496456,-0.002181661564992912,-0.007352179700141735,0.10074928123616199,-0.0003706834776309099,0,0,0,0,0,0,1500,1500,1500,1500,1500,1500
1747549482.6226838,0.03,0.0,-0.36,-0.001090830782496456,-0.001090830782496456,-0.002181661564992912,-0.007352179700141735,0.10074928123616199,-0.0003706834776309099,0,0,0,0,0,0,1500,1500,1500,1500,1500,1500
1747549482.7231944,0.02,0.02,-0.33,0.002181661564992912,0.002181661564992912,0.001090830782496456,-0.007352179700141735,0.10074928123616199,-0.0003706834776309099,0,0,0,0,0,0,1500,1500,1500,1500,1500,1500
1747549482.8071024,0.01,0.0,-0.3,0.001090830782496456,-0.002181661564992912,0.0,-0.007352179700141735,0.10074928123616199,-0.0003706834776309099,0,0,0,0,0,0,1500,1500,1500,1500,1500,1500
1747549482.9066708,0.01,0.0,-0.3,0.001090830782496456,-0.002181661564992912,0.0,-0.007352179700141735,0.10074928123616199,-0.0003706834776309099,0,0,0,0,0,0,1500,1500,1500,1500,1500,1500
1747549483.0062168,0.02,-0.01,-0.35000000000000003,-0.002181661564992912,-0.002181661564992912,-0.001090830782496456,-0.007352179700141735,0.10074928123616199,-0.0003706834776309099,0,0,0,0,0,0,1500,1500,1500,1500,1500,1500
1747549483.089995,0.02,-0.01,-0.35000000000000003,-0.002181661564992912,-0.002181661564992912,-0.001090830782496456,-0.007352179700141735,0.10074928123616199,-0.0003706834776309099,0,0,0,0,0,0,1500,1500,1500,1500,1500,1500
1747549483.1888268,0.0,-0.01,-0.29,-0.001090830782496456,-0.001090830782496456,-0.001090830782496456,-0.007352179700141735,0.10074928123616199,-0.0003706834776309099,0,0,0,0,0,0,1500,1500,1500,1500,1500,1500
1747549483.289235,0.03,0.01,-0.39,0.002181661564992912,0.0,0.0,-0.007352179700141735,0.10074928123616199,-0.0003706834776309099,0,0,0,0,0,0,1500,1500,1500,1500,1500,1500
1747549483.3898597,0.03,0.01,-0.39,0.002181661564992912,0.0,0.0,-0.007352179700141735,0.10074928123616199,-0.0003706834776309099,0,0,0,0,0,0,1500,1500,1500,1500,1500,1500
1747549483.4896579,0.02,0.0,-0.37,-0.001090830782496456,0.0,0.001090830782496456,-0.007352179700141735,0.10074928123616199,-0.0003706834776309099,0,0,0,0,0,0,1500,1500,1500,1500,1500,1500
1747549483.5735202,0.02,0.0,-0.37,-0.001090830782496456,0.0,0.001090830782496456,-0.007352179700141735,0.10074928123616199,-0.0003706834776309099,0,0,0,0,0,0,1500,1500,1500,1500,1500,1500
1747549483.6729274,0.02,-0.02,-0.3,-0.001090830782496456,0.002181661564992912,0.001090830782496456,-0.007352179700141735,0.10074928123616199,-0.0003706834776309099,0,0,0,0,0,0,1500,1500,1500,1500,1500,1500
1747549483.772938,0.03,0.03,-0.39,-0.004363323129985824,-0.002181661564992912,0.0,-0.007352179700141735,0.10074928123616199,-0.0003706834776309099,0,0,0,0,0,0,1500,1500,1500,1500,1500,1500
1747549483.872365,0.03,0.03,-0.39,-0.004363323129985824,-0.002181661564992912,0.0,-0.007352179700141735,0.10074928123616199,-0.0003706834776309099,0,0,0,0,0,0,1500,1500,1500,1500,1500,1500
1747549483.9733043,0.03,-0.01,-0.32,0.0,0.00545415391248228,0.002181661564992912,-0.007352179700141735,0.10074928123616199,-0.0003706834776309099,0,-0.722657,0,0,0,0,1500,1500,1500,1500,1500,1500
1747549484.0564926,0.03,-0.01,-0.32,0.0,0.00545415391248228,0.002181661564992912,-0.007352179700141735,0.10074928123616199,-0.0003706834776309099,0,-1.238321,0,0,0,0,1500,1500,1500,1500,1500,1500
1747549484.1566956,0.02,0.02,-0.32,0.001090830782496456,-0.001090830782496456,0.001090830782496456,-0.007352179700141735,0.10074928123616199,-0.0003706834776309099,0,-1.304137,0,0,0,0,1500,1500,1500,1500,1500,1500
1747549484.255718,0.01,-0.01,-0.28,0.0,0.001090830782496456,0.001090830782496456,-0.007352179700141735,0.10074928123616199,-0.0003706834776309099,0,-1.304137,0,0,0,0,1500,1500,1500,1500,1500,1500
1747549484.3399816,0.01,-0.01,-0.28,0.0,0.001090830782496456,0.001090830782496456,-0.007352179700141735,0.10074928123616199,-0.0003706834776309099,0,-1.304137,0,0,0,0,1500,1500,1500,1500,1500,1500
1747549484.439051,0.02,-0.02,-0.33,0.001090830782496456,-0.003272492347489368,0.003272492347489368,-0.007352179700141735,0.10074928123616199,-0.0003706834776309099,0,-2.314819,0,0,0,0,1540,1540,1500,1500,1500,1500
1747549484.527554,0.02,0.0,-0.3,0.001090830782496456,0.002181661564992912,0.0,-0.007352179700141735,0.10074928123616199,-0.0003706834776309099,0,-5.887076,0,0,0,0,1555,1554,1540,1500,1500,1500
1747549484.623271,0.02,0.0,-0.3,0.001090830782496456,0.002181661564992912,0.0,-0.007352179700141735,0.10074928123616199,-0.0003706834776309099,0,-6.029575,0,0,0,0,1556,1555,1549,1500,1500,1500
1747549484.7229686,0.03,0.0,-0.35000000000000003,-0.001090830782496456,0.001090830782496456,-0.001090830782496456,-0.007352179700141735,0.10074928123616199,-0.0003706834776309099,0,-11.292264,0,0,0,0,1574,1573,1564,1500,1500,1500
1747549484.8064635,0.03,0.0,-0.35000000000000003,-0.001090830782496456,0.001090830782496456,-0.001090830782496456,-0.007352179700141735,0.10074928123616199,-0.0003706834776309099,0,-12.5,0,0,0,0,1577,1576,1567,1500,1500,1500
1747549484.9066536,0.03,0.0,-0.31,0.003272492347489368,0.002181661564992912,-0.001090830782496456,-0.007352179700141735,0.10074928123616199,-0.0003706834776309099,0,-10.521188,0,0,0,0,1572,1570,1562,1500,1500,1500
1747549485.006495,0.03,0.0,-0.31,0.003272492347489368,0.002181661564992912,-0.001090830782496456,-0.007352179700141735,0.10074928123616199,-0.0003706834776309099,0,-12.090605,0,0,0,0,1576,1575,1566,1500,1500,1500
1747549485.0897748,0.02,0.0,-0.3,0.0,0.001090830782496456,0.0,-0.007352179700141735,0.10074928123616199,-0.0003706834776309099,0,-12.5,0,0,0,0,1577,1576,1567,1500,1500,1500
1747549485.1891305,0.02,0.02,-0.32,-0.001090830782496456,0.003272492347489368,0.001090830782496456,-0.007352179700141735,0.10074928123616199,-0.0003706834776309099,0,-0.056222,0,0,0,0,1537,1536,1527,1500,1500,1500
1747549485.2896779,0.02,0.02,-0.32,-0.001090830782496456,0.003272492347489368,0.001090830782496456,-0.007352179700141735,0.10074928123616199,-0.0003706834776309099,0,0,0,0,0,0,1500,1500,1500,1500,1500,1500
1747549485.3898108,0.01,-0.01,-0.27,0.003272492347489368,-0.001090830782496456,0.0,-0.007352179700141735,0.10074928123616199,-0.0003706834776309099,0,0,0,0,0,0,1500,1500,1500,1500,1500,1500
1747549485.4899065,0.0,-0.01,-0.35000000000000003,0.004363323129985824,0.00545415391248228,0.001090830782496456,-0.007352179700141735,0.10074928123616199,-0.0003706834776309099,0,0,0,0,0,0,1500,1500,1500,1500,1500,1500
1747549485.5727224,0.0,-0.01,-0.35000000000000003,0.004363323129985824,0.00545415391248228,0.001090830782496456,-0.007352179700141735,0.10074928123616199,-0.0003706834776309099,0,0,0,0,0,0,1500,1500,1500,1500,1500,1500
1747549485.6728885,-0.01,0.0,-0.3,0.0,0.003272492347489368,0.001090830782496456,-0.007352179700141735,0.10074928123616199,-0.0003706834776309099,0,0,0,0,0,0,1500,1500,1500,1500,1500,1500
1747549485.7727091,-0.01,0.0,-0.3,0.0,0.003272492347489368,0.001090830782496456,-0.007352179700141735,0.10074928123616199,-0.0003706834776309099,0,0,0,0,0,0,1500,1500,1500,1500,1500,1500
1747549485.855339,0.03,-0.02,-0.37,0.001090830782496456,-0.002181661564992912,0.0,-0.007352179700141735,0.10074928123616199,-0.0003706834776309099,0,0,0,0,0,0,1500,1500,1500,1500,1500,1500
1747549485.9530463,0.01,0.0,-0.28,-0.001090830782496456,0.0,0.001090830782496456,-0.007352179700141735,0.10074928123616199,-0.0003706834776309099,0,0,0,0,0,0,1500,1500,1500,1500,1500,1500
1747549486.0396883,0.01,0.0,-0.28,-0.001090830782496456,0.0,0.001090830782496456,-0.007352179700141735,0.10074928123616199,-0.0003706834776309099,0,0,0,0,0,0,1500,1500,1500,1500,1500,1500
1747549486.1392663,0.02,-0.01,-0.35000000000000003,0.001090830782496456,0.007635815477475192,-0.00545415391248228,-0.007352179700141735,0.10074928123616199,-0.0003706834776309099,0,0,0,0,0,0,1500,1500,1500,1500,1500,1500
1747549486.2385385,0.02,-0.01,-0.35000000000000003,0.001090830782496456,0.007635815477475192,-0.00545415391248228,-0.007352179700141735,0.10074928123616199,-0.0003706834776309099,0,0,0,0,0,0,1500,1500,1500,1500,1500,1500
1747549486.3228555,0.0,0.01,-0.34,-0.001090830782496456,0.00545415391248228,0.0,-0.007352179700141735,0.10074928123616199,-0.0003706834776309099,0,0,0,0,0,0,1500,1500,1500,1500,1500,1500
1747549486.423033,0.02,-0.01,-0.29,-0.001090830782496456,0.001090830782496456,0.001090830782496456,-0.007352179700141735,0.10074928123616199,-0.0003706834776309099,0,0,0,0,0,0,1500,1500,1500,1500,1500,1500
1747549486.5227332,0.02,-0.01,-0.29,-0.001090830782496456,0.001090830782496456,0.001090830782496456,-0.007352179700141735,0.10074928123616199,-0.0003706834776309099,0,0,0,0,0,0,1500,1500,1500,1500,1500,1500
1747549486.6230016,0.01,-0.01,-0.36,0.004363323129985824,-0.003272492347489368,0.0,-0.007352179700141735,0.10074928123616199,-0.0003706834776309099,0,0,0,0,0,0,1500,1500,1500,1500,1500,1500
1747549486.7233474,0.01,-0.01,-0.36,0.004363323129985824,-0.003272492347489368,0.0,-0.007352179700141735,0.10074928123616199,-0.0003706834776309099,0,0,0,0,0,0,1500,1500,1500,1500,1500,1500
1747549486.8073993,0.02,-0.03,-0.32,-0.002181661564992912,-0.002181661564992912,-0.002181661564992912,-0.007352179700141735,0.10074928123616199,-0.0003706834776309099,0,0,0,0,0,0,1500,1500,1500,1500,1500,1500
1747549486.904059,0.02,0.0,-0.39,0.0,0.0,-0.003272492347489368,-0.007352179700141735,0.10074928123616199,-0.0003706834776309099,0,0,0,0,0,0,1500,1500,1500,1500,1500,1500
1747549487.006016,0.02,0.0,-0.39,0.0,0.0,-0.003272492347489368,-0.007352179700141735,0.10074928123616199,-0.0003706834776309099,0,0,0,0,0,0,1500,1500,1500,1500,1500,1500
1747549487.0887933,0.01,0.0,-0.32,-0.004363323129985824,-0.003272492347489368,0.001090830782496456,-0.007352179700141735,0.10074928123616199,-0.0003706834776309099,0,0,0,0,0,0,1500,1500,1500,1500,1500,1500
1747549487.1895938,0.01,0.0,-0.32,-0.004363323129985824,-0.003272492347489368,0.001090830782496456,-0.007352179700141735,0.10074928123616199,-0.0003706834776309099,0,0,0,0,0,0,1500,1500,1500,1500,1500,1500
1747549487.2897866,0.02,-0.01,-0.33,0.002181661564992912,0.002181661564992912,-0.001090830782496456,-0.007352179700141735,0.10074928123616199,-0.0003706834776309099,0,0,0,0,0,0,1500,1500,1500,1500,1500,1500
1747549487.3893936,0.02,0.01,-0.35000000000000003,0.0,-0.003272492347489368,0.0,-0.007352179700141735,0.10074928123616199,-0.0003706834776309099,0,0,0,0,0,0,1500,1500,1500,1500,1500,1500
1747549487.489841,0.02,0.01,-0.35000000000000003,0.0,-0.003272492347489368,0.0,-0.007352179700141735,0.10074928123616199,-0.0003706834776309099,0,0,0,0,0,0,1500,1500,1500,1500,1500,1500
1747549487.5724626,0.04,-0.03,-0.3,0.003272492347489368,0.002181661564992912,-0.001090830782496456,-0.007352179700141735,0.10074928123616199,-0.0003706834776309099,0,0,0,0,0,0,1500,1500,1500,1500,1500,1500
1747549487.6729448,0.04,-0.03,-0.3,0.003272492347489368,0.002181661564992912,-0.001090830782496456,-0.007352179700141735,0.10074928123616199,-0.0003706834776309099,0,0,0,0,0,0,1500,1500,1500,1500,1500,1500
1747549487.7728996,0.02,0.01,-0.38,-0.003272492347489368,0.0,0.0,-0.007352179700141735,0.10074928123616199,-0.0003706834776309099,0,0,0,0,0,0,1500,1500,1500,1500,1500,1500
1747549487.872614,0.01,-0.01,-0.3,0.001090830782496456,0.004363323129985824,0.0,-0.007352179700141735,0.10074928123616199,-0.0003706834776309099,0,0,0,0,0,0,1500,1500,1500,1500,1500,1500
1747549487.9725666,0.01,-0.01,-0.3,0.001090830782496456,0.004363323129985824,0.0,-0.007352179700141735,0.10074928123616199,-0.0003706834776309099,0,0,0,0,0,0,1500,1500,1500,1500,1500,1500
1747549488.0565333,0.01,0.0,-0.38,0.0,-0.00545415391248228,0.0,-0.007352179700141735,0.10074928123616199,-0.0003706834776309099,0,-3.954077,0,0,0,0,1540,1540,1540,1500,1500,1500
1747549488.1566312,0.01,0.0,-0.38,0.0,-0.00545415391248228,0.0,-0.007352179700141735,0.10074928123616199,-0.0003706834776309099,0,-12.5,0,0,0,0,1577,1576,1567,1500,1500,1500
1747549488.2563713,0.02,-0.01,-0.31,0.0,-0.002181661564992912,0.001090830782496456,-0.007352179700141735,0.10074928123616199,-0.0003706834776309099,0,-12.5,0,0,0,0,1577,1576,1567,1500,1500,1500
1747549488.3393183,0.7000000000000001,0.24,-0.28,0.006544984694978736,0.002181661564992912,-0.001090830782496456,-0.007597256960528728,0.10074928123616199,-0.0003830395923628462,0,-12.5,0,0,0,0,1577,1576,1567,1500,1500,1500
1747549488.4392872,0.7000000000000001,0.24,-0.28,0.006544984694978736,0.002181661564992912,-0.001090830782496456,-0.007597256960528728,0.10074928123616199,-0.0003830395923628462,0,-12.5,0,0,0,0,1577,1576,1567,1500,1500,1500
1747549488.539789,-0.05,-0.06,-0.32,-0.001090830782496456,-0.003272492347489368,-0.002181661564992912,-0.00772008244776948,0.10111689372392169,-0.00039064749343421134,0,-12.5,0,0,0,0,1577,1576,1567,1500,1500,1500
1747549488.6351109,0.01,0.02,-0.35000000000000003,0.004363323129985824,0.001090830782496456,0.0,-0.00771998676706048,0.10099435470696355,-0.0003901708612076875,0,-0.221491,0,0,0,0,1537,1536,1527,1500,1500,1500
1747549488.7397294,0.01,0.02,-0.35000000000000003,0.004363323129985824,0.001090830782496456,0.0,-0.00771998676706048,0.10099435470696355,-0.0003901708612076875,0,0,0,0,0,0,1500,1500,1500,1500,1500,1500
1747549488.8225029,0.26,0.13,-0.38,-0.002181661564992912,0.003272492347489368,0.003272492347489368,-0.007474903218365732,0.10099435470696355,-0.0003777844858592635,0,0,0,0,0,0,1500,1500,1500,1500,1500,1500
1747549488.9229257,0.26,0.13,-0.38,-0.002181661564992912,0.003272492347489368,0.003272492347489368,-0.007474903218365732,0.10099435470696355,-0.0003777844858592635,0,0,0,0,0,0,1500,1500,1500,1500,1500,1500
1747549489.0230036,0.03,0.06,-0.32,0.007635815477475192,0.0,0.0,-0.007597444936111447,0.10099435470696355,-0.0003839776735482032,0,0,0,0,0,0,1500,1500,1500,1500,1500,1500
1747549489.1222208,0.03,-0.05,-0.36,0.0,0.001090830782496456,-0.001090830782496456,-0.007597444936111447,0.10099435470696355,-0.0003839776735482032,0,0,0,0,0,0,1500,1500,1500,1500,1500,1500
1747549489.2229364,0.03,-0.05,-0.36,0.0,0.001090830782496456,-0.001090830782496456,-0.007597444936111447,0.10099435470696355,-0.0003839776735482032,0,0,0,0,0,0,1500,1500,1500,1500,1500,1500
1747549489.3065512,0.02,-0.02,-0.29,-0.001090830782496456,-0.002181661564992912,0.002181661564992912,-0.007597444936111447,0.10099435470696355,-0.0003839776735482032,0,0,0,0,0,0,1500,1500,1500,1500,1500,1500
1747549489.406495,0.02,-0.02,-0.29,-0.001090830782496456,-0.002181661564992912,0.002181661564992912,-0.007597444936111447,0.10099435470696355,-0.0003839776735482032,0,0,0,0,0,0,1500,1500,1500,1500,1500,1500
1747549489.5054536,0.01,0.01,-0.35000000000000003,0.003272492347489368,-0.001090830782496456,0.0,-0.007597444936111447,0.10099435470696355,-0.0003839776735482032,0,-0.022363,0,0,0,0,1500,1500,1500,1500,1500,1500
1747549489.5897338,0.04,-0.01,-0.32,0.0,-0.001090830782496456,0.0,-0.007597444936111447,0.10099435470696355,-0.0003839776735482032,0,-2.495869,0,0,0,0,1540,1540,1500,1500,1500,1500
1747549489.689854,0.04,-0.01,-0.32,0.0,-0.001090830782496456,0.0,-0.007597444936111447,0.10099435470696355,-0.0003839776735482032,0,-2.978317,0,0,0,0,1544,1543,1540,1500,1500,1500
1747549489.7897604,0.02,0.0,-0.32,0.00545415391248228,0.0,0.001090830782496456,-0.007597444936111447,0.10099435470696355,-0.0003839776735482032,0,-2.978317,0,0,0,0,1544,1543,1540,1500,1500,1500
1747549489.889513,0.02,0.0,-0.32,0.00545415391248228,0.0,0.001090830782496456,-0.007597444936111447,0.10099435470696355,-0.0003839776735482032,0,-2.978317,0,0,0,0,1544,1543,1540,1500,1500,1500
1747549489.9890988,-0.54,-0.01,-0.16,-0.003272492347489368,-0.004363323129985824,-0.001090830782496456,-0.007597444936111447,0.10099435470696355,-0.0003839776735482032,0,-0.879209,0,0,0,0,1504,1503,1500,1500,1500,1500
1747549490.0736265,0.19,0.0,-0.32,0.0,-0.003272492347489368,-0.001090830782496456,-0.007591860535743541,0.10185262422942247,-0.0002647125860051075,0,-1.3e-05,0,0,0,0,1500,1500,1500,1500,1500,1500
1747549490.178831,0.19,0.0,-0.32,0.0,-0.003272492347489368,-0.001090830782496456,-0.007591860535743541,0.10185262422942247,-0.0002647125860051075,0,0,0,0,0,0,1500,1500,1500,1500,1500,1500
1747549490.273121,0.06,0.09,-0.29,-0.001090830782496456,-0.004363323129985824,0.001090830782496456,-0.007591860535743541,0.10185262422942247,-0.0002647125860051075,0,0,0,0,0,0,1500,1500,1500,1500,1500,1500
1747549490.3729973,0.06,0.09,-0.29,-0.001090830782496456,-0.004363323129985824,0.001090830782496456,-0.007591860535743541,0.10185262422942247,-0.0002647125860051075,0,0,0,0,0,0,1500,1500,1500,1500,1500,1500
1747549490.4727142,0.07,-0.03,-0.32,-0.001090830782496456,0.0,0.0,-0.007591860535743541,0.10185262422942247,-0.0002647125860051075,0,0,0,0,0,0,1500,1500,1500,1500,1500,1500
1747549490.5564394,0.1,0.03,-0.35000000000000003,-0.002181661564992912,0.14289883250703572,0.001090830782496456,-0.007591860535743541,0.10185262422942247,-0.0002647125860051075,0,0,0,0,0,0,1500,1500,1500,1500,1500,1500
1747549490.6563702,0.1,0.03,-0.35000000000000003,-0.002181661564992912,0.14289883250703572,0.001090830782496456,-0.007591860535743541,0.10185262422942247,-0.0002647125860051075,0,0,0,0,0,0,1500,1500,1500,1500,1500,1500
1747549490.7564423,0.06,0.0,-0.35000000000000003,0.002181661564992912,0.0,-0.001090830782496456,-0.007591860535743541,0.10185262422942247,-0.0002647125860051075,0,0,0,0,0,0,1500,1500,1500,1500,1500,1500
1747549490.838924,0.06,0.0,-0.35000000000000003,0.002181661564992912,0.0,-0.001090830782496456,-0.007591860535743541,0.10185262422942247,-0.0002647125860051075,0,0,0,0,0,0,1500,1500,1500,1500,1500,1500
1747549490.9390302,0.06,-0.01,-0.32,-0.003272492347489368,0.0,0.002181661564992912,-0.007591860535743541,0.10185262422942247,-0.0002647125860051075,0,0,0,0,0,0,1500,1500,1500,1500,1500,1500
1747549491.0390432,0.03,0.01,-0.31,0.0,0.001090830782496456,0.002181661564992912,-0.007591860535743541,0.10185262422942247,-0.0002647125860051075,0,0,0,0,0,0,1500,1500,1500,1500,1500,1500
1747549491.1385338,0.03,0.01,-0.31,0.0,0.001090830782496456,0.002181661564992912,-0.007591860535743541,0.10185262422942247,-0.0002647125860051075,0,0,0,0,0,0,1500,1500,1500,1500,1500,1500
1747549491.2390487,0.03,0.0,-0.36,-0.003272492347489368,0.002181661564992912,0.0,-0.007591860535743541,0.10185262422942247,-0.0002647125860051075,0,0,0,0,0,0,1500,1500,1500,1500,1500,1500
1747549491.3226504,0.04,-0.02,-0.32,0.0,0.001090830782496456,0.0,-0.007591860535743541,0.10185262422942247,-0.0002647125860051075,0,0,0,0,0,0,1500,1500,1500,1500,1500,1500
1747549491.4229267,0.04,-0.02,-0.32,0.0,0.001090830782496456,0.0,-0.007591860535743541,0.10185262422942247,-0.0002647125860051075,0,0,0,0,0,0,1500,1500,1500,1500,1500,1500
1747549491.52324,0.03,0.0,-0.32,0.002181661564992912,0.001090830782496456,0.0,-0.007591860535743541,0.10185262422942247,-0.0002647125860051075,0,0,0,0,0,0,1500,1500,1500,1500,1500,1500
1747549491.622979,0.03,0.0,-0.32,0.002181661564992912,0.001090830782496456,0.0,-0.007591860535743541,0.10185262422942247,-0.0002647125860051075,0,0,0,0,0,0,1500,1500,1500,1500,1500,1500
1747549491.7229242,0.03,0.01,-0.37,0.0,0.001090830782496456,0.0,-0.007591860535743541,0.10185262422942247,-0.0002647125860051075,0,0,0,0,0,0,1500,1500,1500,1500,1500,1500
1747549491.805634,0.04,0.0,-0.32,0.001090830782496456,-0.00545415391248228,0.0,-0.007591860535743541,0.10185262422942247,-0.0002647125860051075,0,-0.087315,0,0,0,0,1500,1500,1500,1500,1500,1500
1747549491.9064944,0.04,0.0,-0.32,0.001090830782496456,-0.00545415391248228,0.0,-0.007591860535743541,0.10185262422942247,-0.0002647125860051075,0,-0.169949,0,0,0,0,1500,1500,1500,1500,1500,1500
1747549492.0056589,0.04,-0.01,-0.33,-0.002181661564992912,-0.003272492347489368,-0.001090830782496456,-0.007591860535743541,0.10185262422942247,-0.0002647125860051075,0,-0.031945,0,0,0,0,1500,1500,1500,1500,1500,1500
1747549492.0890052,0.04,-0.01,-0.33,-0.002181661564992912,-0.003272492347489368,-0.001090830782496456,-0.007591860535743541,0.10185262422942247,-0.0002647125860051075,0,-0.022363,0,0,0,0,1500,1500,1500,1500,1500,1500
1747549492.189038,0.04,0.01,-0.32,0.002181661564992912,0.0,0.0,-0.007591860535743541,0.10185262422942247,-0.0002647125860051075,0,-0.022363,0,0,0,0,1500,1500,1500,1500,1500,1500
1747549492.2895322,0.03,-0.01,-0.35000000000000003,0.0,0.003272492347489368,0.001090830782496456,-0.007591860535743541,0.10185262422942247,-0.0002647125860051075,0,-0.279849,0,0,0,0,1500,1500,1500,1500,1500,1500
1747549492.3889527,0.03,-0.01,-0.35000000000000003,0.0,0.003272492347489368,0.001090830782496456,-0.007591860535743541,0.10185262422942247,-0.0002647125860051075,0,-0.455564,0,0,0,0,1500,1500,1500,1500,1500,1500
1747549492.4899323,0.03,0.02,-0.31,0.001090830782496456,-0.001090830782496456,-0.002181661564992912,-0.007591860535743541,0.10185262422942247,-0.0002647125860051075,0,-1.111801,0,0,0,0,1500,1500,1500,1500,1500,1500
1747549492.5726953,0.03,0.02,-0.31,0.001090830782496456,-0.001090830782496456,-0.002181661564992912,-0.007591860535743541,0.10185262422942247,-0.0002647125860051075,0,-1.371658,0,0,0,0,1500,1500,1500,1500,1500,1500
1747549492.6730168,0.02,-0.01,-0.31,0.003272492347489368,-0.003272492347489368,-0.001090830782496456,-0.007591860535743541,0.10185262422942247,-0.0002647125860051075,0,-1.440882,0,0,0,0,1500,1500,1500,1500,1500,1500
1747549492.7726593,0.04,-0.01,-0.38,0.002181661564992912,0.004363323129985824,0.0,-0.007591860535743541,0.10185262422942247,-0.0002647125860051075,0,-1.973167,0,0,0,0,1500,1500,1500,1500,1500,1500
1747549492.8566713,0.04,-0.01,-0.38,0.002181661564992912,0.004363323129985824,0.0,-0.007591860535743541,0.10185262422942247,-0.0002647125860051075,0,-2.780225,0,0,0,0,1540,1540,1500,1500,1500,1500
1747549492.9564407,0.0,0.0,-0.31,0.0,0.0,0.001090830782496456,-0.007591860535743541,0.10185262422942247,-0.0002647125860051075,0,-2.878419,0,0,0,0,1544,1543,1500,1500,1500,1500
1747549493.0522885,0.03,0.01,-0.38,0.0,-0.003272492347489368,-0.001090830782496456,-0.007591860535743541,0.10185262422942247,-0.0002647125860051075,0,-2.878419,0,0,0,0,1544,1543,1500,1500,1500,1500
1747549493.1387372,0.03,0.01,-0.38,0.0,-0.003272492347489368,-0.001090830782496456,-0.007591860535743541,0.10185262422942247,-0.0002647125860051075,0,-5.067867,0,0,0,0,1552,1551,1540,1500,1500,1500
1747549493.2389953,-0.05,0.01,-0.29,0.0,-0.001090830782496456,0.001090830782496456,-0.007591860535743541,0.10185262422942247,-0.0002647125860051075,0,-7.54829,0,0,0,0,1562,1561,1553,1500,1500,1500
1747549493.3226137,-0.05,0.01,-0.29,0.0,-0.001090830782496456,0.001090830782496456,-0.007591860535743541,0.10185262422942247,-0.0002647125860051075,0,-5.469804,0,0,0,0,1553,1552,1548,1500,1500,1500
1747549493.4217653,0.0,0.04,-0.34,0.002181661564992912,0.002181661564992912,0.001090830782496456,-0.007591860535743541,0.10185262422942247,-0.0002647125860051075,0,-2.404492,0,0,0,0,1541,1540,1508,1500,1500,1500
1747549493.5231695,0.0,0.04,-0.34,0.002181661564992912,0.002181661564992912,0.001090830782496456,-0.007591860535743541,0.10185262422942247,-0.0002647125860051075,0,-1.238321,0,0,0,0,1501,1500,1500,1500,1500,1500
1747549493.6223145,0.1,-0.11,-0.26,-0.002181661564992912,-0.001090830782496456,0.0,-0.007591860535743541,0.10185262422942247,-0.0002647125860051075,0,-1.238321,0,0,0,0,1500,1500,1500,1500,1500,1500
1747549493.723014,-0.04,-0.04,-0.34,0.001090830782496456,-0.004363323129985824,-0.001090830782496456,-0.007591860535743541,0.10185262422942247,-0.0002647125860051075,0,-0.825321,0,0,0,0,1500,1500,1500,1500,1500,1500
1747549493.806235,-0.04,-0.04,-0.34,0.001090830782496456,-0.004363323129985824,-0.001090830782496456,-0.007591860535743541,0.10185262422942247,-0.0002647125860051075,0,-0.417013,0,0,0,0,1500,1500,1500,1500,1500,1500
1747549493.906477,0.05,0.0,-0.38,-0.001090830782496456,-0.00545415391248228,0.002181661564992912,-0.007591860535743541,0.10185262422942247,-0.0002647125860051075,0,-0.345023,0,0,0,0,1500,1500,1500,1500,1500,1500
1747549493.9948385,0.06,-0.01,-0.31,-0.002181661564992912,-0.003272492347489368,-0.002181661564992912,-0.007591860535743541,0.10185262422942247,-0.0002647125860051075,0,-0.345023,0,0,0,0,1500,1500,1500,1500,1500,1500
1747549494.089336,0.06,-0.01,-0.31,-0.002181661564992912,-0.003272492347489368,-0.002181661564992912,-0.007591860535743541,0.10185262422942247,-0.0002647125860051075,0,-0.194868,0,0,0,0,1500,1500,1500,1500,1500,1500
1747549494.1900096,0.03,0.01,-0.36,-0.001090830782496456,-0.00545415391248228,-0.001090830782496456,-0.007591860535743541,0.10185262422942247,-0.0002647125860051075,0,-0.125224,0,0,0,0,1500,1500,1500,1500,1500,1500
1747549494.2889915,0.03,0.01,-0.36,-0.001090830782496456,-0.00545415391248228,-0.001090830782496456,-0.007591860535743541,0.10185262422942247,-0.0002647125860051075,0,-0.056222,0,0,0,0,1500,1500,1500,1500,1500,1500
1747549494.3887525,0.04,-0.01,-0.32,0.0,0.002181661564992912,0.001090830782496456,-0.007591860535743541,0.10185262422942247,-0.0002647125860051075,0,-0.056222,0,0,0,0,1500,1500,1500,1500,1500,1500
1747549494.4900634,0.04,0.0,-0.35000000000000003,0.002181661564992912,0.003272492347489368,0.0,-0.007591860535743541,0.10185262422942247,-0.0002647125860051075,0,-0.031945,0,0,0,0,1500,1500,1500,1500,1500,1500
1747549494.5722542,0.04,0.0,-0.35000000000000003,0.002181661564992912,0.003272492347489368,0.0,-0.007591860535743541,0.10185262422942247,-0.0002647125860051075,0,-0.169949,0,0,0,0,1500,1500,1500,1500,1500,1500
1747549494.6722362,0.04,0.02,-0.28,-0.001090830782496456,0.0,0.001090830782496456,-0.007591860535743541,0.10185262422942247,-0.0002647125860051075,0,-0.169949,0,0,0,0,1500,1500,1500,1500,1500,1500
1747549494.773817,0.04,0.02,-0.28,-0.001090830782496456,0.0,0.001090830782496456,-0.007591860535743541,0.10185262422942247,-0.0002647125860051075,0,-0.169949,0,0,0,0,1500,1500,1500,1500,1500,1500
1747549494.8738258,0.03,0.0,-0.34,0.0,-0.002181661564992912,0.002181661564992912,-0.007591860535743541,0.10185262422942247,-0.0002647125860051075,0,-1.174209,0,0,0,0,1500,1500,1500,1500,1500,1500
1747549494.9747572,0.02,0.0,-0.29,0.001090830782496456,0.0,0.003272492347489368,-0.007591860535743541,0.10185262422942247,-0.0002647125860051075,0,-1.65878,0,0,0,0,1500,1500,1500,1500,1500,1500
1747549495.0561976,0.02,0.0,-0.29,0.001090830782496456,0.0,0.003272492347489368,-0.007591860535743541,0.10185262422942247,-0.0002647125860051075,0,-1.65878,0,0,0,0,1500,1500,1500,1500,1500,1500
1747549495.1595542,0.02,0.0,-0.35000000000000003,-0.002181661564992912,0.002181661564992912,-0.002181661564992912,-0.007591860535743541,0.10185262422942247,-0.0002647125860051075,0,-1.973167,0,0,0,0,1500,1500,1500,1500,1500,1500
1747549495.25827,0.02,0.0,-0.35000000000000003,-0.002181661564992912,0.002181661564992912,-0.002181661564992912,-0.007591860535743541,0.10185262422942247,-0.0002647125860051075,0,-3.838843,0,0,0,-0.000811,1540,1540,1540,1500,1500,1500
1747549495.356565,0.02,0.0,-0.31,-0.002181661564992912,0.002181661564992912,0.001090830782496456,-0.007591860535743541,0.10185262422942247,-0.0002647125860051075,0,-3.838843,0,0,0,-0.00489,1548,1547,1543,1500,1500,1500
1747549495.4554064,0.02,0.01,-0.33,-0.001090830782496456,0.002181661564992912,-0.002181661564992912,-0.007591860535743541,0.10185262422942247,-0.0002647125860051075,0,-3.838843,0,0,0,-0.005903,1548,1547,1543,1500,1500,1500
1747549495.5394382,0.02,0.01,-0.33,-0.001090830782496456,0.002181661564992912,-0.002181661564992912,-0.007591860535743541,0.10185262422942247,-0.0002647125860051075,0,-3.838843,0,0,0,-0.005903,1548,1547,1543,1500,1500,1500
1747549495.6395187,0.1,0.0,-0.31,-0.00545415391248228,0.0,-0.001090830782496456,-0.007591860535743541,0.10185262422942247,-0.0002647125860051075,0,-3.838843,0,0,0,-6e-05,1548,1547,1543,1500,1500,1500
1747549495.739964,0.1,0.0,-0.31,-0.00545415391248228,0.0,-0.001090830782496456,-0.007591860535743541,0.10185262422942247,-0.0002647125860051075,0,-2.140585,0,0,0,-6e-05,1508,1507,1503,1500,1500,1500
1747549495.823038,0.02,0.03,-0.36,0.003272492347489368,0.00545415391248228,0.0,-0.007591860535743541,0.10185262422942247,-0.0002647125860051075,0,-0.773137,0,0,0,0,1500,1500,1500,1500,1500,1500
1747549495.9228246,0.04,-0.04,-0.37,-0.003272492347489368,0.004363323129985824,0.0,-0.007591860535743541,0.10185262422942247,-0.0002647125860051075,0,-0.249818,0,0,0,0,1500,1500,1500,1500,1500,1500
1747549496.0229547,0.04,-0.04,-0.37,-0.003272492347489368,0.004363323129985824,0.0,-0.007591860535743541,0.10185262422942247,-0.0002647125860051075,0,-0.056222,0,0,0,0,1500,1500,1500,1500,1500,1500
1747549496.1226265,0.05,0.04,-0.28,0.001090830782496456,0.001090830782496456,-0.003272492347489368,-0.007591860535743541,0.10185262422942247,-0.0002647125860051075,0,-0.031945,0,0,0,0,1500,1500,1500,1500,1500,1500
1747549496.2230291,0.02,0.0,-0.38,-0.002181661564992912,0.003272492347489368,0.0,-0.007591860535743541,0.10185262422942247,-0.0002647125860051075,0,-0.031945,0,0,0,0,1500,1500,1500,1500,1500,1500
1747549496.3061945,0.02,0.0,-0.38,-0.002181661564992912,0.003272492347489368,0.0,-0.007591860535743541,0.10185262422942247,-0.0002647125860051075,0,-0.031945,0,0,0,0,1500,1500,1500,1500,1500,1500
1747549496.4052212,0.02,0.0,-0.26,0.0,0.003272492347489368,0.0,-0.007591860535743541,0.10185262422942247,-0.0002647125860051075,0,-0.031945,0,0,0,0,1500,1500,1500,1500,1500,1500
1747549496.505568,0.02,0.0,-0.26,0.0,0.003272492347489368,0.0,-0.007591860535743541,0.10185262422942247,-0.0002647125860051075,0,-0.022363,0,0,0,0,1500,1500,1500,1500,1500,1500
1747549496.5895987,0.01,0.0,-0.34,0.0,-0.003272492347489368,0.001090830782496456,-0.007591860535743541,0.10185262422942247,-0.0002647125860051075,0,-0.022363,0,0,0,0,1500,1500,1500,1500,1500,1500
1747549496.6856356,0.02,0.02,-0.32,0.0,-0.002181661564992912,0.001090830782496456,-0.007591860535743541,0.10185262422942247,-0.0002647125860051075,0,-0.022363,0,0,0,0,1500,1500,1500,1500,1500,1500
1747549496.789595,0.02,0.02,-0.32,0.0,-0.002181661564992912,0.001090830782496456,-0.007591860535743541,0.10185262422942247,-0.0002647125860051075,0,-0.022363,0,0,0,0,1500,1500,1500,1500,1500,1500
1747549496.8895652,0.06,-0.01,-0.34,0.0,-0.001090830782496456,-0.001090830782496456,-0.007591860535743541,0.10185262422942247,-0.0002647125860051075,0,-0.022363,0,0,0,0,1500,1500,1500,1500,1500,1500
1747549496.9891331,0.06,-0.01,-0.34,0.0,-0.001090830782496456,-0.001090830782496456,-0.007591860535743541,0.10185262422942247,-0.0002647125860051075,0,-0.537779,0,0,0,0,1500,1500,1500,1500,1500,1500
1747549497.0719047,0.02,0.02,-0.37,0.004363323129985824,0.00545415391248228,0.001090830782496456,-0.007591860535743541,0.10185262422942247,-0.0002647125860051075,0,-1.174209,0,0,0,0,1500,1500,1500,1500,1500,1500
1747549497.1712918,0.03,-0.02,-0.33,0.0,0.00545415391248228,0.0,-0.007591860535743541,0.10185262422942247,-0.0002647125860051075,0,-1.174209,0,0,0,0,1500,1500,1500,1500,1500,1500
1747549497.2723417,0.03,-0.02,-0.33,0.0,0.00545415391248228,0.0,-0.007591860535743541,0.10185262422942247,-0.0002647125860051075,0,-1.812565,0,0,0,-0.003148,1500,1500,1500,1500,1500,1500
1747549497.3555195,0.02,0.0,-0.33,0.002181661564992912,-0.001090830782496456,0.001090830782496456,-0.007591860535743541,0.10185262422942247,-0.0002647125860051075,0,-1.812565,0,0,0,-0.003148,1500,1500,1500,1500,1500,1500
1747549497.4561913,0.02,0.0,-0.33,0.002181661564992912,-0.001090830782496456,0.001090830782496456,-0.007591860535743541,0.10185262422942247,-0.0002647125860051075,0,-2.683736,0,0,0,-0.008217,1540,1540,1500,1500,1500,1500
1747549497.5551982,0.03,0.0,-0.34,-0.003272492347489368,0.004363323129985824,0.0,-0.007591860535743541,0.10185262422942247,-0.0002647125860051075,0,-3.079918,0,0,0,-0.009517,1544,1544,1540,1500,1500,1500
1747549497.6559532,0.02,0.0,-0.37,0.001090830782496456,0.002181661564992912,0.0,-0.007591860535743541,0.10185262422942247,-0.0002647125860051075,0,-3.183224,0,0,0,-0.010913,1545,1544,1540,1500,1500,1500
1747549497.7561677,0.02,0.0,-0.37,0.001090830782496456,0.002181661564992912,0.0,-0.007591860535743541,0.10185262422942247,-0.0002647125860051075,0,-3.954077,0,0,0,-0.017449,1548,1547,1543,1500,1500,1500
1747549497.8399365,-0.45,0.03,-0.16,-0.001090830782496456,-0.002181661564992912,-0.002181661564992912,-0.007591860535743541,0.10185262422942247,-0.0002647125860051075,0,-3.183224,0,0,0,-0.017449,1545,1544,1540,1500,1500,1500
1747549497.9393408,-0.45,0.03,-0.16,-0.001090830782496456,-0.002181661564992912,-0.002181661564992912,-0.007591860535743541,0.10185262422942247,-0.0002647125860051075,0,-2.22685,0,0,0,-0.003971,1540,1504,1500,1500,1500,1500
1747549498.039275,0.06,0.04,-0.34,0.002181661564992912,0.0,-0.002181661564992912,-0.007592035467078771,0.10209772522146472,-0.0002656479157285679,0,-0.879209,0,0,0,-6e-05,1500,1500,1500,1500,1500,1500
1747549498.138776,0.0,0.0,-0.27,-0.002181661564992912,0.0,0.001090830782496456,-0.007592035467078771,0.10209772522146472,-0.0002656479157285679,0,-0.537779,0,0,0,0,1500,1500,1500,1500,1500,1500
1747549498.2392998,0.0,0.0,-0.27,-0.002181661564992912,0.0,0.001090830782496456,-0.007592035467078771,0.10209772522146472,-0.0002656479157285679,0,-0.279849,0,0,0,0,1500,1500,1500,1500,1500,1500
1747549498.322539,0.02,-0.04,-0.37,0.001090830782496456,-0.001090830782496456,0.0,-0.007592035467078771,0.10209772522146472,-0.0002656479157285679,0,-0.169949,0,0,0,0,1500,1500,1500,1500,1500,1500
1747549498.4229362,0.04,0.06,-0.32,-0.002181661564992912,-0.001090830782496456,0.0,-0.007591947943457967,0.10197517395701472,-0.00026518024303154054,0,-0.105417,0,0,0,0,1500,1500,1500,1500,1500,1500
1747549498.5232005,0.04,0.06,-0.32,-0.002181661564992912,-0.001090830782496456,0.0,-0.007591947943457967,0.10197517395701472,-0.00026518024303154054,0,-0.070916,0,0,0,0,1500,1500,1500,1500,1500,1500
1747549498.6229045,0.06,0.0,-0.33,0.001090830782496456,-0.002181661564992912,0.001090830782496456,-0.007592035467078771,0.10209772522146472,-0.0002656479157285679,0,-0.070916,0,0,0,0,1500,1500,1500,1500,1500,1500
1747549498.722977,0.06,0.0,-0.33,0.001090830782496456,-0.002181661564992912,0.001090830782496456,-0.007592035467078771,0.10209772522146472,-0.0002656479157285679,0,-0.043231,0,0,0,0,1500,1500,1500,1500,1500,1500
1747549498.8063426,0.02,-0.01,-0.34,-0.001090830782496456,-0.001090830782496456,0.002181661564992912,-0.007591947943457967,0.10197517395701472,-0.00026518024303154054,0,-0.043231,0,0,0,0,1500,1500,1500,1500,1500,1500
1747549498.9059746,0.05,0.0,-0.29,-0.002181661564992912,0.002181661564992912,0.0,-0.007591947943457967,0.10197517395701472,-0.00026518024303154054,0,-0.031945,0,0,0,0,1500,1500,1500,1500,1500,1500
1747549499.005865,0.05,0.0,-0.29,-0.002181661564992912,0.002181661564992912,0.0,-0.007591947943457967,0.10197517395701472,-0.00026518024303154054,0,-0.022363,0,0,0,0,1500,1500,1500,1500,1500,1500
1747549499.0887914,0.05,0.01,-0.36,-0.002181661564992912,0.0,0.0,-0.007591947943457967,0.10197517395701472,-0.00026518024303154054,0,-0.014485,0,0,0,0,1500,1500,1500,1500,1500,1500
1747549499.188882,0.05,0.01,-0.36,-0.002181661564992912,0.0,0.0,-0.007591947943457967,0.10197517395701472,-0.00026518024303154054,0,-0.008311,0,0,0,0,1500,1500,1500,1500,1500,1500
1747549499.2893586,0.02,0.0,-0.31,-0.001090830782496456,0.0,0.0,-0.009199086933448357,0.1018558371801274,-0.03176555837205781,0,0,0,0,0,0,1500,1500,1500,1500,1500,1500
1747549499.3893569,0.02,0.0,-0.36,0.0,0.0,0.0,-0.007591947943457967,0.10197517395701472,-0.00026518024303154054,0,0,0,0,0,0,1500,1500,1500,1500,1500,1500
1747549499.4890985,0.02,0.0,-0.36,0.0,0.0,0.0,-0.007591947943457967,0.10197517395701472,-0.00026518024303154054,0,0,0,0,0,0,1500,1500,1500,1500,1500,1500
1747549499.572085,0.03,0.0,-0.31,-0.001090830782496456,0.0,0.0,-0.007591947943457967,0.10197517395701472,-0.00026518024303154054,0,0,0,0,0,0,1500,1500,1500,1500,1500,1500
1747549499.6727078,0.03,0.0,-0.31,-0.001090830782496456,0.0,0.0,-0.007591947943457967,0.10197517395701472,-0.00026518024303154054,0,0,0,0,0,0,1500,1500,1500,1500,1500,1500
1747549499.77288,0.04,0.0,-0.35000000000000003,0.0,0.002181661564992912,0.0,-0.007591947943457967,0.10197517395701472,-0.00026518024303154054,0,0,0,0,0,0,1500,1500,1500,1500,1500,1500
1747549499.8727648,0.03,0.02,-0.33,-0.002181661564992912,0.001090830782496456,-0.001090830782496456,-0.007591947943457967,0.10197517395701472,-0.00026518024303154054,0,0,0,0,0,0,1500,1500,1500,1500,1500,1500
1747549499.972064,0.03,0.02,-0.33,-0.002181661564992912,0.001090830782496456,-0.001090830782496456,-0.007591947943457967,0.10197517395701472,-0.00026518024303154054,0,0,0,0,0,0,1500,1500,1500,1500,1500,1500
1747549500.0563083,0.03,0.0,-0.34,-0.001090830782496456,-0.003272492347489368,0.0,-0.007591947943457967,0.10197517395701472,-0.00026518024303154054,0,0,0,0,0,0,1500,1500,1500,1500,1500,1500
1747549500.1562996,0.03,0.0,-0.34,-0.001090830782496456,-0.003272492347489368,0.0,-0.007591947943457967,0.10197517395701472,-0.00026518024303154054,0,0,0,0,0,0,1500,1500,1500,1500,1500,1500
1747549500.255434,0.03,0.0,-0.36,0.001090830782496456,-0.004363323129985824,-0.001090830782496456,-0.007591947943457967,0.10197517395701472,-0.00026518024303154054,0,0,0,0,0,0,1500,1500,1500,1500,1500,1500
1747549500.339613,0.02,0.0,-0.3,0.0,-0.002181661564992912,-0.002181661564992912,-0.007592035467078771,0.10209772522146472,-0.0002656479157285679,0,0,0,0,0,0,1500,1500,1500,1500,1500,1500
1747549500.4387062,0.02,0.0,-0.3,0.0,-0.002181661564992912,-0.002181661564992912,-0.007592035467078771,0.10209772522146472,-0.0002656479157285679,0,0,0,0,0,0,1500,1500,1500,1500,1500,1500
1747549500.538978,0.04,0.0,-0.32,-0.002181661564992912,0.0,-0.001090830782496456,-0.007592035467078771,0.10209772522146472,-0.0002656479157285679,0,0,0,0,0,0,1500,1500,1500,1500,1500,1500
1747549500.6388555,0.06,-0.01,-0.29,0.002181661564992912,-0.002181661564992912,0.0,-0.007592035467078771,0.10209772522146472,-0.0002656479157285679,0,0,0,0,0,0,1500,1500,1500,1500,1500,1500
1747549500.7393014,0.06,-0.01,-0.29,0.002181661564992912,-0.002181661564992912,0.0,-0.007592035467078771,0.10209772522146472,-0.0002656479157285679,0,0,0.224458,0,0,0,1500,1500,1500,1500,1500,1500
1747549500.8222914,0.04,0.02,-0.38,0.0,-0.002181661564992912,-0.001090830782496456,-0.007592035467078771,0.10209772522146472,-0.0002656479157285679,0,0,1.493808,0,0,0,1500,1500,1500,1500,1500,1500
1747549500.9229586,0.04,0.02,-0.38,0.0,-0.002181661564992912,-0.001090830782496456,-0.007592035467078771,0.10209772522146472,-0.0002656479157285679,0,0,2.732198,0,0,0,1500,1500,1500,1500,1540,1460
1747549501.0225227,0.04,0.02,-0.34,-0.004363323129985824,-0.004363323129985824,0.001090830782496456,-0.007592035467078771,0.10209772522146472,-0.0002656479157285679,0,0,2.732198,0,0,0,1500,1500,1500,1500,1547,1449
1747549501.106251,0.04,0.02,-0.34,-0.004363323129985824,-0.004363323129985824,0.001090830782496456,-0.007592035467078771,0.10209772522146472,-0.0002656479157285679,0,0,2.732198,0,0,0,1500,1500,1500,1500,1547,1449
1747549501.2061744,0.01,-0.03,-0.34,-0.001090830782496456,0.001090830782496456,0.0,-0.007592035467078771,0.10209772522146472,-0.0002656479157285679,0,0,2.794118,0,0,0,1500,1500,1500,1500,1547,1448
1747549501.2900124,-0.38,0.22,-0.38,0.007635815477475192,0.002181661564992912,-0.008726646259971648,-0.007959702533116165,0.10209774769021135,-0.0002844317815804475,0,0,2.856037,0,0,0,1500,1500,1500,1500,1548,1448
1747549501.3897076,-0.38,0.22,-0.38,0.007635815477475192,0.002181661564992912,-0.008726646259971648,-0.007959702533116165,0.10209774769021135,-0.0002844317815804475,0,0,0.255418,0,0,0,1500,1500,1500,1500,1508,1488
1747549501.4896004,-0.17,0.09,-0.36,-0.008726646259971648,0.002181661564992912,0.00545415391248228,-0.007947180350909402,0.10209872133594794,-3.932778824220764e-05,0,0,0,0,0,0,1500,1500,1500,1500,1500,1500
1747549501.5727754,-0.17,0.09,-0.36,-0.008726646259971648,0.002181661564992912,0.00545415391248228,-0.007947180350909402,0.10209872133594794,-3.932778824220764e-05,0,0,0,0,0,0,1500,1500,1500,1500,1500,1500
1747549501.6724503,0.16,0.27,-0.44,-0.004363323129985824,-0.003272492347489368,0.003272492347489368,-0.007947103361280438,0.10197617005899844,-3.884047940529761e-05,0,0,0,0,0,0,1500,1500,1500,1500,1500,1500
1747549501.7724743,-0.02,0.0,-0.36,-0.003272492347489368,0.001090830782496456,0.0,-0.007947103361280438,0.10197617005899844,-3.884047940529761e-05,0,0,0,0,0,0,1500,1500,1500,1500,1500,1500
1747549501.8559582,-0.02,0.0,-0.36,-0.003272492347489368,0.001090830782496456,0.0,-0.007947103361280438,0.10197617005899844,-3.884047940529761e-05,0,0,0,0,0,0,1500,1500,1500,1500,1500,1500
1747549501.956093,0.07,0.02,-0.37,0.001090830782496456,0.003272492347489368,-0.001090830782496456,-0.007947103361280438,0.10197617005899844,-3.884047940529761e-05,0,0,0,0,0,0,1500,1500,1500,1500,1500,1500
1747549502.0563555,0.07,0.02,-0.37,0.001090830782496456,0.003272492347489368,-0.001090830782496456,-0.007947103361280438,0.10197617005899844,-3.884047940529761e-05,0,0,0,0,0,0,1500,1500,1500,1500,1500,1500
1747549502.1551552,0.04,0.0,-0.29,-0.002181661564992912,0.002181661564992912,-0.001090830782496456,-0.007947103361280438,0.10197617005899844,-3.884047940529761e-05,0,0,0,0,0,0,1500,1500,1500,1500,1500,1500
1747549502.256343,0.03,0.0,-0.37,0.001090830782496456,0.003272492347489368,0.001090830782496456,-0.007957944138432302,0.11767589114156406,-0.00010132766515938051,0,0,0,0,0,0,1500,1500,1500,1500,1500,1500
1747549502.3393123,0.03,0.0,-0.37,0.001090830782496456,0.003272492347489368,0.001090830782496456,-0.007957944138432302,0.11767589114156406,-0.00010132766515938051,0,0,0,0,0,0,1500,1500,1500,1500,1500,1500
1747549502.438952,0.04,-0.01,-0.29,0.001090830782496456,0.0,-0.002181661564992912,-0.007947103361280438,0.10197617005899844,-3.884047940529761e-05,0,0,0,0,0,0,1500,1500,1500,1500,1500,1500
1747549502.538857,0.04,0.01,-0.37,-0.001090830782496456,0.0,0.001090830782496456,-0.007947103361280438,0.10197617005899844,-3.884047940529761e-05,0,0,0,0,0,0,1500,1500,1500,1500,1500,1500
1747549502.6389134,0.04,0.01,-0.37,-0.001090830782496456,0.0,0.001090830782496456,-0.007947103361280438,0.10197617005899844,-3.884047940529761e-05,0,0,0.255418,0,0,0,1500,1500,1500,1500,1500,1500
1747549502.7401252,0.04,0.01,-0.31,0.001090830782496456,-0.003272492347489368,-0.001090830782496456,-0.007947103361280438,0.10197617005899844,-3.884047940529761e-05,0,0,1.27709,0,0,0,1500,1500,1500,1500,1500,1500
1747549502.8219178,0.04,0.01,-0.31,0.001090830782496456,-0.003272492347489368,-0.001090830782496456,-0.007947103361280438,0.10197617005899844,-3.884047940529761e-05,0,0,1.27709,0,0,0,1500,1500,1500,1500,1500,1500
1747549502.922534,0.04,0.0,-0.37,0.004363323129985824,-0.003272492347489368,-0.002181661564992912,-0.007947103361280438,0.10197617005899844,-3.884047940529761e-05,0,0,1.339009,0,0,0,1500,1500,1500,1500,1500,1500
1747549503.009095,0.03,0.01,-0.33,0.001090830782496456,-0.001090830782496456,0.0,-0.007947103361280438,0.10197617005899844,-3.884047940529761e-05,0,0,1.493808,0,0,0,1500,1500,1500,1500,1500,1500
1747549503.106537,0.03,0.01,-0.33,0.001090830782496456,-0.001090830782496456,0.0,-0.007947103361280438,0.10197617005899844,-3.884047940529761e-05,0,0,1.679567,0,0,0,1500,1500,1500,1500,1540,1460
1747549503.2074695,0.04,0.0,-0.34,0.0,0.00545415391248228,-0.001090830782496456,-0.007947103361280438,0.10197617005899844,-3.884047940529761e-05,0,0,1.865325,0,0,0,1500,1500,1500,1500,1542,1455
1747549503.2907786,0.04,0.0,-0.34,0.0,0.00545415391248228,-0.001090830782496456,-0.007947103361280438,0.10197617005899844,-3.884047940529761e-05,0,0,2.267802,0,0,0,1500,1500,1500,1500,1544,1452
1747549503.3896296,0.15,-0.25,-0.26,-0.006544984694978736,-0.001090830782496456,0.004363323129985824,-0.007947103361280438,0.10197617005899844,-3.884047940529761e-05,0,0,2.360681,0,0,0,1500,1500,1500,1500,1545,1451
1747549503.4880366,-0.06,0.03,-0.34,0.00545415391248228,0.004363323129985824,-0.001090830782496456,-0.007947103361280438,0.10197617005899844,-3.884047940529761e-05,0,0,0,0,0,0,1500,1500,1500,1500,1505,1491
1747549503.572449,-0.06,0.03,-0.34,0.00545415391248228,0.004363323129985824,-0.001090830782496456,-0.007947103361280438,0.10197617005899844,-3.884047940529761e-05,0,0,0,0,0,0,1500,1500,1500,1500,1500,1500
1747549503.6723626,0.02,-0.05,-0.31,0.001090830782496456,-0.003272492347489368,0.0,-0.007947103361280438,0.10197617005899844,-3.884047940529761e-05,0,0,0,0,0,0,1500,1500,1500,1500,1500,1500
1747549503.7729845,0.02,-0.05,-0.31,0.001090830782496456,-0.003272492347489368,0.0,-0.007947103361280438,0.10197617005899844,-3.884047940529761e-05,0,0,0,0,0,0,1500,1500,1500,1500,1500,1500
1747549503.8730314,0.01,-0.07,-0.28,0.001090830782496456,-0.001090830782496456,0.002181661564992912,-0.007947103361280438,0.10197617005899844,-3.884047940529761e-05,0,0,0,0,0,0,1500,1500,1500,1500,1500,1500
1747549503.9727836,0.06,0.22,-0.39,0.002181661564992912,-0.002181661564992912,0.001090830782496456,-0.007947103361280438,0.10197617005899844,-3.884047940529761e-05,0,0,0,0,0,0,1500,1500,1500,1500,1500,1500
1747549504.056124,0.06,0.22,-0.39,0.002181661564992912,-0.002181661564992912,0.001090830782496456,-0.007947103361280438,0.10197617005899844,-3.884047940529761e-05,0,0,0,0,0,0,1500,1500,1500,1500,1500,1500
1747549504.1556978,0.09,-0.09,-0.3,0.001090830782496456,0.001090830782496456,-0.003272492347489368,-0.007947103361280438,0.10197617005899844,-3.884047940529761e-05,0,0,0,0,0,0,1500,1500,1500,1500,1500,1500
1747549504.2564805,0.09,-0.09,-0.3,0.001090830782496456,0.001090830782496456,-0.003272492347489368,-0.007947103361280438,0.10197617005899844,-3.884047940529761e-05,0,0,0,0,0,0,1500,1500,1500,1500,1500,1500
1747549504.339408,0.03,-0.01,-0.35000000000000003,0.0,-0.002181661564992912,0.001090830782496456,-0.007947103361280438,0.10197617005899844,-3.884047940529761e-05,0,0,0,0,0,0,1500,1500,1500,1500,1500,1500
1747549504.4337256,0.03,0.01,-0.32,-0.001090830782496456,0.002181661564992912,0.001090830782496456,-0.007947103361280438,0.10197617005899844,-3.884047940529761e-05,0,0,0,0,0,0,1500,1500,1500,1500,1500,1500
1747549504.539018,0.03,0.01,-0.32,-0.001090830782496456,0.002181661564992912,0.001090830782496456,-0.007947103361280438,0.10197617005899844,-3.884047940529761e-05,0,0,0,0,0,0,1500,1500,1500,1500,1500,1500
1747549504.639308,0.02,-0.01,-0.29,0.004363323129985824,-0.001090830782496456,0.0,-0.007947103361280438,0.10197617005899844,-3.884047940529761e-05,0,0,0,0,0,0,1500,1500,1500,1500,1500,1500
1747549504.7395742,0.02,-0.01,-0.29,0.004363323129985824,-0.001090830782496456,0.0,-0.007947103361280438,0.10197617005899844,-3.884047940529761e-05,0,0,0,0,0,0,1500,1500,1500,1500,1500,1500
1747549504.8220735,0.05,0.0,-0.36,0.0,0.001090830782496456,0.0,-0.007947103361280438,0.10197617005899844,-3.884047940529761e-05,0,0,0,0,0,0,1500,1500,1500,1500,1500,1500
1747549504.9230368,0.04,0.0,-0.32,-0.001090830782496456,0.004363323129985824,-0.001090830782496456,-0.007947103361280438,0.10197617005899844,-3.884047940529761e-05,0,0,0,0,0,0,1500,1500,1500,1500,1500,1500
1747549505.0230231,0.04,0.0,-0.32,-0.001090830782496456,0.004363323129985824,-0.001090830782496456,-0.007947103361280438,0.10197617005899844,-3.884047940529761e-05,0,0,0,0,0,0,1500,1500,1500,1500,1500,1500
1747549505.123191,0.04,0.01,-0.37,0.0,0.0,-0.001090830782496456,-0.007947103361280438,0.10197617005899844,-3.884047940529761e-05,0,0,1.153251,0,0,0,1500,1500,1500,1500,1500,1500
1747549505.2233775,0.04,0.01,-0.37,0.0,0.0,-0.001090830782496456,-0.007947103361280438,0.10197617005899844,-3.884047940529761e-05,0,0,1.617647,0,0,0,1500,1500,1500,1500,1540,1500
1747549505.306308,0.05,0.02,-0.3,0.001090830782496456,0.0,-0.002181661564992912,-0.007947103361280438,0.10197617005899844,-3.884047940529761e-05,0,0,1.927245,0,0,0,1500,1500,1500,1500,1542,1460
1747549505.4057026,0.02,0.0,-0.35000000000000003,-0.002181661564992912,-0.003272492347489368,0.0,-0.007947103361280438,0.10197617005899844,-3.884047940529761e-05,0,0,2.608359,0,0,0,1500,1500,1500,1500,1546,1450
1747549505.5057456,0.02,0.0,-0.35000000000000003,-0.002181661564992912,-0.003272492347489368,0.0,-0.007947103361280438,0.10197617005899844,-3.884047940529761e-05,0,0,2.917957,0,0,0,1500,1500,1500,1500,1548,1447
1747549505.5893803,0.18,-0.05,-0.19,-0.00545415391248228,0.001090830782496456,0.001090830782496456,-0.007947103361280438,0.10197617005899844,-3.884047940529761e-05,0,0,1.958205,0,0,0,1500,1500,1500,1500,1542,1454
1747549505.6886413,0.18,-0.05,-0.19,-0.00545415391248228,0.001090830782496456,0.001090830782496456,-0.007947103361280438,0.10197617005899844,-3.884047940529761e-05,0,0,0,0,0,0,1500,1500,1500,1500,1502,1494
1747549505.789592,-0.02,-0.03,-0.41000000000000003,0.0,0.00545415391248228,0.001090830782496456,-0.007947103361280438,0.10197617005899844,-3.884047940529761e-05,0,0,0,0,0,0,1500,1500,1500,1500,1500,1500
1747549505.8891463,0.07,0.05,-0.4,0.002181661564992912,-0.001090830782496456,0.001090830782496456,-0.007947103361280438,0.10197617005899844,-3.884047940529761e-05,0,0,0,0,0,0,1500,1500,1500,1500,1500,1500
1747549505.9897158,0.07,0.05,-0.4,0.002181661564992912,-0.001090830782496456,0.001090830782496456,-0.007947103361280438,0.10197617005899844,-3.884047940529761e-05,0,0,0,0,0,0,1500,1500,1500,1500,1500,1500
1747549506.0726867,-0.02,-0.02,-0.26,-0.004363323129985824,-0.002181661564992912,-0.003272492347489368,-0.007947103361280438,0.10197617005899844,-3.884047940529761e-05,0,0,0,0,0,0,1500,1500,1500,1500,1500,1500
1747549506.1673234,0.01,0.0,-0.31,-0.001090830782496456,0.001090830782496456,-0.001090830782496456,-0.007947103361280438,0.10197617005899844,-3.884047940529761e-05,0,0,0,0,0,0,1500,1500,1500,1500,1500,1500
1747549506.2720213,0.01,0.0,-0.31,-0.001090830782496456,0.001090830782496456,-0.001090830782496456,-0.007947103361280438,0.10197617005899844,-3.884047940529761e-05,0,0,0,0,0,0,1500,1500,1500,1500,1500,1500
1747549506.355701,0.02,0.01,-0.33,0.0,-0.001090830782496456,-0.003272492347489368,-0.007947103361280438,0.10197617005899844,-3.884047940529761e-05,0,0,-1.060371,0,0,0,1500,1500,1500,1500,1500,1500
1747549506.4560611,0.02,0.01,-0.33,0.0,-0.001090830782496456,-0.003272492347489368,-0.007947103361280438,0.10197617005899844,-3.884047940529761e-05,0,0,-2.45356,0,0,0,1500,1500,1500,1500,1460,1540
1747549506.5561934,0.03,0.01,-0.33,0.001090830782496456,0.002181661564992912,0.0,-0.007947103361280438,0.10197617005899844,-3.884047940529761e-05,0,0,-2.856037,0,0,0,1500,1500,1500,1500,1447,1547
1747549506.6560895,0.05,0.0,-0.31,0.0,0.001090830782496456,0.002181661564992912,-0.007947103361280438,0.10197617005899844,-3.884047940529761e-05,0,0,-2.948916,0,0,0,1500,1500,1500,1500,1447,1548
1747549506.7562346,0.05,0.0,-0.31,0.0,0.001090830782496456,0.002181661564992912,-0.007947103361280438,0.10197617005899844,-3.884047940529761e-05,0,0,-2.670279,0,0,0,1500,1500,1500,1500,1449,1546
1747549506.83902,-0.35000000000000003,0.77,-0.63,0.002181661564992912,-0.009817477042468103,0.003272492347489368,-0.008185814168892172,0.10173161883283563,7.220434351438285e-05,0,0,-1.586687,0,0,0,1500,1500,1500,1500,1457,1506
1747549506.9389808,-0.35000000000000003,0.77,-0.63,0.002181661564992912,-0.009817477042468103,0.003272492347489368,-0.008185814168892172,0.10173161883283563,7.220434351438285e-05,0,0,0,0,0,0,1500,1500,1500,1500,1497,1500
1747549507.0389655,0.49,-0.17,-0.34,0.004363323129985824,0.001090830782496456,-0.007635815477475192,-0.00830836575907367,0.10173164879004282,6.596575644200999e-05,0,0,0,0,0,0,1500,1500,1500,1500,1500,1500
1747549507.1390212,0.25,-0.18,-0.39,-0.002181661564992912,0.001090830782496456,0.0,-0.008185814168892172,0.10173161883283563,7.220434351438285e-05,0,0,0,0,0,0,1500,1500,1500,1500,1500,1500
1747549507.239869,0.25,-0.18,-0.39,-0.002181661564992912,0.001090830782496456,0.0,-0.008185814168892172,0.10173161883283563,7.220434351438285e-05,0,0,0,0,0,0,1500,1500,1500,1500,1500,1500
1747549507.3227823,0.05,-0.03,-0.27,0.002181661564992912,-0.001090830782496456,-0.001090830782496456,-0.008185886409590561,0.1018541670447808,7.170345559423206e-05,0,0,0,0,0,0,1500,1500,1500,1500,1500,1500
1747549507.42271,0.05,-0.03,-0.27,0.002181661564992912,-0.001090830782496456,-0.001090830782496456,-0.008185886409590561,0.1018541670447808,7.170345559423206e-05,0,0,0,0,0,0,1500,1500,1500,1500,1500,1500
1747549507.522103,0.02,0.01,-0.37,0.001090830782496456,0.002181661564992912,0.003272492347489368,-0.008185886409590561,0.1018541670447808,7.170345559423206e-05,0,0,0,0,0,0,1500,1500,1500,1500,1500,1500
1747549507.6057408,0.02,0.02,-0.35000000000000003,0.001090830782496456,-0.004363323129985824,-0.001090830782496456,-0.008185886409590561,0.1018541670447808,7.170345559423206e-05,0,0,0,0,0,0,1500,1500,1500,1500,1500,1500
1747549507.7062597,0.02,0.02,-0.35000000000000003,0.001090830782496456,-0.004363323129985824,-0.001090830782496456,-0.008185886409590561,0.1018541670447808,7.170345559423206e-05,0,0,0,0,0,0,1500,1500,1500,1500,1500,1500
1747549507.8045573,0.03,-0.03,-0.33,0.001090830782496456,0.003272492347489368,0.0,-0.008185886409590561,0.1018541670447808,7.170345559423206e-05,0,0,-3.877709,0,0,0,1500,1500,1500,1500,1460,1540
1747549507.904521,0.02,0.02,-0.35000000000000003,0.001090830782496456,0.0,0.0,-0.008185886409590561,0.1018541670447808,7.170345559423206e-05,0,0,-5.085139,0,0,0,1500,1500,1500,1500,1434,1559
1747549508.00609,0.02,0.02,-0.35000000000000003,0.001090830782496456,0.0,0.0,-0.008185886409590561,0.1018541670447808,7.170345559423206e-05,0,0,-4.651703,0,0,0,1500,1500,1500,1500,1436,1556
1747549508.088997,-0.9,-1.16,0.16,-0.04145156973486533,-0.01090830782496456,0.0272707695624114,-0.00806973628701702,0.10209874380469686,-4.558907769717981e-05,0,0,-3.444273,0,0,0,1500,1500,1500,1500,1444,1550
1747549508.189104,-0.9,-1.16,0.16,-0.04145156973486533,-0.01090830782496456,0.0272707695624114,-0.00806973628701702,0.10209874380469686,-4.558907769717981e-05,0,0,0,0,0,0,1500,1500,1500,1500,1484,1510
1747549508.2896907,-0.28,-0.21,-0.26,0.002181661564992912,-0.002181661564992912,-0.001090830782496456,-0.008418440741750634,0.10173271227095708,0.00030482204539517287,0,0,0,0,0,0,1500,1500,1500,1500,1500,1500
1747549508.3889847,0.3,-0.04,-0.3,-0.003272492347489368,0.00545415391248228,-0.004363323129985824,-0.008412097557288733,0.10148813716608121,0.00042839235473323675,0,0,0,0,0,0,1500,1500,1500,1500,1500,1500
1747549508.488893,0.3,-0.04,-0.3,-0.003272492347489368,0.00545415391248228,-0.004363323129985824,-0.008412097557288733,0.10148813716608121,0.00042839235473323675,0,0,0,0,0,0,1500,1500,1500,1500,1500,1500
1747549508.5727885,-0.09,0.14,-0.42,0.004363323129985824,0.004363323129985824,-0.002181661564992912,-0.008412045339509698,0.1013655935276171,0.00042890376828932117,0,0,0,0,0,0,1500,1500,1500,1500,1500,1500
1747549508.6734004,-0.09,0.14,-0.42,0.004363323129985824,0.004363323129985824,-0.002181661564992912,-0.008412045339509698,0.1013655935276171,0.00042890376828932117,1,0,0,0,0,0,1500,1500,1500,1540,1500,1500
1747549508.7730362,0.07,0.0,-0.35000000000000003,-0.003272492347489368,-0.003272492347489368,0.002181661564992912,-0.008412045339509698,0.1013655935276171,0.00042890376828932117,1,0,0,0,0,0,1500,1500,1500,1542,1500,1500
1747549508.8720417,0.03,0.0,-0.29,0.004363323129985824,0.001090830782496456,0.0,-0.008412045339509698,0.1013655935276171,0.00042890376828932117,1,0,0,0,0,0,1500,1500,1500,1542,1500,1500
1747549508.973414,0.03,0.0,-0.29,0.004363323129985824,0.001090830782496456,0.0,-0.008412045339509698,0.1013655935276171,0.00042890376828932117,0,0,0,0,0,0,1500,1500,1500,1502,1500,1500
1747549509.0558987,0.16,0.12,-0.36,-0.001090830782496456,0.0,-0.002181661564992912,2.622143466385164,0.09964794071351514,0.2013454335466709,0,0,0,0,0,0,1500,1500,1500,1500,1500,1500
1747549509.156336,0.16,0.12,-0.36,-0.001090830782496456,0.0,-0.002181661564992912,2.622143466385164,0.09964794071351514,0.2013454335466709,0,0,0,0,0,0,1500,1500,1500,1500,1500,1500
