time,ax,ay,az,gx,gy,gz,roll,pitch,yaw,cmd_fx,cmd_fy,cmd_fz,cmd_tx,cmd_ty,cmd_tz,pwm_1,pwm_2,pwm_3,pwm_4,pwm_5,pwm_6
1747442626.7739153,0.0,0.0,0.0,0.0,0.0,0.0,0.0,0.0,0.0,0,0,0,0,0,0,1500,1500,1500,1500,1500,1500
1747442626.8619876,0.0,0.0,0.0,0.002181661564992912,0.002181661564992912,-0.001090830782496456,-0.12118126018655095,0.014622136456496716,-0.0008870120477202798,0,0,0,0,0,0,1500,1500,1500,1500,1500,1500
1747442626.9630265,0.0,0.0,0.0,0.002181661564992912,0.002181661564992912,-0.001090830782496456,-0.12118126018655095,0.014622136456496716,-0.0008870120477202798,0,0,0,0,0,0,1500,1500,1500,1500,1500,1500
1747442627.0461242,0.0,0.0,0.0,0.00545415391248228,-0.003272492347489368,0.0,-0.12129599174424596,0.014750494000280272,-0.0007734544889763361,0,0,0,0,0,0,1500,1500,1500,1500,1500,1500
1747442627.1411026,0.0,0.0,0.0,0.0,0.0,0.0,-0.12129620343911,0.014872346710525269,-0.0007808551321178422,0,0,0,0,0,0,1500,1500,1500,1500,1500,1500
1747442627.2462268,0.0,0.0,0.0,0.0,0.0,0.0,-0.12129620343911,0.014872346710525269,-0.0007808551321178422,0,0,0,0,0,0,1500,1500,1500,1500,1500,1500
1747442627.3457816,0.0,0.0,0.0,0.002181661564992912,0.001090830782496456,0.0,-0.12129620343911,0.014872346710525269,-0.0007808551321178422,0,0,0,0,0,0,1500,1500,1500,1500,1500,1500
1747442627.445773,0.0,0.0,0.0,0.002181661564992912,0.001090830782496456,0.0,-0.12129620343911,0.014872346710525269,-0.0007808551321178422,0,0,0,0,0,0,1500,1500,1500,1500,1500,1500
1747442627.5297534,0.0,0.0,0.0,0.0,-0.001090830782496456,0.001090830782496456,-0.12129620343911,0.014872346710525269,-0.0007808551321178422,0,0,0,0,0,0,1500,1500,1500,1500,1500,1500
1747442627.6284447,0.0,0.0,0.0,0.0,-0.003272492347489368,0.001090830782496456,-0.12129620343911,0.014872346710525269,-0.0007808551321178422,0,0,0,0,0,0,1500,1500,1500,1500,1500,1500
1747442627.7293062,0.0,0.0,0.0,0.0,-0.003272492347489368,0.001090830782496456,-0.12129620343911,0.014872346710525269,-0.0007808551321178422,0,0,0,0,0,0,1500,1500,1500,1500,1500,1500
1747442627.813036,0.0,0.0,0.0,-0.004363323129985824,-0.001090830782496456,0.0,-0.12129620343911,0.014872346710525269,-0.0007808551321178422,0,0,0,0,0,0,1500,1500,1500,1500,1500,1500
1747442627.9122074,0.0,0.0,0.0,-0.004363323129985824,-0.001090830782496456,0.0,-0.12129620343911,0.014872346710525269,-0.0007808551321178422,0,0,0,0,0,0,1500,1500,1500,1500,1500,1500
1747442628.0128129,0.0,0.0,0.0,0.001090830782496456,0.002181661564992912,0.002181661564992912,-0.12129620343911,0.014872346710525269,-0.0007808551321178422,0,0,0,0,0,0,1500,1500,1500,1500,1500,1500
1747442628.1130102,0.0,0.0,0.0,0.002181661564992912,-0.002181661564992912,0.002181661564992912,-0.12129620343911,0.014872346710525269,-0.0007808551321178422,0,0,0,0,0,0,1500,1500,1500,1500,1500,1500
1747442628.2131245,0.0,0.0,0.0,0.002181661564992912,-0.002181661564992912,0.002181661564992912,-0.12129620343911,0.014872346710525269,-0.0007808551321178422,0,0,0,0,0,0,1500,1500,1500,1500,1500,1500
1747442628.295949,0.0,0.0,0.0,-0.002181661564992912,0.001090830782496456,-0.001090830782496456,-0.12129620343911,0.014872346710525269,-0.0007808551321178422,0,0,0,0,0,0,1500,1500,1500,1500,1500,1500
1747442628.3958979,0.0,0.0,0.0,-0.001090830782496456,-0.00545415391248228,0.0,-0.12129620343911,0.014872346710525269,-0.0007808551321178422,0,0,0,0,0,0,1500,1500,1500,1500,1500,1500
1747442628.4961374,0.0,0.0,0.0,-0.001090830782496456,-0.00545415391248228,0.0,-0.12129620343911,0.014872346710525269,-0.0007808551321178422,0,0,0,0,0,0,1500,1500,1500,1500,1500,1500
1747442628.595868,0.0,0.0,0.0,0.00545415391248228,0.0,-0.001090830782496456,-0.12129620343911,0.014872346710525269,-0.0007808551321178422,0,0,0,0,0,0,1500,1500,1500,1500,1500,1500
1747442628.6963317,0.0,0.0,0.0,0.0,0.003272492347489368,0.002181661564992912,-0.12141895250674765,0.014872354161929927,-0.000781764203213495,0,0,0,0,0,0,1500,1500,1500,1500,1500,1500
1747442628.7788966,0.0,0.0,0.0,0.0,0.003272492347489368,0.002181661564992912,-0.12141895250674765,0.014872354161929927,-0.000781764203213495,0,0,0,0,0,0,1500,1500,1500,1500,1500,1500
1747442628.879736,0.0,0.0,0.0,0.009817477042468103,-0.003272492347489368,0.0,-0.12141895250674765,0.014872354161929927,-0.000781764203213495,0,0,0,0,0,0,1500,1500,1500,1500,1500,1500
1747442628.9796746,0.0,0.0,0.0,0.009817477042468103,-0.003272492347489368,0.0,-0.12141895250674765,0.014872354161929927,-0.000781764203213495,0,0,0,0,0,0,1500,1500,1500,1500,1500,1500
1747442629.0788233,0.0,0.0,0.0,-0.001090830782496456,-0.002181661564992912,-0.001090830782496456,-0.12141895250674765,0.014872354161929927,-0.000781764203213495,0,0,0,0,0,0,1500,1500,1500,1500,1500,1500
1747442629.1793692,0.0,0.0,0.0,0.003272492347489368,-0.004363323129985824,-0.002181661564992912,-0.12141895250674765,0.014872354161929927,-0.000781764203213495,0,0,0,0,0,0,1500,1500,1500,1500,1500,1500
1747442629.2627466,0.0,0.0,0.0,0.003272492347489368,-0.004363323129985824,-0.002181661564992912,-0.12141895250674765,0.014872354161929927,-0.000781764203213495,0,0,0,0,0,0,1500,1500,1500,1500,1500,1500
1747442629.3622286,0.0,0.0,0.0,-0.00545415391248228,-0.003272492347489368,-0.001090830782496456,-0.12141895250674765,0.014872354161929927,-0.000781764203213495,0,0,0,0,0,0,1500,1500,1500,1500,1500,1500
1747442629.4618034,0.0,0.0,0.0,-0.008726646259971648,-0.001090830782496456,0.003272492347489368,-0.12141895250674765,0.014872354161929927,-0.000781764203213495,0,0,0,0,0,0,1500,1500,1500,1500,1500,1500
1747442629.5460064,0.0,0.0,0.0,-0.008726646259971648,-0.001090830782496456,0.003272492347489368,-0.12141895250674765,0.014872354161929927,-0.000781764203213495,0,0,0,0,0,0,1500,1500,1500,1500,1500,1500
1747442629.645461,0.0,0.0,0.0,0.003272492347489368,0.0,-0.004363323129985824,-0.12141895250674765,0.014872354161929927,-0.000781764203213495,0,0,0,0,0,0,1500,1500,1500,1500,1500,1500
1747442629.7457926,0.0,0.0,0.0,0.003272492347489368,0.0,-0.004363323129985824,-0.12141895250674765,0.014872354161929927,-0.000781764203213495,0,0,0,0,0,0,1500,1500,1500,1500,1500,1500
1747442629.8310065,0.0,0.0,0.0,-0.001090830782496456,-0.00545415391248228,0.001090830782496456,-0.12141895250674765,0.014872354161929927,-0.000781764203213495,0,0,0,0,0,0,1500,1500,1500,1500,1500,1500
1747442629.929005,0.0,0.0,0.0,-0.006544984694978736,0.002181661564992912,0.003272492347489368,-0.12141895250674765,0.014872354161929927,-0.000781764203213495,0,0,0,0,0,0,1500,1500,1500,1500,1500,1500
1747442630.011896,0.0,0.0,0.0,-0.006544984694978736,0.002181661564992912,0.003272492347489368,-0.12141895250674765,0.014872354161929927,-0.000781764203213495,0,0,0,0,0,0,1500,1500,1500,1500,1500,1500
1747442630.1126997,0.0,0.0,0.0,-0.001090830782496456,-0.002181661564992912,-0.002181661564992912,-0.12141895250674765,0.014872354161929927,-0.000781764203213495,0,0,0,0,0,0,1500,1500,1500,1500,1500,1500
1747442630.2085404,0.0,0.0,0.0,-0.002181661564992912,0.003272492347489368,0.003272492347489368,-0.12141895250674765,0.014872354161929927,-0.000781764203213495,0,0,0,0,0,0,1500,1500,1500,1500,1500,1500
1747442630.2954357,0.0,0.0,0.0,-0.002181661564992912,0.003272492347489368,0.003272492347489368,-0.12141895250674765,0.014872354161929927,-0.000781764203213495,0,0,0,0,0,0,1500,1500,1500,1500,1500,1500
1747442630.3954632,0.0,0.0,0.0,-0.002181661564992912,0.0,0.003272492347489368,-0.12141895250674765,0.014872354161929927,-0.000781764203213495,0,0,0,0,0,0,1500,1500,1500,1500,1500,1500
1747442630.49621,0.0,0.0,0.0,-0.002181661564992912,0.0,0.003272492347489368,-0.12141895250674765,0.014872354161929927,-0.000781764203213495,0,0,0,0,0,0,1500,1500,1500,1500,1500,1500
1747442630.5959868,0.0,0.0,0.0,0.006544984694978736,0.001090830782496456,0.001090830782496456,-0.12141895250674765,0.014872354161929927,-0.000781764203213495,0,0,0,0,0,0,1500,1500,1500,1500,1500,1500
1747442630.696345,0.0,0.0,0.0,-0.002181661564992912,-0.002181661564992912,-0.001090830782496456,-0.12141895250674765,0.014872354161929927,-0.000781764203213495,0,0,0,0,0,0,1500,1500,1500,1500,1500,1500
1747442630.7786155,0.0,0.0,0.0,-0.002181661564992912,-0.002181661564992912,-0.001090830782496456,-0.12141895250674765,0.014872354161929927,-0.000781764203213495,0,0,0,0,0,0,1500,1500,1500,1500,1500,1500
1747442630.8795009,0.0,0.0,0.0,0.003272492347489368,-0.002181661564992912,0.0,-0.12141895250674765,0.014872354161929927,-0.000781764203213495,0,0,0,0,0,0,1500,1500,1500,1500,1500,1500
1747442630.9797108,0.0,0.0,0.0,0.003272492347489368,-0.002181661564992912,0.0,-0.12141895250674765,0.014872354161929927,-0.000781764203213495,0,0,0,0,0,0,1500,1500,1500,1500,1500,1500
1747442631.0623453,0.0,0.0,0.0,0.001090830782496456,0.001090830782496456,-0.002181661564992912,-0.12141895250674765,0.014872354161929927,-0.000781764203213495,0,0,0,0,0,0,1500,1500,1500,1500,1500,1500
1747442631.1628454,0.0,0.0,0.0,0.002181661564992912,-0.004363323129985824,-0.001090830782496456,-0.12141895250674765,0.014872354161929927,-0.000781764203213495,0,0,0,0,0,0,1500,1500,1500,1500,1500,1500
1747442631.2625828,0.0,0.0,0.0,0.002181661564992912,-0.004363323129985824,-0.001090830782496456,-0.12141895250674765,0.014872354161929927,-0.000781764203213495,0,0,0,0,0,0,1500,1500,1500,1500,1500,1500
1747442631.3632338,0.0,0.0,0.0,-0.002181661564992912,0.001090830782496456,-0.001090830782496456,-0.12141895250674765,0.014872354161929927,-0.000781764203213495,0,0,0,0,0,0,1500,1500,1500,1500,1500,1500
1747442631.4625494,0.0,0.0,0.0,0.001090830782496456,-0.002181661564992912,0.001090830782496456,-0.12141895250674765,0.014872354161929927,-0.000781764203213495,0,0,0,0,0,0,1500,1500,1500,1500,1500,1500
1747442631.5457807,0.0,0.0,0.0,0.001090830782496456,-0.002181661564992912,0.001090830782496456,-0.12141895250674765,0.014872354161929927,-0.000781764203213495,0,0,0,0,0,0,1500,1500,1500,1500,1500,1500
1747442631.6465385,0.0,0.0,0.0,0.0,0.001090830782496456,0.001090830782496456,-0.12141895250674765,0.014872354161929927,-0.000781764203213495,0,0,0,0,0,0,1500,1500,1500,1500,1500,1500
1747442631.7410765,0.0,0.0,0.0,0.004363323129985824,0.0,0.001090830782496456,-0.12141895250674765,0.014872354161929927,-0.000781764203213495,0,0,0,0,0,0,1500,1500,1500,1500,1500,1500
1747442631.8284044,0.0,0.0,0.0,0.004363323129985824,0.0,0.001090830782496456,-0.12141895250674765,0.014872354161929927,-0.000781764203213495,0,0,0,0,0,0,1500,1500,1500,1500,1500,1500
1747442631.9295342,0.0,0.0,0.0,0.001090830782496456,0.004363323129985824,0.0,-0.12141895250674765,0.014872354161929927,-0.000781764203213495,0,0,0,0,0,0,1500,1500,1500,1500,1500,1500
1747442632.02939,0.0,0.0,0.0,0.001090830782496456,0.004363323129985824,0.0,-0.12141895250674765,0.014872354161929927,-0.000781764203213495,0,0,0,0,0,0,1500,1500,1500,1500,1500,1500
1747442632.129586,0.0,0.0,0.0,-0.002181661564992912,0.0,0.002181661564992912,-0.12141895250674765,0.014872354161929927,-0.000781764203213495,0,0,0,0,0,0,1500,1500,1500,1500,1500,1500
1747442632.2290723,0.0,0.0,0.0,0.0,-0.001090830782496456,0.0,-0.12141895250674765,0.014872354161929927,-0.000781764203213495,0,0,0,0,0,0,1500,1500,1500,1500,1500,1500
1747442632.3119807,0.0,0.0,0.0,0.0,-0.001090830782496456,0.0,-0.12141895250674765,0.014872354161929927,-0.000781764203213495,0,0,0,0,0,0,1500,1500,1500,1500,1500,1500
1747442632.413111,0.0,0.0,0.0,0.00545415391248228,-0.001090830782496456,0.0,-0.12141895250674765,0.014872354161929927,-0.000781764203213495,0,0,0,0,0,0,1500,1500,1500,1500,1500,1500
1747442632.50889,0.0,0.0,0.0,-0.001090830782496456,-0.004363323129985824,-0.001090830782496456,-0.12141895250674765,0.014872354161929927,-0.000781764203213495,0,0,0,0,0,0,1500,1500,1500,1500,1500,1500
1747442632.5954587,0.0,0.0,0.0,-0.001090830782496456,-0.004363323129985824,-0.001090830782496456,-0.12141895250674765,0.014872354161929927,-0.000781764203213495,0,0,0,0,0,0,1500,1500,1500,1500,1500,1500
1747442632.694767,0.0,0.0,0.0,0.001090830782496456,0.002181661564992912,0.0,-0.12141895250674765,0.014872354161929927,-0.000781764203213495,0,0,0,0,0,0,1500,1500,1500,1500,1500,1500
1747442632.7790985,0.0,0.0,0.0,0.001090830782496456,0.002181661564992912,0.0,-0.12141895250674765,0.014872354161929927,-0.000781764203213495,0,0,0,0,0,0,1500,1500,1500,1500,1500,1500
1747442632.8787587,0.0,0.0,0.0,-0.001090830782496456,0.004363323129985824,-0.002181661564992912,-0.12141895250674765,0.014872354161929927,-0.000781764203213495,0,0,0,0,0,0,1500,1500,1500,1500,1500,1500
1747442632.9700236,0.0,0.0,0.0,-0.003272492347489368,0.001090830782496456,-0.001090830782496456,-0.12141895250674765,0.014872354161929927,-0.000781764203213495,0,0,0,0,0,0,1500,1500,1500,1500,1500,1500
1747442633.0621855,0.0,0.0,0.0,-0.003272492347489368,0.001090830782496456,-0.001090830782496456,-0.12141895250674765,0.014872354161929927,-0.000781764203213495,0,0,0,0,0,0,1500,1500,1500,1500,1500,1500
1747442633.1651433,0.0,0.0,0.0,0.007635815477475192,0.0,0.00545415391248228,-0.12141895250674765,0.014872354161929927,-0.000781764203213495,0,0,0,0,0,0,1500,1500,1500,1500,1500,1500
1747442633.26268,0.0,0.0,0.0,0.007635815477475192,0.0,0.00545415391248228,-0.12141895250674765,0.014872354161929927,-0.000781764203213495,0,0,0,0,0,0,1500,1500,1500,1500,1500,1500
1747442633.363826,0.0,0.0,0.0,-0.004363323129985824,-0.001090830782496456,0.0,-0.12154170336602661,0.014872361613334587,-0.0007826732743078557,0,0,0,0,0,0,1500,1500,1500,1500,1500,1500
1747442633.4628541,0.0,0.0,0.0,0.011999138607461015,0.002181661564992912,0.001090830782496456,-0.12154170336602661,0.014872361613334587,-0.0007826732743078557,0,0,0,0,0,0,1500,1500,1500,1500,1500,1500
1747442633.545367,0.0,0.0,0.0,0.011999138607461015,0.002181661564992912,0.001090830782496456,-0.12154170336602661,0.014872361613334587,-0.0007826732743078557,0,0,0,0,0,0,1500,1500,1500,1500,1500,1500
1747442633.6457713,0.0,0.0,0.0,-0.004363323129985824,0.0,0.0,-0.12154170336602661,0.014872361613334587,-0.0007826732743078557,0,0,0,0,0,0,1500,1500,1500,1500,1500,1500
1747442633.7351966,0.0,0.0,0.0,0.00545415391248228,0.0,0.001090830782496456,-0.12154170336602661,0.014872361613334587,-0.0007826732743078557,0,0,0,0,0,0,1500,1500,1500,1500,1500,1500
1747442633.8290918,0.0,0.0,0.0,0.00545415391248228,0.0,0.001090830782496456,-0.12154170336602661,0.014872361613334587,-0.0007826732743078557,0,0,0,0,0,0,1500,1500,1500,1500,1500,1500
1747442633.9295263,0.0,0.0,0.0,-0.008726646259971648,-0.004363323129985824,0.001090830782496456,-0.12154170336602661,0.014872361613334587,-0.0007826732743078557,0,0,0,0,0,0,1500,1500,1500,1500,1500,1500
1747442634.0287259,0.0,0.0,0.0,-0.008726646259971648,-0.004363323129985824,0.001090830782496456,-0.12154170336602661,0.014872361613334587,-0.0007826732743078557,0,0,0,0,0,0,1500,1500,1500,1500,1500,1500
1747442634.1289332,0.0,0.0,0.0,0.00545415391248228,0.00545415391248228,0.002181661564992912,-0.12154170336602661,0.014872361613334587,-0.0007826732743078557,0,0,0,0,0,0,1500,1500,1500,1500,1500,1500
1747442634.2285855,0.0,0.0,0.0,-0.001090830782496456,-0.004363323129985824,-0.002181661564992912,-0.12154170336602661,0.014872361613334587,-0.0007826732743078557,0,0,0,0,0,0,1500,1500,1500,1500,1500,1500
1747442634.312366,0.0,0.0,0.0,-0.001090830782496456,-0.004363323129985824,-0.002181661564992912,-0.12154170336602661,0.014872361613334587,-0.0007826732743078557,0,0,0,0,0,0,1500,1500,1500,1500,1500,1500
1747442634.4127052,0.0,0.0,0.0,0.0,-0.002181661564992912,0.0,-0.12154170336602661,0.014872361613334587,-0.0007826732743078557,0,0,0,0,0,0,1500,1500,1500,1500,1500,1500
1747442634.5056129,0.0,0.0,0.0,0.0,-0.001090830782496456,-0.001090830782496456,-0.12154170336602661,0.014872361613334587,-0.0007826732743078557,0,0,0,0,0,0,1500,1500,1500,1500,1500,1500
1747442634.5962152,0.0,0.0,0.0,0.0,-0.001090830782496456,-0.001090830782496456,-0.12154170336602661,0.014872361613334587,-0.0007826732743078557,0,0,0,0,0,0,1500,1500,1500,1500,1500,1500
1747442634.6963615,0.0,0.0,0.0,0.0,-0.001090830782496456,0.001090830782496456,-0.12154170336602661,0.014872361613334587,-0.0007826732743078557,0,0,0,0,0,0,1500,1500,1500,1500,1500,1500
1747442634.7786644,0.0,0.0,0.0,0.0,-0.001090830782496456,0.001090830782496456,-0.12154170336602661,0.014872361613334587,-0.0007826732743078557,0,0,0,0,0,0,1500,1500,1500,1500,1500,1500
1747442634.8798313,0.0,0.0,0.0,0.002181661564992912,0.006544984694978736,0.00545415391248228,-0.12154170336602661,0.014872361613334587,-0.0007826732743078557,0,0,0,0,0,0,1500,1500,1500,1500,1500,1500
1747442634.979621,0.0,0.0,0.0,-0.006544984694978736,-0.001090830782496456,0.001090830782496456,-0.12154170336602661,0.014872361613334587,-0.0007826732743078557,0,0,0,0,0,0,1500,1500,1500,1500,1500,1500
1747442635.0795946,0.0,0.0,0.0,-0.006544984694978736,-0.001090830782496456,0.001090830782496456,-0.12154170336602661,0.014872361613334587,-0.0007826732743078557,0,0,0,0,0,0,1500,1500,1500,1500,1500,1500
1747442635.1786044,0.0,0.0,0.0,0.025089107997418487,-0.001090830782496456,0.003272492347489368,-0.12215638689535191,0.01486494746610743,-0.0009090713933948052,0,0,0,0,0,0,1500,1500,1500,1500,1500,1500
1747442635.2675724,0.0,0.0,0.0,-0.018544123302439753,-0.00545415391248228,-0.003272492347489368,-0.12191086903559542,0.01486494746610743,-0.000907253251606701,0,0,0,0,0,0,1500,1500,1500,1500,1500,1500
1747442635.362748,0.0,0.0,0.0,-0.018544123302439753,-0.00545415391248228,-0.003272492347489368,-0.12191086903559542,0.01486494746610743,-0.000907253251606701,0,0,0,0,0,0,1500,1500,1500,1500,1500,1500
1747442635.4616594,0.0,0.0,0.0,0.014180800172453928,-0.001090830782496456,0.002181661564992912,-0.12191086903559542,0.01486494746610743,-0.000907253251606701,0,0,0,0,0,0,1500,1500,1500,1500,1500,1500
1747442635.5460503,0.0,0.0,0.0,0.014180800172453928,-0.001090830782496456,0.002181661564992912,-0.12191086903559542,0.01486494746610743,-0.000907253251606701,0,0,0,0,0,0,1500,1500,1500,1500,1500,1500
1747442635.6453195,0.0,0.0,0.0,-0.008726646259971648,0.004363323129985824,0.001090830782496456,-0.12178811280451886,0.01486494746610743,-0.0009063441807103988,0,0,0,0,0,0,1500,1500,1500,1500,1500,1500
1747442635.7461097,0.0,0.0,0.0,-0.003272492347489368,-0.001090830782496456,0.002181661564992912,-0.12191086903559542,0.01486494746610743,-0.000907253251606701,0,0,0,0,0,0,1500,1500,1500,1500,1500,1500
1747442635.8506577,0.0,0.0,0.0,-0.003272492347489368,-0.001090830782496456,0.002181661564992912,-0.12191086903559542,0.01486494746610743,-0.000907253251606701,0,0,0,0,0,0,1500,1500,1500,1500,1500,1500
1747442635.9467113,0.0,0.0,0.0,0.008726646259971648,-0.001090830782496456,-0.001090830782496456,-0.12191086903559542,0.01486494746610743,-0.000907253251606701,0,0,0,0,0,0,1500,1500,1500,1500,1500,1500
