time,ay,ax,az,gy,gx,gz,roll,pitch,yaw,cmd_fx,cmd_fy,cmd_fz,cmd_tx,cmd_ty,cmd_tz,pwm_1,pwm_2,pwm_3,pwm_4,pwm_5,pwm_6
1748734707.2839665,0.0,0.0,0.0,0.0,0.0,0.0,0.0,0.0,0.0,0.0,0.0,0.0,0.0,0.0,0.0,1500,1500,1500,1500,1500,1500
1748734707.3874311,0.02,-0.01,0.01,0.002181661564992912,-0.001090830782496456,0.001090830782496456,0.006343881804785098,0.7277899762980852,1.6122820930313027,0.0,0.0,0.0,0.0,0.0,0.0,1500,1500,1500,1500,1500,1500
1748734707.495342,0.02,-0.01,0.01,0.002181661564992912,-0.001090830782496456,0.001090830782496456,0.006343881804785098,0.7277899762980852,1.6122820930313027,0.0,0.0,0.0,0.0,0.0,0.0,1500,1500,1500,1500,1500,1500
1748734707.6189668,0.0,0.0,0.01,0.001090830782496456,-0.003272492347489368,0.001090830782496456,0.006343881804785098,0.7277899762980852,1.6122820930313027,0.0,0.0,0.0,0.0,0.0,0.0,1500,1500,1500,1500,1500,1500
1748734707.7278275,0.0,-0.03,0.03,0.001090830782496456,-0.004363323129985824,0.001090830782496456,0.006343881804785098,0.7277899762980852,1.6122820930313027,0.0,0.0,0.0,0.0,0.0,0.0,1500,1500,1500,1500,1500,1500
1748734707.8178713,0.0,-0.03,0.02,0.002181661564992912,-0.003272492347489368,0.0,0.006343881804785098,0.7277899762980852,1.6122820930313027,0.0,0.0,0.0,0.0,0.0,0.0,1500,1500,1500,1500,1500,1500
1748734707.9306734,0.0,-0.03,0.02,0.002181661564992912,-0.003272492347489368,0.0,0.006343881804785098,0.7277899762980852,1.6122820930313027,0.0,0.0,0.0,0.0,0.0,0.0,1500,1500,1500,1500,1500,1500
1748734708.0387886,0.01,0.0,0.01,-0.002181661564992912,-0.003272492347489368,0.001090830782496456,0.006343881804785098,0.7277899762980852,1.6122820930313027,0.0,0.0,0.0,0.0,0.0,0.0,1500,1500,1500,1500,1500,1500
1748734708.1385891,0.0,-0.01,0.04,0.002181661564992912,-0.004363323129985824,0.002181661564992912,0.006343881804785098,0.7277899762980852,1.6122820930313027,0.0,0.0,0.0,0.0,0.0,0.0,1500,1500,1500,1500,1500,1500
1748734708.2406068,0.0,-0.01,0.04,0.002181661564992912,-0.004363323129985824,0.002181661564992912,0.006343881804785098,0.7277899762980852,1.6122820930313027,0.0,0.0,0.0,0.0,0.0,0.0,1500,1500,1500,1500,1500,1500
1748734708.3497121,0.0,-0.02,0.04,-0.001090830782496456,-0.001090830782496456,0.001090830782496456,0.006343881804785098,0.7277899762980852,1.6122820930313027,0.0,0.0,0.0,0.0,0.0,0.0,1500,1500,1500,1500,1500,1500
1748734708.454075,0.0,-0.04,0.02,0.0,0.002181661564992912,-0.002181661564992912,0.006343881804785098,0.7277899762980852,1.6122820930313027,0.0,0.0,0.0,0.0,0.0,0.0,1500,1500,1500,1500,1500,1500
1748734708.5654457,0.0,-0.04,0.02,0.0,0.002181661564992912,-0.002181661564992912,0.006343881804785098,0.7277899762980852,1.6122820930313027,0.0,0.0,0.0,0.0,0.0,0.0,1500,1500,1500,1500,1500,1500
1748734708.672759,0.01,-0.01,0.02,-0.001090830782496456,-0.003272492347489368,-0.003272492347489368,0.006343881804785098,0.7277899762980852,1.6122820930313027,0.0,0.0,0.0,0.0,0.0,0.0,1500,1500,1500,1500,1500,1500
1748734708.7723038,0.03,-0.02,0.04,-0.002181661564992912,-0.002181661564992912,-0.001090830782496456,0.006343881804785098,0.7277899762980852,1.6122820930313027,0.0,0.0,0.0,0.0,0.0,0.0,1500,1500,1500,1500,1500,1500
1748734708.8885326,0.03,-0.02,0.04,-0.002181661564992912,-0.002181661564992912,-0.001090830782496456,0.006343881804785098,0.7277899762980852,1.6122820930313027,0.0,0.0,0.0,0.0,0.0,0.0,1500,1500,1500,1500,1500,1500
1748734708.9958954,0.01,-0.05,0.02,-0.004363323129985824,0.001090830782496456,0.0,0.006343881804785098,0.7277899762980852,1.6122820930313027,0.0,0.0,0.0,0.0,0.0,0.0,1500,1500,1500,1500,1500,1500
1748734709.0842137,0.0,-0.02,0.01,0.001090830782496456,-0.002181661564992912,-0.001090830782496456,0.006343881804785098,0.7277899762980852,1.6122820930313027,0.0,0.0,0.0,0.0,0.0,0.0,1500,1500,1500,1500,1500,1500
1748734709.1974206,0.0,-0.02,0.01,0.001090830782496456,-0.002181661564992912,-0.001090830782496456,0.006343881804785098,0.7277899762980852,1.6122820930313027,0.0,0.0,0.0,0.0,0.0,0.0,1500,1500,1500,1500,1500,1500
1748734709.3061397,0.0,0.0,0.01,0.003272492347489368,-0.00545415391248228,0.0,0.006343881804785098,0.7277899762980852,1.6122820930313027,0.0,0.0,0.0,0.0,0.0,0.0,1500,1500,1500,1500,1500,1500
1748734709.4042532,0.01,-0.01,0.04,0.0,0.002181661564992912,-0.001090830782496456,0.006343881804785098,0.7277899762980852,1.6122820930313027,0.0,0.0,0.0,0.0,0.0,0.0,1500,1500,1500,1500,1500,1500
1748734709.5066416,0.01,-0.01,0.04,0.0,0.002181661564992912,-0.001090830782496456,0.006343881804785098,0.7277899762980852,1.6122820930313027,0.0,0.0,0.0,0.0,0.0,0.0,1500,1500,1500,1500,1500,1500
1748734709.627908,0.0,-0.03,0.05,0.0,0.001090830782496456,0.0,0.006343881804785098,0.7277899762980852,1.6122820930313027,0.0,0.0,0.0,0.0,0.0,0.0,1500,1500,1500,1500,1500,1500
1748734709.7214854,0.02,0.0,0.01,0.001090830782496456,0.003272492347489368,0.001090830782496456,0.006343881804785098,0.7277899762980852,1.6122820930313027,0.0,0.0,0.0,0.0,0.0,0.0,1500,1500,1500,1500,1500,1500
1748734709.83129,0.02,0.0,0.01,0.001090830782496456,0.003272492347489368,0.001090830782496456,0.006343881804785098,0.7277899762980852,1.6122820930313027,0.0,0.0,0.0,0.0,0.0,0.0,1500,1500,1500,1500,1500,1500
1748734709.9389713,0.0,-0.02,0.04,-0.001090830782496456,0.0,0.0,0.006343881804785098,0.7277899762980852,1.6122820930313027,0.0,0.0,0.0,0.0,0.0,0.0,1500,1500,1500,1500,1500,1500
1748734710.03882,0.0,-0.03,0.03,-0.001090830782496456,0.002181661564992912,-0.001090830782496456,0.006343881804785098,0.7277899762980852,1.6122820930313027,0.0,0.0,0.0,0.0,0.0,0.0,1500,1500,1500,1500,1500,1500
1748734710.1420174,0.0,-0.03,0.03,-0.001090830782496456,0.002181661564992912,-0.001090830782496456,0.006343881804785098,0.7277899762980852,1.6122820930313027,0.0,0.0,0.0,0.0,0.0,0.0,1500,1500,1500,1500,1500,1500
1748734710.233927,0.01,-0.05,0.0,-0.002181661564992912,0.00545415391248228,0.001090830782496456,0.006343881804785098,0.7277899762980852,1.6122820930313027,0.0,0.0,0.0,0.0,0.0,0.0,1500,1500,1500,1500,1500,1500
1748734710.3433115,0.01,-0.05,0.0,-0.002181661564992912,0.00545415391248228,0.001090830782496456,0.006343881804785098,0.7277899762980852,1.6122820930313027,0.0,0.0,0.0,0.0,0.0,0.0,1500,1500,1500,1500,1500,1500
1748734710.4513764,0.01,-0.02,0.01,0.001090830782496456,0.0,-0.003272492347489368,0.006343881804785098,0.7277899762980852,1.6122820930313027,0.0,0.0,0.0,0.0,0.0,0.0,1500,1500,1500,1500,1500,1500
1748734710.5602694,0.02,0.0,0.01,0.003272492347489368,0.00545415391248228,0.0,0.006343881804785098,0.7277899762980852,1.6122820930313027,0.0,0.0,0.0,0.0,0.0,0.0,1500,1500,1500,1500,1500,1500
1748734710.6693952,0.02,0.0,0.01,0.003272492347489368,0.00545415391248228,0.0,0.006343881804785098,0.7277899762980852,1.6122820930313027,0.0,0.0,0.0,0.0,0.0,0.0,1500,1500,1500,1500,1500,1500
1748734710.7770374,0.0,-0.05,0.05,-0.001090830782496456,0.001090830782496456,-0.002181661564992912,0.006343881804785098,0.7277899762980852,1.6122820930313027,0.0,0.0,0.0,0.0,0.0,0.0,1500,1500,1500,1500,1500,1500
1748734710.8874385,0.01,0.0,0.04,0.001090830782496456,0.0,-0.001090830782496456,0.006343881804785098,0.7277899762980852,1.6122820930313027,0.0,0.0,0.0,0.0,0.0,0.0,1500,1500,1500,1500,1500,1500
1748734710.9866612,0.02,0.0,0.01,0.001090830782496456,0.0,0.0,0.006343881804785098,0.7277899762980852,1.6122820930313027,0.0,0.0,0.0,0.0,0.0,0.0,1500,1500,1500,1500,1500,1500
1748734711.1007059,0.02,0.0,0.01,0.001090830782496456,0.0,0.0,0.006343881804785098,0.7277899762980852,1.6122820930313027,0.0,0.0,0.0,0.0,0.0,0.0,1500,1500,1500,1500,1500,1500
1748734711.2255754,0.02,-0.01,0.0,-0.001090830782496456,-0.002181661564992912,0.001090830782496456,0.006343881804785098,0.7277899762980852,1.6122820930313027,0.0,0.0,0.0,0.0,0.0,0.0,1500,1500,1500,1500,1500,1500
1748734711.3333554,0.0,-0.04,0.05,0.002181661564992912,0.001090830782496456,-0.001090830782496456,0.006343881804785098,0.7277899762980852,1.6122820930313027,0.0,0.0,0.0,0.0,0.0,0.0,1500,1500,1500,1500,1500,1500
1748734711.4429033,0.0,-0.04,0.05,0.002181661564992912,0.001090830782496456,-0.001090830782496456,0.006343881804785098,0.7277899762980852,1.6122820930313027,0.0,0.0,0.0,0.0,0.0,0.0,1500,1500,1500,1500,1500,1500
1748734711.5506496,0.02,-0.03,0.02,0.003272492347489368,0.002181661564992912,-0.001090830782496456,0.006343881804785098,0.7277899762980852,1.6122820930313027,0.0,0.0,0.0,0.0,0.0,0.0,1500,1500,1500,1500,1500,1500
1748734711.6585217,0.0,0.0,0.02,-0.002181661564992912,0.002181661564992912,0.001090830782496456,0.006343881804785098,0.7277899762980852,1.6122820930313027,0.0,0.0,0.0,0.0,0.0,0.0,1500,1500,1500,1500,1500,1500
1748734711.7664902,0.0,0.0,0.02,-0.002181661564992912,0.002181661564992912,0.001090830782496456,0.006343881804785098,0.7277899762980852,1.6122820930313027,0.0,0.0,0.0,0.0,0.0,0.0,1500,1500,1500,1500,1500,1500
1748734711.8748574,0.0,-0.03,0.06,-0.001090830782496456,-0.001090830782496456,0.002181661564992912,0.006343881804785098,0.7277899762980852,1.6122820930313027,0.0,0.0,0.0,0.0,0.0,0.0,1500,1500,1500,1500,1500,1500
1748734711.9841232,0.0,-0.03,0.07,0.001090830782496456,0.002181661564992912,0.001090830782496456,0.006343881804785098,0.7277899762980852,1.6122820930313027,0.0,0.0,0.0,0.0,0.0,0.0,1500,1500,1500,1500,1500,1500
1748734712.0915236,0.0,-0.03,0.07,0.001090830782496456,0.002181661564992912,0.001090830782496456,0.006343881804785098,0.7277899762980852,1.6122820930313027,0.0,0.0,0.0,0.0,0.0,0.0,1500,1500,1500,1500,1500,1500
1748734712.1978753,0.0,-0.03,0.03,0.003272492347489368,0.004363323129985824,0.001090830782496456,0.006343881804785098,0.7277899762980852,1.6122820930313027,0.0,0.0,0.0,0.0,0.0,0.0,1500,1500,1500,1500,1500,1500
1748734712.3073301,0.0,0.0,0.05,0.0,0.001090830782496456,0.001090830782496456,0.006343881804785098,0.7277899762980852,1.6122820930313027,0.0,0.0,0.0,0.0,0.0,0.0,1500,1500,1500,1500,1500,1500
1748734712.412694,0.0,0.0,0.05,0.0,0.001090830782496456,0.001090830782496456,0.006343881804785098,0.7277899762980852,1.6122820930313027,0.0,0.0,0.0,0.0,0.0,0.0,1500,1500,1500,1500,1500,1500
1748734712.522613,0.0,0.0,0.04,0.002181661564992912,0.001090830782496456,-0.001090830782496456,0.006343881804785098,0.7277899762980852,1.6122820930313027,0.0,0.0,0.0,0.0,0.0,0.0,1500,1500,1500,1500,1500,1500
1748734712.6312554,0.0,-0.04,0.03,-0.002181661564992912,0.001090830782496456,0.002181661564992912,0.006343881804785098,0.7277899762980852,1.6122820930313027,0.0,0.0,0.0,0.0,0.0,0.0,1500,1500,1500,1500,1500,1500
1748734712.72895,0.01,0.0,0.02,-0.002181661564992912,0.0,0.001090830782496456,0.006343881804785098,0.7277899762980852,1.6122820930313027,0.0,0.0,0.0,0.0,0.0,0.0,1500,1500,1500,1500,1500,1500
1748734712.832766,0.01,0.0,0.02,-0.002181661564992912,0.0,0.001090830782496456,0.006343881804785098,0.7277899762980852,1.6122820930313027,0.0,0.0,0.0,0.0,0.0,0.0,1500,1500,1500,1500,1500,1500
1748734712.9579172,0.0,0.0,0.03,-0.003272492347489368,0.002181661564992912,0.002181661564992912,0.006343881804785098,0.7277899762980852,1.6122820930313027,0.0,0.0,0.0,0.0,0.0,0.0,1500,1500,1500,1500,1500,1500
1748734713.0817256,0.0,0.0,0.02,0.002181661564992912,0.004363323129985824,-0.001090830782496456,0.006343881804785098,0.7277899762980852,1.6122820930313027,0.0,0.0,0.0,0.0,0.0,0.0,1500,1500,1500,1500,1500,1500
1748734713.1911514,0.0,0.0,0.02,0.002181661564992912,0.004363323129985824,-0.001090830782496456,0.006343881804785098,0.7277899762980852,1.6122820930313027,0.0,0.0,0.0,0.0,0.0,0.0,1500,1500,1500,1500,1500,1500
1748734713.3124218,0.0,-0.02,0.08,-0.002181661564992912,-0.003272492347489368,-0.001090830782496456,0.006343881804785098,0.7277899762980852,1.6122820930313027,0.0,0.0,0.0,0.0,0.0,0.0,1500,1500,1500,1500,1500,1500
1748734713.40665,0.0,-0.02,0.03,0.003272492347489368,-0.001090830782496456,0.0,0.006343881804785098,0.7277899762980852,1.6122820930313027,0.0,0.0,0.0,0.0,0.0,0.0,1500,1500,1500,1500,1500,1500
1748734713.51609,0.0,-0.02,0.03,0.003272492347489368,-0.001090830782496456,0.0,0.006343881804785098,0.7277899762980852,1.6122820930313027,0.0,0.0,0.0,0.0,0.0,0.0,1500,1500,1500,1500,1500,1500
1748734713.6219485,0.03,0.0,0.02,0.0,0.002181661564992912,-0.001090830782496456,0.006343881804785098,0.7277899762980852,1.6122820930313027,0.0,0.0,0.0,0.0,0.0,0.0,1500,1500,1500,1500,1500,1500
1748734713.7287078,0.0,-0.03,0.04,-0.001090830782496456,0.004363323129985824,0.001090830782496456,0.006343881804785098,0.7277899762980852,1.6122820930313027,0.0,0.0,0.0,0.0,0.0,0.0,1500,1500,1500,1500,1500,1500
1748734713.8375387,0.0,-0.03,0.04,-0.001090830782496456,0.004363323129985824,0.001090830782496456,0.006343881804785098,0.7277899762980852,1.6122820930313027,0.0,0.0,0.0,0.0,0.0,0.0,1500,1500,1500,1500,1500,1500
1748734713.9600146,0.0,-0.05,0.01,0.003272492347489368,-0.002181661564992912,0.002181661564992912,0.006343881804785098,0.7277899762980852,1.6122820930313027,0.0,0.0,0.0,0.0,0.0,0.0,1500,1500,1500,1500,1500,1500
1748734714.0669577,0.0,-0.01,0.04,0.003272492347489368,0.002181661564992912,0.0,0.006343881804785098,0.7277899762980852,1.6122820930313027,0.0,0.0,0.0,0.0,0.0,0.0,1500,1500,1500,1500,1500,1500
1748734714.1925356,0.0,0.01,0.01,0.0,0.0,0.0,0.006343881804785098,0.7277899762980852,1.6122820930313027,0.0,0.0,0.0,0.0,0.0,0.0,1500,1500,1500,1500,1500,1500
1748734714.3017354,0.0,0.01,0.01,0.0,0.0,0.0,0.006343881804785098,0.7277899762980852,1.6122820930313027,0.0,0.0,0.0,0.0,0.0,0.0,1500,1500,1500,1500,1500,1500
1748734714.4101243,0.0,0.0,0.01,-0.001090830782496456,0.004363323129985824,-0.001090830782496456,0.006343881804785098,0.7277899762980852,1.6122820930313027,0.0,0.0,0.0,0.0,0.0,0.0,1500,1500,1500,1500,1500,1500
1748734714.5006866,0.0,-0.04,0.06,0.002181661564992912,-0.001090830782496456,0.001090830782496456,0.006343881804785098,0.7277899762980852,1.6122820930313027,0.0,0.0,0.0,0.0,0.0,0.0,1500,1500,1500,1500,1500,1500
1748734714.6078813,0.0,-0.04,0.06,0.002181661564992912,-0.001090830782496456,0.001090830782496456,0.006343881804785098,0.7277899762980852,1.6122820930313027,0.0,0.0,0.0,0.0,0.0,0.0,1500,1500,1500,1500,1500,1500
1748734714.7151864,0.01,0.0,0.02,0.001090830782496456,-0.003272492347489368,0.001090830782496456,0.006343881804785098,0.7277899762980852,1.6122820930313027,0.0,0.0,0.0,0.0,0.0,0.0,1500,1500,1500,1500,1500,1500
1748734714.8244984,0.0,0.01,0.01,-0.001090830782496456,-0.001090830782496456,0.002181661564992912,0.006343881804785098,0.7277899762980852,1.6122820930313027,0.0,0.0,0.0,0.0,0.0,0.0,1500,1500,1500,1500,1500,1500
1748734714.9327703,0.0,0.01,0.01,-0.001090830782496456,-0.001090830782496456,0.002181661564992912,0.006343881804785098,0.7277899762980852,1.6122820930313027,0.0,0.0,0.0,0.0,0.0,0.0,1500,1500,1500,1500,1500,1500
1748734715.042545,0.02,-0.02,0.02,-0.001090830782496456,-0.002181661564992912,0.0,0.006343881804785098,0.7277899762980852,1.6122820930313027,0.0,0.0,0.0,0.0,0.0,0.0,1500,1500,1500,1500,1500,1500
1748734715.1492095,0.01,-0.04,0.05,-0.001090830782496456,0.001090830782496456,0.001090830782496456,0.006343881804785098,0.7277899762980852,1.6122820930313027,0.0,0.0,0.0,0.0,0.0,0.0,1500,1500,1500,1500,1500,1500
1748734715.2581685,0.01,-0.04,0.05,-0.001090830782496456,0.001090830782496456,0.001090830782496456,0.006343881804785098,0.7277899762980852,1.6122820930313027,0.0,0.0,0.0,0.0,0.0,0.0,1500,1500,1500,1500,1500,1500
1748734715.3654022,0.0,-0.02,0.05,0.0,0.001090830782496456,0.0,0.006343881804785098,0.7277899762980852,1.6122820930313027,0.0,0.0,0.0,0.0,0.0,0.0,1500,1500,1500,1500,1500,1500
1748734715.4743092,0.01,-0.01,0.01,0.003272492347489368,-0.001090830782496456,-0.001090830782496456,0.006343881804785098,0.7277899762980852,1.6122820930313027,0.0,0.0,0.0,0.0,0.0,0.0,1500,1500,1500,1500,1500,1500
1748734715.5819566,0.01,-0.01,0.01,0.003272492347489368,-0.001090830782496456,-0.001090830782496456,0.006343881804785098,0.7277899762980852,1.6122820930313027,0.0,0.0,0.0,0.0,0.0,0.0,1500,1500,1500,1500,1500,1500
1748734715.6905622,0.01,-0.03,0.07,-0.001090830782496456,-0.003272492347489368,-0.002181661564992912,0.006343881804785098,0.7277899762980852,1.6122820930313027,0.0,0.0,0.0,0.0,0.0,0.0,1500,1500,1500,1500,1500,1500
1748734715.7992392,0.0,-0.05,0.05,0.0,0.0,-0.001090830782496456,0.006343881804785098,0.7277899762980852,1.6122820930313027,0.0,0.0,0.0,0.0,0.0,0.0,1500,1500,1500,1500,1500,1500
1748734715.9054444,0.01,-0.03,0.03,0.004363323129985824,-0.004363323129985824,-0.002181661564992912,0.006343881804785098,0.7277899762980852,1.6122820930313027,0.0,0.0,0.0,0.0,0.0,0.0,1500,1500,1500,1500,1500,1500
1748734716.0164695,0.01,-0.03,0.03,0.004363323129985824,-0.004363323129985824,-0.002181661564992912,0.006343881804785098,0.7277899762980852,1.6122820930313027,0.0,0.0,0.0,0.0,0.0,0.0,1500,1500,1500,1500,1500,1500
1748734716.1240108,0.0,0.01,0.01,-0.001090830782496456,0.003272492347489368,-0.001090830782496456,0.006343881804785098,0.7277899762980852,1.6122820930313027,0.0,0.0,0.0,0.0,0.0,0.0,1500,1500,1500,1500,1500,1500
1748734716.223067,0.02,0.01,0.01,0.0,-0.001090830782496456,0.001090830782496456,0.006343881804785098,0.7277899762980852,1.6122820930313027,0.0,0.0,0.0,0.0,0.0,0.0,1500,1500,1500,1500,1500,1500
1748734716.3264914,0.02,0.01,0.01,0.0,-0.001090830782496456,0.001090830782496456,0.006343881804785098,0.7277899762980852,1.6122820930313027,0.0,0.0,0.0,0.0,0.0,0.0,1500,1500,1500,1500,1500,1500
1748734716.432428,0.0,-0.03,0.05,0.003272492347489368,0.001090830782496456,0.0,0.006343881804785098,0.7277899762980852,1.6122820930313027,0.0,0.0,0.0,0.0,0.0,0.0,1500,1500,1500,1500,1500,1500
1748734716.5344386,0.01,-0.02,0.05,0.001090830782496456,-0.00545415391248228,-0.002181661564992912,0.006343881804785098,0.7277899762980852,1.6122820930313027,0.0,0.0,0.0,0.0,0.0,0.0,1500,1500,1500,1500,1500,1500
1748734716.6498358,0.01,-0.02,0.05,0.001090830782496456,-0.00545415391248228,-0.002181661564992912,0.006343881804785098,0.7277899762980852,1.6122820930313027,0.0,0.0,0.0,0.0,0.0,0.0,1500,1500,1500,1500,1500,1500
1748734716.7739203,0.02,-0.02,0.03,0.002181661564992912,0.001090830782496456,0.001090830782496456,0.006343881804785098,0.7277899762980852,1.6122820930313027,0.0,0.0,0.0,0.0,0.0,0.0,1500,1500,1500,1500,1500,1500
1748734716.8831816,0.01,0.01,0.02,0.0,0.004363323129985824,-0.001090830782496456,0.006343881804785098,0.7277899762980852,1.6122820930313027,0.0,0.0,0.0,0.0,0.0,0.0,1500,1500,1500,1500,1500,1500
1748734716.991414,0.01,0.01,0.02,0.0,0.004363323129985824,-0.001090830782496456,0.006343881804785098,0.7277899762980852,1.6122820930313027,0.0,0.0,0.0,0.0,0.0,0.0,1500,1500,1500,1500,1500,1500
1748734717.100786,0.01,-0.03,0.02,0.002181661564992912,-0.001090830782496456,0.0,0.006343881804785098,0.7277899762980852,1.6122820930313027,0.0,0.0,0.0,0.0,0.0,0.0,1500,1500,1500,1500,1500,1500
1748734717.224473,0.02,-0.06,0.04,-0.003272492347489368,-0.00545415391248228,0.002181661564992912,0.006343881804785098,0.7277899762980852,1.6122820930313027,0.0,0.0,0.0,0.0,0.0,0.0,1500,1500,1500,1500,1500,1500
1748734717.3304052,0.02,-0.06,0.04,-0.003272492347489368,-0.00545415391248228,0.002181661564992912,0.006343881804785098,0.7277899762980852,1.6122820930313027,0.0,0.0,0.0,0.0,0.0,0.0,1500,1500,1500,1500,1500,1500
1748734717.4400022,0.0,-0.02,0.01,0.003272492347489368,-0.002181661564992912,-0.001090830782496456,0.006343881804785098,0.7277899762980852,1.6122820930313027,0.0,0.0,0.0,0.0,0.0,0.0,1500,1500,1500,1500,1500,1500
1748734717.5325243,-0.01,0.0,0.04,-0.001090830782496456,-0.003272492347489368,0.003272492347489368,0.006343881804785098,0.7277899762980852,1.6122820930313027,0.0,0.0,0.0,0.0,0.0,0.0,1500,1500,1500,1500,1500,1500
1748734717.642052,-0.01,0.0,0.04,-0.001090830782496456,-0.003272492347489368,0.003272492347489368,0.006343881804785098,0.7277899762980852,1.6122820930313027,0.0,0.0,0.0,0.0,0.0,0.0,1500,1500,1500,1500,1500,1500
1748734717.7342892,0.01,0.0,0.0,0.0,0.0,0.0,0.006343881804785098,0.7277899762980852,1.6122820930313027,0.0,0.0,0.0,0.0,0.0,0.0,1500,1500,1500,1500,1500,1500
1748734717.8455033,0.0,-0.03,0.02,0.0,-0.007635815477475192,-0.002181661564992912,0.006343881804785098,0.7277899762980852,1.6122820930313027,0.0,0.0,0.0,0.0,0.0,0.0,1500,1500,1500,1500,1500,1500
1748734717.9559388,0.0,-0.03,0.02,0.0,-0.007635815477475192,-0.002181661564992912,0.006343881804785098,0.7277899762980852,1.6122820930313027,0.0,0.0,0.0,0.0,0.0,0.0,1500,1500,1500,1500,1500,1500
1748734718.0629559,0.0,-0.03,0.01,0.001090830782496456,-0.001090830782496456,0.001090830782496456,0.006343881804785098,0.7277899762980852,1.6122820930313027,0.0,0.0,0.0,0.0,0.0,0.0,1500,1500,1500,1500,1500,1500
1748734718.1715076,0.0,0.0,0.03,0.004363323129985824,-0.004363323129985824,0.001090830782496456,0.006343881804785098,0.7277899762980852,1.6122820930313027,0.0,0.0,0.0,0.0,0.0,0.0,1500,1500,1500,1500,1500,1500
1748734718.2791204,0.0,0.0,0.03,0.004363323129985824,-0.004363323129985824,0.001090830782496456,0.006343881804785098,0.7277899762980852,1.6122820930313027,0.0,0.0,0.0,0.0,0.0,0.0,1500,1500,1500,1500,1500,1500
1748734718.3868496,0.0,-0.02,0.03,-0.002181661564992912,0.0,0.0,0.006343881804785098,0.7277899762980852,1.6122820930313027,0.0,0.0,0.0,0.0,0.0,0.0,1500,1500,1500,1500,1500,1500
1748734718.4928422,0.02,-0.04,0.02,0.001090830782496456,-0.004363323129985824,0.0,0.006343881804785098,0.7277899762980852,1.6122820930313027,0.0,0.0,0.0,0.0,0.0,0.0,1500,1500,1500,1500,1500,1500
1748734718.6016746,0.02,-0.04,0.02,0.001090830782496456,-0.004363323129985824,0.0,0.006343881804785098,0.7277899762980852,1.6122820930313027,0.0,0.0,0.0,0.0,0.0,0.0,1500,1500,1500,1500,1500,1500
1748734718.7109437,0.0,-0.03,0.04,0.0,-0.002181661564992912,0.0,0.006343881804785098,0.7277899762980852,1.6122820930313027,0.0,0.0,0.0,0.0,0.0,0.0,1500,1500,1500,1500,1500,1500
1748734718.8195767,0.0,-0.01,0.04,0.001090830782496456,-0.001090830782496456,0.0,0.006343881804785098,0.7277899762980852,1.6122820930313027,0.0,0.0,0.0,0.0,0.0,0.0,1500,1500,1500,1500,1500,1500
1748734718.9267523,0.01,-0.01,0.03,0.001090830782496456,0.0,-0.002181661564992912,0.006343881804785098,0.7277899762980852,1.6122820930313027,0.0,0.0,0.0,0.0,0.0,0.0,1500,1500,1500,1500,1500,1500
1748734719.0374813,0.01,-0.01,0.03,0.001090830782496456,0.0,-0.002181661564992912,0.006343881804785098,0.7277899762980852,1.6122820930313027,0.0,0.0,0.0,0.0,0.0,0.0,1500,1500,1500,1500,1500,1500
1748734719.1595235,,,,0.002181661564992912,0.00545415391248228,0.0,0.006343881804785098,0.7277899762980852,1.6122820930313027,0.0,0.0,0.0,0.0,0.0,0.0,1500,1500,1500,1500,1500,1500
1748734719.26846,0.03,0.0,0.02,-0.002181661564992912,-0.003272492347489368,-0.002181661564992912,0.006343881804785098,0.7277899762980852,1.6122820930313027,0.0,0.0,0.0,0.0,0.0,0.0,1500,1500,1500,1500,1500,1500
1748734719.3758302,0.03,0.0,0.02,-0.002181661564992912,-0.003272492347489368,-0.002181661564992912,0.006343881804785098,0.7277899762980852,1.6122820930313027,0.0,0.0,0.0,0.0,0.0,0.0,1500,1500,1500,1500,1500,1500
1748734719.4824543,0.0,0.0,0.0,-0.001090830782496456,0.009817477042468103,0.002181661564992912,0.006343881804785098,0.7277899762980852,1.6122820930313027,0.0,0.0,0.0,0.0,0.0,0.0,1500,1500,1500,1500,1500,1500
1748734719.5762005,0.01,-0.03,0.04,-0.002181661564992912,0.002181661564992912,0.002181661564992912,0.006343881804785098,0.7277899762980852,1.6122820930313027,0.0,0.0,0.0,0.0,0.0,0.0,1500,1500,1500,1500,1500,1500
1748734719.6849937,0.01,-0.03,0.04,-0.002181661564992912,0.002181661564992912,0.002181661564992912,0.006343881804785098,0.7277899762980852,1.6122820930313027,0.0,0.0,0.0,0.0,0.0,0.0,1500,1500,1500,1500,1500,1500
1748734719.7916565,0.01,-0.05,0.04,0.001090830782496456,0.0,0.0,0.006343881804785098,0.7277899762980852,1.6122820930313027,0.0,0.0,0.0,0.0,0.0,0.0,1500,1500,1500,1500,1500,1500
1748734719.900643,0.02,-0.03,0.03,0.0,0.0,-0.002181661564992912,0.006343881804785098,0.7277899762980852,1.6122820930313027,0.0,0.0,0.0,0.0,0.0,0.0,1500,1500,1500,1500,1500,1500
1748734720.0079918,0.02,-0.03,0.03,0.0,0.0,-0.002181661564992912,0.006343881804785098,0.7277899762980852,1.6122820930313027,0.0,0.0,0.0,0.0,0.0,0.0,1500,1500,1500,1500,1500,1500
1748734720.1148016,0.0,0.02,0.04,0.0,0.003272492347489368,0.0,0.006343881804785098,0.7277899762980852,1.6122820930313027,0.0,0.0,0.0,0.0,0.0,0.0,1500,1500,1500,1500,1500,1500
1748734720.2260282,0.0,-0.04,0.06,0.001090830782496456,-0.002181661564992912,0.0,0.006343881804785098,0.7277899762980852,1.6122820930313027,0.0,0.0,0.0,0.0,0.0,0.0,1500,1500,1500,1500,1500,1500
1748734720.3317995,0.0,-0.04,0.06,0.001090830782496456,-0.002181661564992912,0.0,0.006343881804785098,0.7277899762980852,1.6122820930313027,0.0,0.0,0.0,0.0,0.0,0.0,1500,1500,1500,1500,1500,1500
1748734720.441134,0.01,-0.03,0.05,-0.002181661564992912,0.002181661564992912,0.0,0.006343881804785098,0.7277899762980852,1.6122820930313027,0.0,0.0,0.0,0.0,0.0,0.0,1500,1500,1500,1500,1500,1500
1748734720.5642762,0.02,-0.03,0.0,-0.004363323129985824,0.003272492347489368,0.002181661564992912,0.006343881804785098,0.7277899762980852,1.6122820930313027,0.0,0.0,0.0,0.0,0.0,0.0,1500,1500,1500,1500,1500,1500
1748734720.6720023,0.02,0.0,0.03,-0.002181661564992912,-0.003272492347489368,0.0,0.006343881804785098,0.7277899762980852,1.6122820930313027,0.0,0.0,0.0,0.0,0.0,0.0,1500,1500,1500,1500,1500,1500
1748734720.7788367,0.02,0.0,0.03,-0.002181661564992912,-0.003272492347489368,0.0,0.006343881804785098,0.7277899762980852,1.6122820930313027,0.0,0.0,0.0,0.0,0.0,0.0,1500,1500,1500,1500,1500,1500
1748734720.890658,0.0,-0.03,0.05,0.002181661564992912,0.0,0.0,0.006343881804785098,0.7277899762980852,1.6122820930313027,0.0,0.0,0.0,0.0,0.0,0.0,1500,1500,1500,1500,1500,1500
1748734720.9804757,0.01,-0.02,0.03,0.001090830782496456,0.007635815477475192,-0.002181661564992912,0.006343881804785098,0.7277899762980852,1.6122820930313027,0.0,0.0,0.0,0.0,0.0,0.0,1500,1500,1500,1500,1500,1500
1748734721.0890381,0.01,-0.02,0.03,0.001090830782496456,0.007635815477475192,-0.002181661564992912,0.006343881804785098,0.7277899762980852,1.6122820930313027,0.0,0.0,0.0,0.0,0.0,0.0,1500,1500,1500,1500,1500,1500
1748734721.1971624,0.01,0.01,0.06,0.001090830782496456,0.001090830782496456,0.002181661564992912,0.006343881804785098,0.7277899762980852,1.6122820930313027,0.0,0.0,0.0,0.0,0.0,0.0,1500,1500,1500,1500,1500,1500
1748734721.2958457,0.01,0.01,0.0,0.004363323129985824,0.003272492347489368,0.0,0.006343881804785098,0.7277899762980852,1.6122820930313027,0.0,0.0,0.0,0.0,0.0,0.0,1500,1500,1500,1500,1500,1500
1748734721.4004226,0.01,0.01,0.0,0.004363323129985824,0.003272492347489368,0.0,0.006343881804785098,0.7277899762980852,1.6122820930313027,0.0,0.0,0.0,0.0,0.0,0.0,1500,1500,1500,1500,1500,1500
1748734721.5086005,0.01,-0.03,0.03,0.001090830782496456,-0.001090830782496456,0.0,0.006343881804785098,0.7277899762980852,1.6122820930313027,0.0,0.0,0.0,0.0,0.0,0.0,1500,1500,1500,1500,1500,1500
1748734721.6143515,0.0,-0.04,0.05,0.001090830782496456,0.001090830782496456,-0.001090830782496456,0.006343881804785098,0.7277899762980852,1.6122820930313027,0.0,0.0,0.0,0.0,0.0,0.0,1500,1500,1500,1500,1500,1500
1748734721.7252707,0.0,-0.04,0.05,0.001090830782496456,0.001090830782496456,-0.001090830782496456,0.006343881804785098,0.7277899762980852,1.6122820930313027,0.0,0.0,0.0,0.0,0.0,0.0,1500,1500,1500,1500,1500,1500
1748734721.832874,0.02,-0.03,0.01,0.003272492347489368,0.003272492347489368,0.0,0.006343881804785098,0.7277899762980852,1.6122820930313027,0.0,0.0,0.0,0.0,0.0,0.0,1500,1500,1500,1500,1500,1500
1748734721.930523,0.01,0.0,0.04,0.001090830782496456,0.003272492347489368,0.0,0.006343881804785098,0.7277899762980852,1.6122820930313027,0.0,0.0,0.0,0.0,0.0,0.0,1500,1500,1500,1500,1500,1500
1748734722.0342317,0.01,0.0,0.04,0.001090830782496456,0.003272492347489368,0.0,0.006343881804785098,0.7277899762980852,1.6122820930313027,0.0,0.0,0.0,0.0,0.0,0.0,1500,1500,1500,1500,1500,1500
1748734722.1265993,0.02,-0.03,0.07,-0.001090830782496456,-0.006544984694978736,0.002181661564992912,0.006343881804785098,0.7277899762980852,1.6122820930313027,0.0,0.0,0.0,0.0,0.0,0.0,1500,1500,1500,1500,1500,1500
1748734722.2377875,0.02,-0.03,0.07,-0.001090830782496456,-0.006544984694978736,0.002181661564992912,0.006343881804785098,0.7277899762980852,1.6122820930313027,0.0,0.0,0.0,0.0,0.0,0.0,1500,1500,1500,1500,1500,1500
1748734722.3449554,0.01,-0.05,0.01,-0.002181661564992912,-0.003272492347489368,0.001090830782496456,0.006343881804785098,0.7277899762980852,1.6122820930313027,0.0,0.0,0.0,0.0,0.0,0.0,1500,1500,1500,1500,1500,1500
1748734722.454721,0.01,0.0,0.0,0.0,0.004363323129985824,0.001090830782496456,0.006343881804785098,0.7277899762980852,1.6122820930313027,0.0,0.0,0.0,0.0,0.0,0.0,1500,1500,1500,1500,1500,1500
1748734722.5626404,0.01,0.0,0.0,0.0,0.004363323129985824,0.001090830782496456,0.006343881804785098,0.7277899762980852,1.6122820930313027,0.0,0.0,0.0,0.0,0.0,0.0,1500,1500,1500,1500,1500,1500
1748734722.672154,0.02,0.0,0.01,-0.004363323129985824,0.001090830782496456,-0.002181661564992912,0.006343881804785098,0.7277899762980852,1.6122820930313027,0.0,0.0,0.0,0.0,0.0,0.0,1500,1500,1500,1500,1500,1500
1748734722.778947,0.0,-0.03,0.06,-0.002181661564992912,0.004363323129985824,-0.001090830782496456,0.006343881804785098,0.7277899762980852,1.6122820930313027,0.0,0.0,0.0,0.0,0.0,0.0,1500,1500,1500,1500,1500,1500
1748734722.887432,0.0,-0.03,0.06,-0.002181661564992912,0.004363323129985824,-0.001090830782496456,0.006343881804785098,0.7277899762980852,1.6122820930313027,0.0,0.0,0.0,0.0,0.0,0.0,1500,1500,1500,1500,1500,1500
1748734722.994133,0.01,0.01,0.02,-0.001090830782496456,-0.002181661564992912,-0.002181661564992912,0.006343881804785098,0.7277899762980852,1.6122820930313027,0.0,0.0,0.0,0.0,0.0,0.0,1500,1500,1500,1500,1500,1500
1748734723.1021996,0.03,0.01,0.01,-0.001090830782496456,0.0,0.0,0.006343881804785098,0.7277899762980852,1.6122820930313027,0.0,0.0,0.0,0.0,0.0,0.0,1500,1500,1500,1500,1500,1500
1748734723.1961334,0.0,0.0,0.01,0.0,0.001090830782496456,0.0,0.006343881804785098,0.7277899762980852,1.6122820930313027,0.0,0.0,0.0,0.0,0.0,0.0,1500,1500,1500,1500,1500,1500
1748734723.3071232,0.0,0.0,0.01,0.0,0.001090830782496456,0.0,0.006343881804785098,0.7277899762980852,1.6122820930313027,0.0,0.0,0.0,0.0,0.0,0.0,1500,1500,1500,1500,1500,1500
1748734723.4110606,0.01,-0.04,0.01,0.003272492347489368,0.0,0.0,0.006343881804785098,0.7277899762980852,1.6122820930313027,0.0,0.0,0.0,0.0,0.0,0.0,1500,1500,1500,1500,1500,1500
1748734723.514812,0.0,-0.03,0.03,0.0,-0.003272492347489368,0.0,0.006343881804785098,0.7277899762980852,1.6122820930313027,0.0,0.0,0.0,0.0,0.0,0.0,1500,1500,1500,1500,1500,1500
1748734723.626585,0.0,-0.03,0.03,0.0,-0.003272492347489368,0.0,0.006343881804785098,0.7277899762980852,1.6122820930313027,0.0,0.0,0.0,0.0,0.0,0.0,1500,1500,1500,1500,1500,1500
1748734723.7413747,0.0,0.01,0.05,-0.001090830782496456,-0.003272492347489368,0.001090830782496456,0.006343881804785098,0.7277899762980852,1.6122820930313027,0.0,0.0,0.0,0.0,0.0,0.0,1500,1500,1500,1500,1500,1500
1748734723.8588548,0.0,-0.03,0.05,-0.001090830782496456,-0.002181661564992912,0.001090830782496456,0.006343881804785098,0.7277899762980852,1.6122820930313027,0.0,0.0,0.0,0.0,0.0,0.0,1500,1500,1500,1500,1500,1500
1748734723.9660048,0.0,-0.03,0.05,-0.001090830782496456,-0.002181661564992912,0.001090830782496456,0.006343881804785098,0.7277899762980852,1.6122820930313027,0.0,0.0,0.0,0.0,0.0,0.0,1500,1500,1500,1500,1500,1500
1748734724.0759397,0.0,0.0,0.04,0.002181661564992912,0.008726646259971648,0.0,0.006343881804785098,0.7277899762980852,1.6122820930313027,0.0,0.0,0.0,0.0,0.0,0.0,1500,1500,1500,1500,1500,1500
1748734724.1847749,0.0,-0.03,0.03,0.0,-0.001090830782496456,-0.002181661564992912,0.006343881804785098,0.7277899762980852,1.6122820930313027,0.0,0.0,0.0,0.0,0.0,0.0,1500,1500,1500,1500,1500,1500
1748734724.292998,0.0,-0.03,0.03,0.0,-0.001090830782496456,-0.002181661564992912,0.006343881804785098,0.7277899762980852,1.6122820930313027,0.0,0.0,0.0,0.0,0.0,0.0,1500,1500,1500,1500,1500,1500
1748734724.4009104,0.02,-0.01,0.0,-0.001090830782496456,0.0,0.001090830782496456,0.006343881804785098,0.7277899762980852,1.6122820930313027,0.0,0.0,0.0,0.0,0.0,0.0,1500,1500,1500,1500,1500,1500
1748734724.5106325,0.0,0.0,0.03,-0.002181661564992912,0.001090830782496456,0.0,0.006343881804785098,0.7277899762980852,1.6122820930313027,0.0,0.0,0.0,0.0,0.0,0.0,1500,1500,1500,1500,1500,1500
1748734724.6188715,0.0,0.0,0.03,-0.002181661564992912,0.001090830782496456,0.0,0.006343881804785098,0.7277899762980852,1.6122820930313027,0.0,0.0,0.0,0.0,0.0,0.0,1500,1500,1500,1500,1500,1500
1748734724.7287302,0.0,-0.03,0.03,0.001090830782496456,0.0,0.001090830782496456,0.006343881804785098,0.7277899762980852,1.6122820930313027,0.0,0.0,0.0,0.0,0.0,0.0,1500,1500,1500,1500,1500,1500
1748734724.8572657,0.0,-0.02,0.04,0.001090830782496456,0.0,-0.002181661564992912,0.006343881804785098,0.7277899762980852,1.6122820930313027,0.0,0.0,0.0,0.0,0.0,0.0,1500,1500,1500,1500,1500,1500
1748734724.9544044,0.01,0.0,0.0,0.004363323129985824,0.003272492347489368,-0.001090830782496456,0.006343881804785098,0.7277899762980852,1.6122820930313027,0.0,0.0,0.0,0.0,0.0,0.0,1500,1500,1500,1500,1500,1500
1748734725.0681121,0.01,0.0,0.0,0.004363323129985824,0.003272492347489368,-0.001090830782496456,0.006343881804785098,0.7277899762980852,1.6122820930313027,0.0,0.0,0.0,0.0,0.0,0.0,1500,1500,1500,1500,1500,1500
1748734725.1920524,0.02,0.0,0.01,0.0,-0.003272492347489368,0.002181661564992912,0.006343881804785098,0.7277899762980852,1.6122820930313027,0.0,0.0,0.0,0.0,0.0,0.0,1500,1500,1500,1500,1500,1500
1748734725.3160582,0.01,-0.04,0.05,0.0,-0.002181661564992912,0.002181661564992912,0.006343881804785098,0.7277899762980852,1.6122820930313027,0.0,0.0,0.0,0.0,0.0,0.0,1500,1500,1500,1500,1500,1500
1748734725.4244509,0.01,-0.04,0.05,0.0,-0.002181661564992912,0.002181661564992912,0.006343881804785098,0.7277899762980852,1.6122820930313027,0.0,0.0,0.0,0.0,0.0,0.0,1500,1500,1500,1500,1500,1500
1748734725.5162423,0.0,-0.04,0.02,0.004363323129985824,-0.002181661564992912,0.002181661564992912,0.006343881804785098,0.7277899762980852,1.6122820930313027,0.0,0.0,0.0,0.0,0.0,0.0,1500,1500,1500,1500,1500,1500
1748734725.6249495,0.01,-0.02,0.03,0.0,0.0,0.002181661564992912,0.006343881804785098,0.7277899762980852,1.6122820930313027,0.0,0.0,0.0,0.0,0.0,0.0,1500,1500,1500,1500,1500,1500
1748734725.7324705,0.01,-0.02,0.03,0.0,0.0,0.002181661564992912,0.006343881804785098,0.7277899762980852,1.6122820930313027,0.0,0.0,0.0,0.0,0.0,0.0,1500,1500,1500,1500,1500,1500
1748734725.84139,0.02,0.01,0.03,-0.001090830782496456,0.004363323129985824,0.0,0.006343881804785098,0.7277899762980852,1.6122820930313027,0.0,0.0,0.0,0.0,0.0,0.0,1500,1500,1500,1500,1500,1500
1748734725.9487631,0.0,-0.03,0.03,-0.002181661564992912,-0.003272492347489368,0.0,0.006343881804785098,0.7277899762980852,1.6122820930313027,0.0,0.0,0.0,0.0,0.0,0.0,1500,1500,1500,1500,1500,1500
1748734726.0555341,0.0,-0.03,0.03,-0.002181661564992912,-0.003272492347489368,0.0,0.006343881804785098,0.7277899762980852,1.6122820930313027,0.0,0.0,0.0,0.0,0.0,0.0,1500,1500,1500,1500,1500,1500
1748734726.1777377,0.01,-0.05,0.04,0.001090830782496456,-0.002181661564992912,0.001090830782496456,0.006343881804785098,0.7277899762980852,1.6122820930313027,0.0,0.0,0.0,0.0,0.0,0.0,1500,1500,1500,1500,1500,1500
1748734726.2882996,0.01,-0.03,0.03,-0.001090830782496456,0.002181661564992912,0.001090830782496456,0.006343881804785098,0.7277899762980852,1.6122820930313027,0.0,0.0,0.0,0.0,0.0,0.0,1500,1500,1500,1500,1500,1500
1748734726.3879285,0.01,-0.03,0.02,0.001090830782496456,-0.001090830782496456,0.0,0.006343881804785098,0.7277899762980852,1.6122820930313027,0.0,0.0,0.0,0.0,0.0,0.0,1500,1500,1500,1500,1500,1500
1748734726.5042837,0.01,-0.03,0.02,0.001090830782496456,-0.001090830782496456,0.0,0.006343881804785098,0.7277899762980852,1.6122820930313027,0.0,0.0,0.0,0.0,0.0,0.0,1500,1500,1500,1500,1500,1500
1748734726.613239,0.01,-0.01,0.05,0.001090830782496456,0.0,0.0,0.006343881804785098,0.7277899762980852,1.6122820930313027,0.0,0.0,0.0,0.0,0.0,0.0,1500,1500,1500,1500,1500,1500
1748734726.7005594,0.0,-0.05,0.05,-0.001090830782496456,0.0,-0.001090830782496456,0.006343881804785098,0.7277899762980852,1.6122820930313027,0.0,0.0,0.0,0.0,0.0,0.0,1500,1500,1500,1500,1500,1500
1748734726.814473,0.0,-0.05,0.05,-0.001090830782496456,0.0,-0.001090830782496456,0.006343881804785098,0.7277899762980852,1.6122820930313027,0.0,0.0,0.0,0.0,0.0,0.0,1500,1500,1500,1500,1500,1500
1748734726.9223716,0.0,0.0,0.01,-0.001090830782496456,0.002181661564992912,0.001090830782496456,0.006343881804785098,0.7277899762980852,1.6122820930313027,0.0,0.0,0.0,0.0,0.0,0.0,1500,1500,1500,1500,1500,1500
1748734727.019739,0.02,0.0,0.01,0.003272492347489368,0.0,0.002181661564992912,0.006343881804785098,0.7277899762980852,1.6122820930313027,0.0,0.0,0.0,0.0,0.0,0.0,1500,1500,1500,1500,1500,1500
1748734727.1382797,0.02,0.0,0.01,0.003272492347489368,0.0,0.002181661564992912,0.006343881804785098,0.7277899762980852,1.6122820930313027,0.0,0.0,0.0,0.0,0.0,0.0,1500,1500,1500,1500,1500,1500
1748734727.2465749,0.0,-0.03,0.04,-0.002181661564992912,0.002181661564992912,0.0,0.006343881804785098,0.7277899762980852,1.6122820930313027,0.0,0.0,0.0,0.0,0.0,0.0,1500,1500,1500,1500,1500,1500
1748734727.3399107,0.0,-0.04,0.06,0.001090830782496456,0.002181661564992912,0.0,0.006343881804785098,0.7277899762980852,1.6122820930313027,0.0,0.0,0.0,0.0,0.0,0.0,1500,1500,1500,1500,1500,1500
1748734727.4467154,0.0,-0.04,0.06,0.001090830782496456,0.002181661564992912,0.0,0.006343881804785098,0.7277899762980852,1.6122820930313027,0.0,0.0,0.0,0.0,0.0,0.0,1500,1500,1500,1500,1500,1500
1748734727.5560627,0.01,-0.01,0.01,0.0,-0.001090830782496456,0.0,0.006343881804785098,0.7277899762980852,1.6122820930313027,0.0,0.0,0.0,0.0,0.0,0.0,1500,1500,1500,1500,1500,1500
1748734727.6588037,0.0,0.0,0.01,0.001090830782496456,0.0,-0.002181661564992912,0.006343881804785098,0.7277899762980852,1.6122820930313027,0.0,0.0,0.0,0.0,0.0,0.0,1500,1500,1500,1500,1500,1500
1748734727.775449,0.0,0.0,0.01,0.001090830782496456,0.0,-0.002181661564992912,0.006343881804785098,0.7277899762980852,1.6122820930313027,0.0,0.0,0.0,0.0,0.0,0.0,1500,1500,1500,1500,1500,1500
1748734727.8825617,0.01,-0.01,0.0,0.0,0.003272492347489368,0.0,0.006343881804785098,0.7277899762980852,1.6122820930313027,0.0,0.0,0.0,0.0,0.0,0.0,1500,1500,1500,1500,1500,1500
1748734727.9884512,0.0,-0.04,0.04,0.001090830782496456,0.001090830782496456,-0.001090830782496456,0.006343881804785098,0.7277899762980852,1.6122820930313027,0.0,0.0,0.0,0.0,0.0,0.0,1500,1500,1500,1500,1500,1500
1748734728.1003737,0.0,-0.04,0.04,0.001090830782496456,0.001090830782496456,-0.001090830782496456,0.006343881804785098,0.7277899762980852,1.6122820930313027,0.0,0.0,0.0,0.0,0.0,0.0,1500,1500,1500,1500,1500,1500
1748734728.209402,0.01,-0.03,0.05,0.0,0.0,-0.002181661564992912,0.006343881804785098,0.7277899762980852,1.6122820930313027,0.0,0.0,0.0,0.0,0.0,0.0,1500,1500,1500,1500,1500,1500
1748734728.3362176,0.01,-0.02,0.01,0.001090830782496456,-0.003272492347489368,0.0,0.006343881804785098,0.7277899762980852,1.6122820930313027,0.0,0.0,0.0,0.0,0.0,0.0,1500,1500,1500,1500,1500,1500
1748734728.44462,0.01,-0.02,0.01,0.001090830782496456,-0.003272492347489368,0.0,0.006343881804785098,0.7277899762980852,1.6122820930313027,0.0,0.0,0.0,0.0,0.0,0.0,1500,1500,1500,1500,1500,1500
1748734728.5510504,0.01,0.0,0.0,-0.002181661564992912,-0.001090830782496456,-0.001090830782496456,0.006343881804785098,0.7277899762980852,1.6122820930313027,0.0,0.0,0.0,0.0,0.0,0.0,1500,1500,1500,1500,1500,1500
1748734728.6585958,0.0,-0.01,0.03,0.002181661564992912,-0.002181661564992912,0.0,0.006343881804785098,0.7277899762980852,1.6122820930313027,0.0,0.0,0.0,0.0,0.0,0.0,1500,1500,1500,1500,1500,1500
1748734728.766695,0.0,-0.01,0.03,0.002181661564992912,-0.002181661564992912,0.0,0.006343881804785098,0.7277899762980852,1.6122820930313027,0.0,0.0,0.0,0.0,0.0,0.0,1500,1500,1500,1500,1500,1500
1748734728.875486,0.0,-0.03,0.04,-0.002181661564992912,0.00545415391248228,0.001090830782496456,0.006343881804785098,0.7277899762980852,1.6122820930313027,0.0,0.0,0.0,0.0,0.0,0.0,1500,1500,1500,1500,1500,1500
1748734728.9671867,0.0,-0.04,0.08,0.001090830782496456,-0.003272492347489368,0.0,0.006343881804785098,0.7277899762980852,1.6122820930313027,0.0,0.0,0.0,0.0,0.0,0.0,1500,1500,1500,1500,1500,1500
1748734729.0757782,0.0,-0.04,0.08,0.001090830782496456,-0.003272492347489368,0.0,0.006343881804785098,0.7277899762980852,1.6122820930313027,0.0,0.0,0.0,0.0,0.0,0.0,1500,1500,1500,1500,1500,1500
1748734729.1827128,0.02,0.0,0.0,-0.001090830782496456,-0.001090830782496456,0.001090830782496456,0.006343881804785098,0.7277899762980852,1.6122820930313027,0.0,0.0,0.0,0.0,0.0,0.0,1500,1500,1500,1500,1500,1500
1748734729.2915552,0.0,-0.03,0.04,0.0,-0.007635815477475192,0.001090830782496456,0.006343881804785098,0.7277899762980852,1.6122820930313027,0.0,0.0,0.0,0.0,0.0,0.0,1500,1500,1500,1500,1500,1500
1748734729.400247,0.0,-0.03,0.04,0.0,-0.007635815477475192,0.001090830782496456,0.006343881804785098,0.7277899762980852,1.6122820930313027,0.0,0.0,0.0,0.0,0.0,0.0,1500,1500,1500,1500,1500,1500
1748734729.5102386,0.02,-0.04,0.02,-0.003272492347489368,-0.001090830782496456,0.003272492347489368,0.006343881804785098,0.7277899762980852,1.6122820930313027,0.0,0.0,0.0,0.0,0.0,0.0,1500,1500,1500,1500,1500,1500
1748734729.6159494,0.01,-0.01,0.0,-0.001090830782496456,-0.003272492347489368,0.001090830782496456,0.006343881804785098,0.7277899762980852,1.6122820930313027,0.0,0.0,0.0,0.0,0.0,0.0,1500,1500,1500,1500,1500,1500
1748734729.7228644,0.01,-0.01,0.0,-0.001090830782496456,-0.003272492347489368,0.001090830782496456,0.006343881804785098,0.7277899762980852,1.6122820930313027,0.0,0.0,0.0,0.0,0.0,0.0,1500,1500,1500,1500,1500,1500
1748734729.8326764,0.0,0.01,0.03,-0.003272492347489368,-0.002181661564992912,0.002181661564992912,0.006343881804785098,0.7277899762980852,1.6122820930313027,0.0,0.0,0.0,0.0,0.0,0.0,1500,1500,1500,1500,1500,1500
1748734729.957807,0.02,-0.01,0.05,0.002181661564992912,0.0,0.0,0.006343881804785098,0.7277899762980852,1.6122820930313027,0.0,0.0,0.0,0.0,0.0,0.0,1500,1500,1500,1500,1500,1500
1748734730.0796363,0.0,-0.06,0.05,0.001090830782496456,0.001090830782496456,-0.001090830782496456,0.006343881804785098,0.7277899762980852,1.6122820930313027,0.0,0.0,0.0,0.0,0.0,0.0,1500,1500,1500,1500,1500,1500
1748734730.1889372,0.0,-0.06,0.05,0.001090830782496456,0.001090830782496456,-0.001090830782496456,0.006343881804785098,0.7277899762980852,1.6122820930313027,0.0,0.0,0.0,0.0,0.0,0.0,1500,1500,1500,1500,1500,1500
1748734730.281551,0.0,-0.03,0.0,0.002181661564992912,0.007635815477475192,0.002181661564992912,0.006343881804785098,0.7277899762980852,1.6122820930313027,0.0,0.0,0.0,0.0,0.0,0.0,1500,1500,1500,1500,1500,1500
1748734730.3727186,0.02,-0.01,0.01,0.001090830782496456,-0.001090830782496456,0.002181661564992912,0.006343881804785098,0.7277899762980852,1.6122820930313027,0.0,0.0,0.0,0.0,0.0,0.0,1500,1500,1500,1500,1500,1500
1748734730.4827275,0.02,-0.01,0.01,0.001090830782496456,-0.001090830782496456,0.002181661564992912,0.006343881804785098,0.7277899762980852,1.6122820930313027,0.0,0.0,0.0,0.0,0.0,0.0,1500,1500,1500,1500,1500,1500
1748734730.5919452,0.0,0.0,0.04,0.001090830782496456,-0.003272492347489368,-0.001090830782496456,0.006343881804785098,0.7277899762980852,1.6122820930313027,0.0,0.0,0.0,0.0,0.0,0.0,1500,1500,1500,1500,1500,1500
1748734730.68991,0.01,-0.04,0.04,0.002181661564992912,-0.002181661564992912,-0.001090830782496456,0.006343881804785098,0.7277899762980852,1.6122820930313027,0.0,0.0,0.0,0.0,0.0,0.0,1500,1500,1500,1500,1500,1500
1748734730.7932694,0.01,-0.04,0.04,0.002181661564992912,-0.002181661564992912,-0.001090830782496456,0.006343881804785098,0.7277899762980852,1.6122820930313027,0.0,0.0,0.0,0.0,0.0,0.0,1500,1500,1500,1500,1500,1500
1748734730.9012775,0.0,0.0,0.02,0.002181661564992912,0.002181661564992912,0.0,0.006343881804785098,0.7277899762980852,1.6122820930313027,0.0,0.0,0.0,0.0,0.0,0.0,1500,1500,1500,1500,1500,1500
1748734731.0071127,0.0,-0.01,0.04,0.002181661564992912,0.006544984694978736,0.0,0.006343881804785098,0.7277899762980852,1.6122820930313027,0.0,0.0,0.0,0.0,0.0,0.0,1500,1500,1500,1500,1500,1500
1748734731.1154816,0.0,-0.01,0.04,0.002181661564992912,0.006544984694978736,0.0,0.006343881804785098,0.7277899762980852,1.6122820930313027,0.0,0.0,0.0,0.0,0.0,0.0,1500,1500,1500,1500,1500,1500
1748734731.2241685,0.01,-0.05,0.02,0.0,-0.002181661564992912,0.0,0.006343881804785098,0.7277899762980852,1.6122820930313027,0.0,0.0,0.0,0.0,0.0,0.0,1500,1500,1500,1500,1500,1500
1748734731.327329,0.0,-0.02,0.04,0.002181661564992912,0.0,0.002181661564992912,0.006343881804785098,0.7277899762980852,1.6122820930313027,0.0,0.0,0.0,0.0,0.0,0.0,1500,1500,1500,1500,1500,1500
1748734731.4413497,0.0,-0.02,0.04,0.002181661564992912,0.0,0.002181661564992912,0.006343881804785098,0.7277899762980852,1.6122820930313027,0.0,0.0,0.0,0.0,0.0,0.0,1500,1500,1500,1500,1500,1500
1748734731.5473256,0.0,-0.02,0.05,0.004363323129985824,-0.002181661564992912,0.0,0.006343881804785098,0.7277899762980852,1.6122820930313027,0.0,0.0,0.0,0.0,0.0,0.0,1500,1500,1500,1500,1500,1500
1748734731.6407685,0.01,0.0,0.04,-0.002181661564992912,0.007635815477475192,-0.001090830782496456,0.006343881804785098,0.7277899762980852,1.6122820930313027,0.0,0.0,0.0,0.0,0.0,0.0,1500,1500,1500,1500,1500,1500
1748734731.7489035,0.01,0.0,0.04,-0.002181661564992912,0.007635815477475192,-0.001090830782496456,0.006343881804785098,0.7277899762980852,1.6122820930313027,0.0,0.0,0.0,0.0,0.0,0.0,1500,1500,1500,1500,1500,1500
1748734731.858075,0.0,-0.05,0.06,0.0,0.0,0.002181661564992912,0.006343881804785098,0.7277899762980852,1.6122820930313027,0.0,0.0,0.0,0.0,0.0,0.0,1500,1500,1500,1500,1500,1500
1748734731.9602804,0.01,-0.02,0.04,-0.001090830782496456,0.0,0.0,0.006343881804785098,0.7277899762980852,1.6122820930313027,0.0,0.0,0.0,0.0,0.0,0.0,1500,1500,1500,1500,1500,1500
1748734732.0753815,0.01,-0.02,0.04,-0.001090830782496456,0.0,0.0,0.006343881804785098,0.7277899762980852,1.6122820930313027,0.0,0.0,0.0,0.0,0.0,0.0,1500,1500,1500,1500,1500,1500
1748734732.1817787,0.02,0.0,0.0,0.001090830782496456,-0.001090830782496456,-0.002181661564992912,0.006343881804785098,0.7277899762980852,1.6122820930313027,0.0,0.0,0.0,0.0,0.0,0.0,1500,1500,1500,1500,1500,1500
1748734732.2756402,0.01,-0.02,0.04,0.003272492347489368,-0.004363323129985824,-0.001090830782496456,0.006343881804785098,0.7277899762980852,1.6122820930313027,0.0,0.0,0.0,0.0,0.0,0.0,1500,1500,1500,1500,1500,1500
1748734732.3828661,0.01,-0.02,0.04,0.003272492347489368,-0.004363323129985824,-0.001090830782496456,0.006343881804785098,0.7277899762980852,1.6122820930313027,0.0,0.0,0.0,0.0,0.0,0.0,1500,1500,1500,1500,1500,1500
1748734732.4926817,0.0,-0.03,0.02,-0.001090830782496456,0.0,-0.002181661564992912,0.006343881804785098,0.7277899762980852,1.6122820930313027,0.0,0.0,0.0,0.0,0.0,0.0,1500,1500,1500,1500,1500,1500
1748734732.5952945,0.04,-0.05,0.05,0.002181661564992912,0.001090830782496456,0.0,0.006343881804785098,0.7277899762980852,1.6122820930313027,0.0,0.0,0.0,0.0,0.0,0.0,1500,1500,1500,1500,1500,1500
1748734732.7066329,0.04,-0.05,0.05,0.002181661564992912,0.001090830782496456,0.0,0.006343881804785098,0.7277899762980852,1.6122820930313027,0.0,0.0,0.0,0.0,0.0,0.0,1500,1500,1500,1500,1500,1500
1748734732.814009,0.0,-0.01,0.02,0.002181661564992912,0.0,0.0,0.006343881804785098,0.7277899762980852,1.6122820930313027,0.0,0.0,0.0,0.0,0.0,0.0,1500,1500,1500,1500,1500,1500
1748734732.9133615,0.0,0.01,0.01,0.001090830782496456,-0.001090830782496456,0.003272492347489368,0.006343881804785098,0.7277899762980852,1.6122820930313027,0.0,0.0,0.0,0.0,0.0,0.0,1500,1500,1500,1500,1500,1500
1748734733.0158074,0.0,0.01,0.01,0.001090830782496456,-0.001090830782496456,0.003272492347489368,0.006343881804785098,0.7277899762980852,1.6122820930313027,0.0,0.0,0.0,0.0,0.0,0.0,1500,1500,1500,1500,1500,1500
1748734733.1251037,0.01,-0.03,0.02,0.0,-0.001090830782496456,-0.003272492347489368,0.006343881804785098,0.7277899762980852,1.6122820930313027,0.0,0.0,0.0,0.0,0.0,0.0,1500,1500,1500,1500,1500,1500
1748734733.2306235,0.01,-0.03,0.02,0.0,-0.001090830782496456,-0.003272492347489368,0.006343881804785098,0.7277899762980852,1.6122820930313027,0.0,0.0,0.0,0.0,0.0,0.0,1500,1500,1500,1500,1500,1500
1748734733.3397021,0.0,-0.02,0.05,-0.001090830782496456,-0.003272492347489368,-0.001090830782496456,0.006343881804785098,0.7277899762980852,1.6122820930313027,0.0,0.0,0.0,0.0,0.0,0.0,1500,1500,1500,1500,1500,1500
1748734733.4478965,0.02,0.0,0.0,0.002181661564992912,0.003272492347489368,0.0,0.006343881804785098,0.7277899762980852,1.6122820930313027,0.0,0.0,0.0,0.0,0.0,0.0,1500,1500,1500,1500,1500,1500
1748734733.5527759,0.01,-0.01,0.05,-0.002181661564992912,0.002181661564992912,0.0,0.006343881804785098,0.7277899762980852,1.6122820930313027,0.0,0.0,0.0,0.0,0.0,0.0,1500,1500,1500,1500,1500,1500
1748734733.6626961,0.01,-0.01,0.05,-0.002181661564992912,0.002181661564992912,0.0,0.006343881804785098,0.7277899762980852,1.6122820930313027,0.0,0.0,0.0,0.0,0.0,0.0,1500,1500,1500,1500,1500,1500
1748734733.7932513,0.0,-0.04,0.07,-0.001090830782496456,0.0,0.001090830782496456,0.006343881804785098,0.7277899762980852,1.6122820930313027,0.0,0.0,0.0,0.0,0.0,0.0,1500,1500,1500,1500,1500,1500
1748734733.9098675,0.0,-0.03,0.01,0.002181661564992912,0.0,-0.003272492347489368,0.006343881804785098,0.7277899762980852,1.6122820930313027,0.0,0.0,0.0,0.0,0.0,0.0,1500,1500,1500,1500,1500,1500
1748734734.0179229,0.0,-0.03,0.01,0.002181661564992912,0.0,-0.003272492347489368,0.006343881804785098,0.7277899762980852,1.6122820930313027,0.0,0.0,0.0,0.0,0.0,0.0,1500,1500,1500,1500,1500,1500
1748734734.1245778,0.0,0.0,0.01,0.003272492347489368,0.0,0.002181661564992912,0.006343881804785098,0.7277899762980852,1.6122820930313027,0.0,0.0,0.0,0.0,0.0,0.0,1500,1500,1500,1500,1500,1500
1748734734.2328045,0.02,0.0,0.03,-0.001090830782496456,0.002181661564992912,0.0,0.006343881804785098,0.7277899762980852,1.6122820930313027,0.0,0.0,0.0,0.0,0.0,0.0,1500,1500,1500,1500,1500,1500
1748734734.3429325,0.02,0.0,0.03,-0.001090830782496456,0.002181661564992912,0.0,0.006343881804785098,0.7277899762980852,1.6122820930313027,0.0,0.0,0.0,0.0,0.0,0.0,1500,1500,1500,1500,1500,1500
1748734734.4505274,0.0,-0.02,0.04,-0.001090830782496456,0.001090830782496456,-0.001090830782496456,0.006343881804785098,0.7277899762980852,1.6122820930313027,0.0,0.0,0.0,0.0,0.0,0.0,1500,1500,1500,1500,1500,1500
1748734734.5598972,0.01,-0.03,0.03,-0.001090830782496456,-0.003272492347489368,0.001090830782496456,0.006343881804785098,0.7277899762980852,1.6122820930313027,0.0,0.0,0.0,0.0,0.0,0.0,1500,1500,1500,1500,1500,1500
1748734734.6646845,0.0,-0.01,0.02,0.001090830782496456,0.001090830782496456,0.0,0.006343881804785098,0.7277899762980852,1.6122820930313027,0.0,0.0,0.0,0.0,0.0,0.0,1500,1500,1500,1500,1500,1500
1748734734.774647,0.0,-0.01,0.02,0.001090830782496456,0.001090830782496456,0.0,0.006343881804785098,0.7277899762980852,1.6122820930313027,0.0,0.0,0.0,0.0,0.0,0.0,1500,1500,1500,1500,1500,1500
1748734734.8826952,0.0,0.0,0.0,0.002181661564992912,-0.002181661564992912,0.0,0.006343881804785098,0.7277899762980852,1.6122820930313027,0.0,0.0,0.0,0.0,0.0,0.0,1500,1500,1500,1500,1500,1500
1748734734.985229,0.0,0.0,0.04,0.0,0.0,-0.001090830782496456,0.006343881804785098,0.7277899762980852,1.6122820930313027,0.0,0.0,0.0,0.0,0.0,0.0,1500,1500,1500,1500,1500,1500
1748734735.1009953,0.0,0.0,0.04,0.0,0.0,-0.001090830782496456,0.006343881804785098,0.7277899762980852,1.6122820930313027,0.0,0.0,0.0,0.0,0.0,0.0,1500,1500,1500,1500,1500,1500
1748734735.2251844,,,,0.0,0.0,-0.002181661564992912,0.006343881804785098,0.7277899762980852,1.6122820930313027,0.0,0.0,0.0,0.0,0.0,0.0,1500,1500,1500,1500,1500,1500
1748734735.3479002,0.0,0.0,0.0,0.003272492347489368,0.003272492347489368,-0.002181661564992912,0.006343881804785098,0.7277899762980852,1.6122820930313027,0.0,0.0,0.0,0.0,0.0,0.0,1500,1500,1500,1500,1500,1500
1748734735.4560103,0.0,0.0,0.0,0.003272492347489368,0.003272492347489368,-0.002181661564992912,0.006343881804785098,0.7277899762980852,1.6122820930313027,0.0,0.0,0.0,0.0,0.0,0.0,1500,1500,1500,1500,1500,1500
1748734735.5622315,0.0,0.0,0.05,0.001090830782496456,-0.002181661564992912,0.0,0.006343881804785098,0.7277899762980852,1.6122820930313027,0.0,0.0,0.0,0.0,0.0,0.0,1500,1500,1500,1500,1500,1500
1748734735.67084,0.01,-0.05,0.05,0.0,-0.004363323129985824,0.0,0.006343881804785098,0.7277899762980852,1.6122820930313027,0.0,0.0,0.0,0.0,0.0,0.0,1500,1500,1500,1500,1500,1500
1748734735.776528,0.0,-0.03,0.06,0.003272492347489368,0.001090830782496456,-0.002181661564992912,0.006343881804785098,0.7277899762980852,1.6122820930313027,0.0,0.0,0.0,0.0,0.0,0.0,1500,1500,1500,1500,1500,1500
1748734735.8829284,0.0,-0.03,0.06,0.003272492347489368,0.001090830782496456,-0.002181661564992912,0.006343881804785098,0.7277899762980852,1.6122820930313027,0.0,0.0,0.0,0.0,0.0,0.0,1500,1500,1500,1500,1500,1500
1748734735.9918,0.01,-0.02,0.02,0.004363323129985824,0.0,0.003272492347489368,0.006343881804785098,0.7277899762980852,1.6122820930313027,0.0,0.0,0.0,0.0,0.0,0.0,1500,1500,1500,1500,1500,1500
1748734736.09182,0.01,0.0,0.04,0.002181661564992912,-0.006544984694978736,-0.001090830782496456,0.006343881804785098,0.7277899762980852,1.6122820930313027,0.0,0.0,0.0,0.0,0.0,0.0,1500,1500,1500,1500,1500,1500
1748734736.1928933,0.01,0.0,0.04,0.002181661564992912,-0.006544984694978736,-0.001090830782496456,0.006343881804785098,0.7277899762980852,1.6122820930313027,0.0,0.0,0.0,0.0,0.0,0.0,1500,1500,1500,1500,1500,1500
1748734736.3161535,0.0,-0.03,0.05,-0.003272492347489368,0.0,0.001090830782496456,0.006343881804785098,0.7277899762980852,1.6122820930313027,0.0,0.0,0.0,0.0,0.0,0.0,1500,1500,1500,1500,1500,1500
1748734736.4078236,0.0,-0.02,0.04,0.001090830782496456,-0.001090830782496456,-0.002181661564992912,0.006343881804785098,0.7277899762980852,1.6122820930313027,0.0,0.0,0.0,0.0,0.0,0.0,1500,1500,1500,1500,1500,1500
1748734736.516483,0.0,-0.02,0.04,0.001090830782496456,-0.001090830782496456,-0.002181661564992912,0.006343881804785098,0.7277899762980852,1.6122820930313027,0.0,0.0,0.0,0.0,0.0,0.0,1500,1500,1500,1500,1500,1500
1748734736.6091604,0.02,0.0,0.0,-0.002181661564992912,0.002181661564992912,-0.001090830782496456,0.006343881804785098,0.7277899762980852,1.6122820930313027,0.0,0.0,0.0,0.0,0.0,0.0,1500,1500,1500,1500,1500,1500
1748734736.7169862,0.02,0.0,0.0,-0.002181661564992912,0.002181661564992912,-0.001090830782496456,0.006343881804785098,0.7277899762980852,1.6122820930313027,0.0,0.0,0.0,0.0,0.0,0.0,1500,1500,1500,1500,1500,1500
1748734736.8248382,0.01,-0.03,0.05,0.0,0.002181661564992912,0.001090830782496456,0.006343881804785098,0.7277899762980852,1.6122820930313027,0.0,0.0,0.0,0.0,0.0,0.0,1500,1500,1500,1500,1500,1500
1748734736.9332764,0.0,-0.04,0.03,0.001090830782496456,0.001090830782496456,0.003272492347489368,0.006343881804785098,0.7277899762980852,1.6122820930313027,0.0,0.0,0.0,0.0,0.0,0.0,1500,1500,1500,1500,1500,1500
1748734737.0433571,0.0,-0.04,0.03,0.001090830782496456,0.001090830782496456,0.003272492347489368,0.006343881804785098,0.7277899762980852,1.6122820930313027,0.0,0.0,0.0,0.0,0.0,0.0,1500,1500,1500,1500,1500,1500
1748734737.1515453,0.0,-0.05,0.03,-0.003272492347489368,0.003272492347489368,0.001090830782496456,0.006343881804785098,0.7277899762980852,1.6122820930313027,0.0,0.0,0.0,0.0,0.0,0.0,1500,1500,1500,1500,1500,1500
1748734737.2585669,0.0,-0.01,0.01,0.002181661564992912,0.003272492347489368,0.0,0.006343881804785098,0.7277899762980852,1.6122820930313027,0.0,0.0,0.0,0.0,0.0,0.0,1500,1500,1500,1500,1500,1500
1748734737.3657124,0.0,-0.01,0.01,0.002181661564992912,0.003272492347489368,0.0,0.006343881804785098,0.7277899762980852,1.6122820930313027,0.0,0.0,0.0,0.0,0.0,0.0,1500,1500,1500,1500,1500,1500
1748734737.4744306,0.0,-0.03,0.05,0.0,-0.004363323129985824,0.002181661564992912,0.006343881804785098,0.7277899762980852,1.6122820930313027,0.0,0.0,0.0,0.0,0.0,0.0,1500,1500,1500,1500,1500,1500
1748734737.601103,0.0,-0.03,0.0,0.001090830782496456,0.0,0.002181661564992912,0.006343881804785098,0.7277899762980852,1.6122820930313027,0.0,0.0,0.0,0.0,0.0,0.0,1500,1500,1500,1500,1500,1500
1748734737.7196748,0.0,0.0,0.02,0.0,0.003272492347489368,0.0,0.006343881804785098,0.7277899762980852,1.6122820930313027,0.0,0.0,0.0,0.0,0.0,0.0,1500,1500,1500,1500,1500,1500
1748734737.828112,0.0,0.0,0.02,0.0,0.003272492347489368,0.0,0.006343881804785098,0.7277899762980852,1.6122820930313027,0.0,0.0,0.0,0.0,0.0,0.0,1500,1500,1500,1500,1500,1500
1748734737.9383721,0.0,0.01,0.03,-0.002181661564992912,-0.001090830782496456,0.0,0.006343881804785098,0.7277899762980852,1.6122820930313027,0.0,0.0,0.0,0.0,0.0,0.0,1500,1500,1500,1500,1500,1500
1748734738.0460746,0.01,0.01,0.05,-0.003272492347489368,0.002181661564992912,0.002181661564992912,0.006343881804785098,0.7277899762980852,1.6122820930313027,0.0,0.0,0.0,0.0,0.0,0.0,1500,1500,1500,1500,1500,1500
1748734738.1562567,0.01,0.01,0.05,-0.003272492347489368,0.002181661564992912,0.002181661564992912,0.006343881804785098,0.7277899762980852,1.6122820930313027,0.0,0.0,0.0,0.0,0.0,0.0,1500,1500,1500,1500,1500,1500
1748734738.2629464,0.0,-1.32,0.01,-0.001090830782496456,-0.001090830782496456,0.001090830782496456,0.006343881804785098,0.7277899762980852,1.6122820930313027,0.0,0.0,0.0,0.0,0.0,0.0,1500,1500,1500,1500,1500,1500
1748734738.356549,0.0,-0.03,0.02,-0.002181661564992912,0.002181661564992912,0.001090830782496456,0.006343881804785098,0.7277899762980852,1.6122820930313027,0.0,0.0,0.0,0.0,0.0,0.0,1500,1500,1500,1500,1500,1500
1748734738.4654045,0.0,-0.03,0.02,-0.002181661564992912,0.002181661564992912,0.001090830782496456,0.006343881804785098,0.7277899762980852,1.6122820930313027,0.0,0.0,0.0,0.0,0.0,0.0,1500,1500,1500,1500,1500,1500
1748734738.5724428,0.0,0.0,0.02,0.001090830782496456,0.0,0.001090830782496456,0.006343881804785098,0.7277899762980852,1.6122820930313027,0.0,0.0,0.0,0.0,0.0,0.0,1500,1500,1500,1500,1500,1500
1748734738.6962376,0.0,0.0,0.04,0.001090830782496456,0.002181661564992912,0.003272492347489368,0.006343881804785098,0.7277899762980852,1.6122820930313027,0.0,0.0,0.0,0.0,0.0,0.0,1500,1500,1500,1500,1500,1500
1748734738.7942193,0.0,-0.03,0.06,0.002181661564992912,0.001090830782496456,-0.001090830782496456,0.006343881804785098,0.7277899762980852,1.6122820930313027,0.0,0.0,0.0,0.0,0.0,0.0,1500,1500,1500,1500,1500,1500
1748734738.8971794,0.0,-0.03,0.06,0.002181661564992912,0.001090830782496456,-0.001090830782496456,0.006343881804785098,0.7277899762980852,1.6122820930313027,0.0,0.0,0.0,0.0,0.0,0.0,1500,1500,1500,1500,1500,1500
1748734739.0056374,0.0,-0.04,0.05,-0.002181661564992912,0.002181661564992912,0.001090830782496456,0.006343881804785098,0.7277899762980852,1.6122820930313027,0.0,0.0,0.0,0.0,0.0,0.0,1500,1500,1500,1500,1500,1500
1748734739.1114957,-0.01,0.0,0.0,0.001090830782496456,0.002181661564992912,0.001090830782496456,0.006343881804785098,0.7277899762980852,1.6122820930313027,0.0,0.0,0.0,0.0,0.0,0.0,1500,1500,1500,1500,1500,1500
1748734739.220765,-0.01,0.0,0.0,0.001090830782496456,0.002181661564992912,0.001090830782496456,0.006343881804785098,0.7277899762980852,1.6122820930313027,0.0,0.0,0.0,0.0,0.0,0.0,1500,1500,1500,1500,1500,1500
1748734739.312614,0.01,0.0,0.01,0.0,-0.002181661564992912,0.001090830782496456,0.006343881804785098,0.7277899762980852,1.6122820930313027,0.0,0.0,0.0,0.0,0.0,0.0,1500,1500,1500,1500,1500,1500
1748734739.460498,0.01,0.0,0.01,0.0,-0.002181661564992912,0.001090830782496456,0.006343881804785098,0.7277899762980852,1.6122820930313027,0.0,0.0,0.0,0.0,0.0,0.0,1500,1500,1500,1500,1500,1500
1748734739.572874,0.01,-0.03,0.03,-0.002181661564992912,-0.002181661564992912,-0.001090830782496456,0.006343881804785098,0.7277899762980852,1.6122820930313027,0.0,0.0,0.0,0.0,0.0,0.0,1500,1500,1500,1500,1500,1500
1748734739.681216,0.0,-0.05,0.05,0.001090830782496456,0.002181661564992912,0.002181661564992912,0.006343881804785098,0.7277899762980852,1.6122820930313027,0.0,0.0,0.0,0.0,0.0,0.0,1500,1500,1500,1500,1500,1500
