time,ay,ax,az,gy,gx,gz,roll,pitch,yaw,cmd_fx,cmd_fy,cmd_fz,cmd_tx,cmd_ty,cmd_tz,pwm_1,pwm_2,pwm_3,pwm_4,pwm_5,pwm_6
1748735681.0084877,0.0,0.0,0.0,0.0,0.0,0.0,0.0,0.0,0.0,0,0,0,0,0,0,1500,1500,1500,1500,1500,1500
1748735681.1085536,0.0,0.02,0.01,-0.003272492347489368,-0.003272492347489368,-0.001090830782496456,0.005596969688094218,0.7268381796216239,1.611243803410767,0,0,0,0,0,0,1500,1500,1500,1500,1500,1500
1748735681.1926107,0.0,0.02,0.01,-0.003272492347489368,-0.003272492347489368,-0.001090830782496456,0.005596969688094218,0.7268381796216239,1.611243803410767,0,0,0,0,0,0,1500,1500,1500,1500,1500,1500
1748735681.2918005,0.0,0.0,0.04,0.0,0.004363323129985824,-0.001090830782496456,0.005596969688094218,0.7268381796216239,1.611243803410767,0,0,0,0,0,0,1500,1500,1500,1500,1500,1500
1748735681.3913755,0.0,-0.05,0.05,0.001090830782496456,-0.001090830782496456,0.0,0.005596969688094218,0.7268381796216239,1.611243803410767,0,0,0,0,0,0,1500,1500,1500,1500,1500,1500
1748735681.4755468,0.0,-0.05,0.05,0.001090830782496456,-0.001090830782496456,0.0,0.005596969688094218,0.7268381796216239,1.611243803410767,0,0,0,0,0,0,1500,1500,1500,1500,1500,1500
1748735681.5754268,-0.01,-0.02,0.04,0.0,0.004363323129985824,0.001090830782496456,0.005596969688094218,0.7268381796216239,1.611243803410767,0,0,0,0,0,0,1500,1500,1500,1500,1500,1500
1748735681.6761427,-0.01,-0.02,0.04,0.0,0.004363323129985824,0.001090830782496456,0.005596969688094218,0.7268381796216239,1.611243803410767,0,0,0,0,0,0,1500,1500,1500,1500,1500,1500
1748735681.7756574,-0.02,-0.01,0.02,0.003272492347489368,-0.003272492347489368,-0.002181661564992912,0.005596969688094218,0.7268381796216239,1.611243803410767,0,0,0,0,0,0,1500,1500,1500,1500,1500,1500
1748735681.871729,0.03,0.0,0.02,0.003272492347489368,0.001090830782496456,0.001090830782496456,0.005596969688094218,0.7268381796216239,1.611243803410767,0,0,0,0,0,0,1500,1500,1500,1500,1500,1500
1748735681.9593425,0.03,0.0,0.02,0.003272492347489368,0.001090830782496456,0.001090830782496456,0.005596969688094218,0.7268381796216239,1.611243803410767,0,0,0,0,0,0,1500,1500,1500,1500,1500,1500
1748735682.0584466,0.02,0.01,0.03,0.003272492347489368,0.002181661564992912,-0.001090830782496456,0.005596969688094218,0.7268381796216239,1.611243803410767,0,0,0,0,0,0,1500,1500,1500,1500,1500,1500
1748735682.1591215,0.02,0.01,0.03,0.003272492347489368,0.002181661564992912,-0.001090830782496456,0.005596969688094218,0.7268381796216239,1.611243803410767,0,0,0,0,0,0,1500,1500,1500,1500,1500,1500
1748735682.2416797,0.01,-0.04,0.04,-0.002181661564992912,0.001090830782496456,-0.002181661564992912,0.005596969688094218,0.7268381796216239,1.611243803410767,0,0,0,0,0,0,1500,1500,1500,1500,1500,1500
1748735682.341696,0.01,-0.04,0.04,-0.002181661564992912,0.001090830782496456,-0.002181661564992912,0.005596969688094218,0.7268381796216239,1.611243803410767,0,0,0,0,0,0,1500,1500,1500,1500,1500,1500
1748735682.4425828,0.0,-0.01,0.02,-0.001090830782496456,-0.002181661564992912,0.001090830782496456,0.005596969688094218,0.7268381796216239,1.611243803410767,0,0,0,0,0,0,1500,1500,1500,1500,1500,1500
1748735682.5423374,0.03,0.0,0.02,-0.002181661564992912,0.002181661564992912,0.0,0.005596969688094218,0.7268381796216239,1.611243803410767,0,0,0,0,0,0,1500,1500,1500,1500,1500,1500
1748735682.6425874,0.03,0.0,0.02,-0.002181661564992912,0.002181661564992912,0.0,0.005596969688094218,0.7268381796216239,1.611243803410767,0,0,0,0,0,0,1500,1500,1500,1500,1500,1500
1748735682.7264888,0.0,0.01,0.0,0.003272492347489368,0.0,0.0,0.005596969688094218,0.7268381796216239,1.611243803410767,0,0,0,0,0,0,1500,1500,1500,1500,1500,1500
1748735682.8259463,0.0,0.01,0.0,0.003272492347489368,0.0,0.0,0.005596969688094218,0.7268381796216239,1.611243803410767,0,0,0,0,0,0,1500,1500,1500,1500,1500,1500
1748735682.9255826,0.0,0.0,0.04,0.001090830782496456,-0.007635815477475192,0.002181661564992912,0.005596969688094218,0.7268381796216239,1.611243803410767,0,0,0,0,0,0,1500,1500,1500,1500,1500,1500
1748735683.0093875,0.01,-0.03,0.03,0.002181661564992912,0.002181661564992912,0.001090830782496456,0.005596969688094218,0.7268381796216239,1.611243803410767,0,0,0,0,0,0,1500,1500,1500,1500,1500,1500
1748735683.1088018,0.01,-0.03,0.03,0.002181661564992912,0.002181661564992912,0.001090830782496456,0.005596969688094218,0.7268381796216239,1.611243803410767,0,0,0,0,0,0,1500,1500,1500,1500,1500,1500
1748735683.209063,0.02,-0.01,0.03,-0.001090830782496456,-0.00545415391248228,0.001090830782496456,0.005596969688094218,0.7268381796216239,1.611243803410767,0,0,0,0,0,0,1500,1500,1500,1500,1500,1500
1748735683.3095875,0.02,0.02,0.05,-0.001090830782496456,0.0,-0.001090830782496456,0.005596969688094218,0.7268381796216239,1.611243803410767,0,0,0,0,0,0,1500,1500,1500,1500,1500,1500
1748735683.4095752,0.02,0.02,0.05,-0.001090830782496456,0.0,-0.001090830782496456,0.005596969688094218,0.7268381796216239,1.611243803410767,0,0,0,0,0,0,1500,1500,1500,1500,1500,1500
1748735683.4918668,0.01,-0.01,0.04,0.001090830782496456,0.0,-0.002181661564992912,0.005596969688094218,0.7268381796216239,1.611243803410767,0,0,0,0,0,0,1500,1500,1500,1500,1500,1500
1748735683.5924742,0.01,-0.01,0.04,0.001090830782496456,0.0,-0.002181661564992912,0.005596969688094218,0.7268381796216239,1.611243803410767,0,0,0,0,0,0,1500,1500,1500,1500,1500,1500
1748735683.6920846,0.0,-0.01,0.05,-0.001090830782496456,0.0,0.0,0.005596969688094218,0.7268381796216239,1.611243803410767,0,0,0,0,0,0,1500,1500,1500,1500,1500,1500
1748735683.7921815,-0.01,-0.02,0.05,0.001090830782496456,-0.001090830782496456,0.0,0.005596969688094218,0.7268381796216239,1.611243803410767,0,0,0,0,0,0,1500,1500,1500,1500,1500,1500
1748735683.8924384,-0.01,-0.02,0.05,0.001090830782496456,-0.001090830782496456,0.0,0.005596969688094218,0.7268381796216239,1.611243803410767,0,0,0,0,0,0,1500,1500,1500,1500,1500,1500
1748735683.9754674,0.0,-0.04,0.04,0.0,-0.002181661564992912,-0.003272492347489368,0.005596969688094218,0.7268381796216239,1.611243803410767,0,0,0,0,0,0,1500,1500,1500,1500,1500,1500
1748735684.075399,0.0,-0.04,0.04,0.0,-0.002181661564992912,-0.003272492347489368,0.005596969688094218,0.7268381796216239,1.611243803410767,0,0,0,0,0,0,1500,1500,1500,1500,1500,1500
1748735684.1758773,0.02,0.01,0.05,0.001090830782496456,-0.004363323129985824,0.0,0.005596969688094218,0.7268381796216239,1.611243803410767,0,0,0,0,0,0,1500,1500,1500,1500,1500,1500
1748735684.2756267,0.0,-0.03,0.03,-0.002181661564992912,-0.004363323129985824,0.0,0.005596969688094218,0.7268381796216239,1.611243803410767,0,0,0,0,0,0,1500,1500,1500,1500,1500,1500
1748735684.3759127,0.0,-0.03,0.03,-0.002181661564992912,-0.004363323129985824,0.0,0.005596969688094218,0.7268381796216239,1.611243803410767,0,0,0,0,0,0,1500,1500,1500,1500,1500,1500
1748735684.4588795,-0.01,0.0,0.0,0.001090830782496456,0.0,0.0,0.005596969688094218,0.7268381796216239,1.611243803410767,0,0,0,0,0,0,1500,1500,1500,1500,1500,1500
1748735684.5584495,-0.01,0.0,0.0,0.001090830782496456,0.0,0.0,0.005596969688094218,0.7268381796216239,1.611243803410767,0,0,0,0,0,0,1500,1500,1500,1500,1500,1500
1748735684.6589475,0.0,-0.04,0.05,-0.002181661564992912,0.0,0.001090830782496456,0.005596969688094218,0.7268381796216239,1.611243803410767,0,0,0,0,0,0,1500,1500,1500,1500,1500,1500
1748735684.7424402,0.01,-0.05,0.02,-0.003272492347489368,0.002181661564992912,-0.001090830782496456,0.005596969688094218,0.7268381796216239,1.611243803410767,0,0,0,0,0,0,1500,1500,1500,1500,1500,1500
1748735684.8427374,0.01,-0.05,0.02,-0.003272492347489368,0.002181661564992912,-0.001090830782496456,0.005596969688094218,0.7268381796216239,1.611243803410767,0,0,0,0,0,0,1500,1500,1500,1500,1500,1500
1748735684.9420292,0.01,-0.01,0.05,-0.002181661564992912,-0.004363323129985824,-0.001090830782496456,0.005596969688094218,0.7268381796216239,1.611243803410767,0,0,0,0,0,0,1500,1500,1500,1500,1500,1500
1748735685.0427973,0.01,-0.01,0.05,-0.002181661564992912,-0.004363323129985824,-0.001090830782496456,0.005596969688094218,0.7268381796216239,1.611243803410767,0,0,0,0,0,0,1500,1500,1500,1500,1500,1500
1748735685.1416397,0.01,-0.02,0.01,0.0,0.0,0.0,0.005596969688094218,0.7268381796216239,1.611243803410767,0,0,0,0,0,0,1500,1500,1500,1500,1500,1500
1748735685.2256706,0.0,0.0,0.01,0.002181661564992912,-0.002181661564992912,-0.001090830782496456,0.005596969688094218,0.7268381796216239,1.611243803410767,0,0,0,0,0,0,1500,1500,1500,1500,1500,1500
1748735685.3253813,0.0,0.0,0.01,0.002181661564992912,-0.002181661564992912,-0.001090830782496456,0.005596969688094218,0.7268381796216239,1.611243803410767,0,0,0,0,0,0,1500,1500,1500,1500,1500,1500
1748735685.4262028,0.0,-0.02,0.03,-0.001090830782496456,0.003272492347489368,0.0,0.005596969688094218,0.7268381796216239,1.611243803410767,0,0,0,0,0,0,1500,1500,1500,1500,1500,1500
1748735685.5251236,0.0,-0.02,0.03,-0.001090830782496456,0.003272492347489368,0.0,0.005596969688094218,0.7268381796216239,1.611243803410767,0,0,0,0,0,0,1500,1500,1500,1500,1500,1500
1748735685.6252205,0.01,-0.03,0.04,0.002181661564992912,0.001090830782496456,0.003272492347489368,0.005596969688094218,0.7268381796216239,1.611243803410767,0,0,0,0,0,0,1500,1500,1500,1500,1500,1500
1748735685.708939,0.02,-0.01,0.01,-0.002181661564992912,0.001090830782496456,-0.001090830782496456,0.005596969688094218,0.7268381796216239,1.611243803410767,0,0,0,0,0,0,1500,1500,1500,1500,1500,1500
1748735685.8088262,0.02,-0.01,0.01,-0.002181661564992912,0.001090830782496456,-0.001090830782496456,0.005596969688094218,0.7268381796216239,1.611243803410767,0,0,0,0,0,0,1500,1500,1500,1500,1500,1500
1748735685.9089897,0.01,-0.01,0.03,0.0,-0.002181661564992912,0.003272492347489368,0.005596969688094218,0.7268381796216239,1.611243803410767,0,0,0,0,0,0,1500,1500,1500,1500,1500,1500
1748735685.9919982,0.01,-0.01,0.03,0.0,-0.002181661564992912,0.003272492347489368,0.005596969688094218,0.7268381796216239,1.611243803410767,0,0,0,0,0,0,1500,1500,1500,1500,1500,1500
1748735686.0945208,0.0,0.0,0.0,-0.001090830782496456,-0.003272492347489368,0.0,0.005596969688094218,0.7268381796216239,1.611243803410767,0,0,0,0,0,0,1500,1500,1500,1500,1500,1500
1748735686.1769643,0.0,0.01,0.03,0.004363323129985824,0.001090830782496456,-0.001090830782496456,0.005596969688094218,0.7268381796216239,1.611243803410767,0,0,0,0,0,0,1500,1500,1500,1500,1500,1500
1748735686.2761204,0.0,0.01,0.03,0.004363323129985824,0.001090830782496456,-0.001090830782496456,0.005596969688094218,0.7268381796216239,1.611243803410767,0,0,0,0,0,0,1500,1500,1500,1500,1500,1500
1748735686.3758595,0.0,-0.02,0.01,0.0,0.001090830782496456,0.001090830782496456,0.005596969688094218,0.7268381796216239,1.611243803410767,0,0,0,0,0,0,1500,1500,1500,1500,1500,1500
1748735686.4589195,0.0,-0.02,0.01,0.0,0.001090830782496456,0.001090830782496456,0.005596969688094218,0.7268381796216239,1.611243803410767,0,0,0,0,0,0,1500,1500,1500,1500,1500,1500
1748735686.5593119,0.0,-0.05,0.08,-0.001090830782496456,0.001090830782496456,0.002181661564992912,0.005596969688094218,0.7268381796216239,1.611243803410767,0,0,0,0,0,0,1500,1500,1500,1500,1500,1500
1748735686.654013,0.02,-0.03,0.01,0.001090830782496456,0.001090830782496456,0.0,0.005596969688094218,0.7268381796216239,1.611243803410767,0,0,0,0,0,0,1500,1500,1500,1500,1500,1500
1748735686.7426186,0.02,-0.03,0.01,0.001090830782496456,0.001090830782496456,0.0,0.005596969688094218,0.7268381796216239,1.611243803410767,0,0,0,0,0,0,1500,1500,1500,1500,1500,1500
1748735686.8425648,0.0,-0.01,0.03,0.001090830782496456,0.001090830782496456,0.001090830782496456,0.005596969688094218,0.7268381796216239,1.611243803410767,0,0,0,0,0,0,1500,1500,1500,1500,1500,1500
1748735686.9429474,0.0,-0.01,0.03,0.001090830782496456,0.001090830782496456,0.001090830782496456,0.005596969688094218,0.7268381796216239,1.611243803410767,0,0,0,0,0,0,1500,1500,1500,1500,1500,1500
1748735687.0426834,0.0,0.02,0.05,0.0,-0.003272492347489368,-0.003272492347489368,0.005596969688094218,0.7268381796216239,1.611243803410767,0,0,0,0,0,0,1500,1500,1500,1500,1500,1500
1748735687.1418908,0.0,0.02,0.05,0.0,-0.003272492347489368,-0.003272492347489368,0.005596969688094218,0.7268381796216239,1.611243803410767,0,0,0,0,0,0,1500,1500,1500,1500,1500,1500
1748735687.2257946,0.0,-0.01,0.01,0.002181661564992912,-0.00545415391248228,-0.001090830782496456,0.005596969688094218,0.7268381796216239,1.611243803410767,0,0,0,0,0,0,1500,1500,1500,1500,1500,1500
1748735687.3218904,0.01,-0.01,-0.02,0.002181661564992912,-0.001090830782496456,-0.002181661564992912,0.005596969688094218,0.7268381796216239,1.611243803410767,0,0,0,0,0,0,1500,1500,1500,1500,1500,1500
1748735687.42569,0.01,-0.01,-0.02,0.002181661564992912,-0.001090830782496456,-0.002181661564992912,0.005596969688094218,0.7268381796216239,1.611243803410767,0,0,0,0,0,0,1500,1500,1500,1500,1500,1500
1748735687.5083492,0.01,0.0,0.01,0.002181661564992912,-0.002181661564992912,0.0,0.005596969688094218,0.7268381796216239,1.611243803410767,0,0,0,0,0,0,1500,1500,1500,1500,1500,1500
1748735687.6088579,0.01,0.0,0.01,0.002181661564992912,-0.002181661564992912,0.0,0.005596969688094218,0.7268381796216239,1.611243803410767,0,0,0,0,0,0,1500,1500,1500,1500,1500,1500
1748735687.7083485,0.02,0.0,0.02,0.001090830782496456,0.0,0.001090830782496456,0.005596969688094218,0.7268381796216239,1.611243803410767,0,0,0,0,0,0,1500,1500,1500,1500,1500,1500
1748735687.8088138,0.01,-0.02,0.04,-0.002181661564992912,0.003272492347489368,0.0,0.005596969688094218,0.7268381796216239,1.611243803410767,0,0,0,0,0,0,1500,1500,1500,1500,1500,1500
1748735687.9092753,0.01,-0.02,0.04,-0.002181661564992912,0.003272492347489368,0.0,0.005596969688094218,0.7268381796216239,1.611243803410767,0,0,0,0,0,0,1500,1500,1500,1500,1500,1500
1748735687.9926279,0.0,-0.02,0.01,-0.001090830782496456,0.0,-0.002181661564992912,0.005596969688094218,0.7268381796216239,1.611243803410767,0,0,0,0,0,0,1500,1500,1500,1500,1500,1500
1748735688.0917273,0.0,-0.02,0.01,-0.001090830782496456,0.0,-0.002181661564992912,0.005596969688094218,0.7268381796216239,1.611243803410767,0,0,0,0,0,0,1500,1500,1500,1500,1500,1500
1748735688.1926148,,,,-0.001090830782496456,-0.002181661564992912,0.001090830782496456,0.005596969688094218,0.7268381796216239,1.611243803410767,0,0,0,0,0,0,1500,1500,1500,1500,1500,1500
1748735688.2920737,0.0,0.01,0.03,0.001090830782496456,-0.002181661564992912,0.001090830782496456,0.005596969688094218,0.7268381796216239,1.611243803410767,0,0,0,0,0,0,1500,1500,1500,1500,1500,1500
1748735688.3919713,0.0,0.01,0.03,0.001090830782496456,-0.002181661564992912,0.001090830782496456,0.005596969688094218,0.7268381796216239,1.611243803410767,0,0,0,0,0,0,1500,1500,1500,1500,1500,1500
1748735688.4757526,0.01,-0.03,0.02,-0.001090830782496456,-0.003272492347489368,0.003272492347489368,0.005596969688094218,0.7268381796216239,1.611243803410767,0,0,0,0,0,0,1500,1500,1500,1500,1500,1500
1748735688.575465,0.01,-0.03,0.02,-0.001090830782496456,-0.003272492347489368,0.003272492347489368,0.005596969688094218,0.7268381796216239,1.611243803410767,0,0,0,0,0,0,1500,1500,1500,1500,1500,1500
1748735688.6755667,0.02,-0.05,0.04,0.001090830782496456,-0.001090830782496456,-0.001090830782496456,0.005596969688094218,0.7268381796216239,1.611243803410767,0,0,0,0,0,0,1500,1500,1500,1500,1500,1500
1748735688.75955,0.01,-0.01,0.02,-0.002181661564992912,0.001090830782496456,0.001090830782496456,0.005596969688094218,0.7268381796216239,1.611243803410767,0,0,0,0,0,0,1500,1500,1500,1500,1500,1500
1748735688.858904,0.01,-0.01,0.02,-0.002181661564992912,0.001090830782496456,0.001090830782496456,0.005596969688094218,0.7268381796216239,1.611243803410767,0,0,0,0,0,0,1500,1500,1500,1500,1500,1500
1748735688.959062,0.0,0.01,0.02,0.002181661564992912,0.001090830782496456,0.002181661564992912,0.005596969688094218,0.7268381796216239,1.611243803410767,0,0,0,0,0,0,1500,1500,1500,1500,1500,1500
1748735689.058819,0.0,0.01,0.02,0.002181661564992912,0.001090830782496456,0.002181661564992912,0.005596969688094218,0.7268381796216239,1.611243803410767,0,0,0,0,0,0,1500,1500,1500,1500,1500,1500
1748735689.159403,-0.02,0.0,0.04,0.0,0.002181661564992912,0.0,0.005596969688094218,0.7268381796216239,1.611243803410767,0,0,0,0,0,0,1500,1500,1500,1500,1500,1500
1748735689.2423272,-0.01,-0.02,0.02,0.0,0.0,0.0,0.005596969688094218,0.7268381796216239,1.611243803410767,0,0,0,0,0,0,1500,1500,1500,1500,1500,1500
1748735689.3421996,-0.01,-0.02,0.02,0.0,0.0,0.0,0.005596969688094218,0.7268381796216239,1.611243803410767,0,0,0,0,0,0,1500,1500,1500,1500,1500,1500
1748735689.4425356,-0.01,-0.01,0.02,-0.003272492347489368,0.002181661564992912,-0.003272492347489368,0.005596969688094218,0.7268381796216239,1.611243803410767,0,0,0,0,0,0,1500,1500,1500,1500,1500,1500
1748735689.5377796,0.0,-0.01,0.04,0.0,0.0,0.001090830782496456,0.005596969688094218,0.7268381796216239,1.611243803410767,0,0,0,0,0,0,1500,1500,1500,1500,1500,1500
1748735689.6416276,0.0,-0.01,0.04,0.0,0.0,0.001090830782496456,0.005596969688094218,0.7268381796216239,1.611243803410767,0,0,0,0,0,0,1500,1500,1500,1500,1500,1500
1748735689.7257676,0.01,0.01,0.04,0.002181661564992912,0.0,-0.002181661564992912,0.005596969688094218,0.7268381796216239,1.611243803410767,0,0,0,0,0,0,1500,1500,1500,1500,1500,1500
1748735689.824699,0.01,0.01,0.04,0.002181661564992912,0.0,-0.002181661564992912,0.005596969688094218,0.7268381796216239,1.611243803410767,0,0,0,0,0,0,1500,1500,1500,1500,1500,1500
1748735689.9248865,-0.01,-0.02,0.05,0.001090830782496456,0.0,0.0,0.005596969688094218,0.7268381796216239,1.611243803410767,0,0,0,0,0,0,1500,1500,1500,1500,1500,1500
1748735690.0080218,0.0,-0.03,0.02,0.001090830782496456,-0.001090830782496456,0.0,0.005596969688094218,0.7268381796216239,1.611243803410767,0,0,0,0,0,0,1500,1500,1500,1500,1500,1500
1748735690.1087754,0.0,-0.03,0.02,0.001090830782496456,-0.001090830782496456,0.0,0.005596969688094218,0.7268381796216239,1.611243803410767,0,0,0,0,0,0,1500,1500,1500,1500,1500,1500
1748735690.2088187,0.01,0.0,0.01,0.0,-0.002181661564992912,0.001090830782496456,0.005596969688094218,0.7268381796216239,1.611243803410767,0,0,0,0,0,0,1500,1500,1500,1500,1500,1500
1748735690.308959,0.01,0.0,0.01,0.0,-0.002181661564992912,0.001090830782496456,0.005596969688094218,0.7268381796216239,1.611243803410767,0,0,0,0,0,0,1500,1500,1500,1500,1500,1500
1748735690.409372,-0.01,0.0,0.0,-0.003272492347489368,0.0,0.0,0.005596969688094218,0.7268381796216239,1.611243803410767,0,0,0,0,0,0,1500,1500,1500,1500,1500,1500
1748735690.4916759,0.0,0.01,0.02,0.004363323129985824,-0.00545415391248228,-0.003272492347489368,0.005596969688094218,0.7268381796216239,1.611243803410767,0,0,0,0,0,0,1500,1500,1500,1500,1500,1500
1748735690.591722,0.0,0.01,0.02,0.004363323129985824,-0.00545415391248228,-0.003272492347489368,0.005596969688094218,0.7268381796216239,1.611243803410767,0,0,0,0,0,0,1500,1500,1500,1500,1500,1500
1748735690.6917033,0.0,-0.04,0.07,0.001090830782496456,-0.00545415391248228,-0.001090830782496456,0.005596969688094218,0.7268381796216239,1.611243803410767,0,0,0,0,0,0,1500,1500,1500,1500,1500,1500
1748735690.7920253,0.0,-0.04,0.07,0.001090830782496456,-0.00545415391248228,-0.001090830782496456,0.005596969688094218,0.7268381796216239,1.611243803410767,0,0,0,0,0,0,1500,1500,1500,1500,1500,1500
1748735690.8930516,0.0,-0.04,0.03,0.002181661564992912,-0.007635815477475192,0.0,0.005596969688094218,0.7268381796216239,1.611243803410767,0,0,0,0,0,0,1500,1500,1500,1500,1500,1500
1748735690.978877,-0.01,0.02,0.01,0.003272492347489368,0.00545415391248228,-0.001090830782496456,0.005596969688094218,0.7268381796216239,1.611243803410767,0,0,0,0,0,0,1500,1500,1500,1500,1500,1500
1748735691.0788195,-0.01,0.02,0.01,0.003272492347489368,0.00545415391248228,-0.001090830782496456,0.005596969688094218,0.7268381796216239,1.611243803410767,0,0,0,0,0,0,1500,1500,1500,1500,1500,1500
1748735691.1761754,0.03,-0.01,0.0,-0.003272492347489368,-0.001090830782496456,-0.001090830782496456,0.005596969688094218,0.7268381796216239,1.611243803410767,0,0,0,0,0,0,1500,1500,1500,1500,1500,1500
1748735691.2767887,0.03,-0.01,0.0,-0.003272492347489368,-0.001090830782496456,-0.001090830782496456,0.005596969688094218,0.7268381796216239,1.611243803410767,0,0,0,0,0,0,1500,1500,1500,1500,1500,1500
1748735691.376106,0.0,-0.01,0.01,0.002181661564992912,-0.001090830782496456,0.002181661564992912,0.005596969688094218,0.7268381796216239,1.611243803410767,0,0,0,0,0,0,1500,1500,1500,1500,1500,1500
1748735691.4616792,0.0,-0.01,0.04,0.0,0.0,-0.001090830782496456,0.005596969688094218,0.7268381796216239,1.611243803410767,0,0,0,0,0,0,1500,1500,1500,1500,1500,1500
1748735691.558771,0.0,-0.01,0.04,0.0,0.0,-0.001090830782496456,0.005596969688094218,0.7268381796216239,1.611243803410767,0,0,0,0,0,0,1500,1500,1500,1500,1500,1500
1748735691.659005,0.0,-0.05,0.02,0.002181661564992912,-0.001090830782496456,-0.002181661564992912,0.005596969688094218,0.7268381796216239,1.611243803410767,0,0,0,0,0,0,1500,1500,1500,1500,1500,1500
1748735691.7424579,0.0,-0.05,0.02,0.002181661564992912,-0.001090830782496456,-0.002181661564992912,0.005596969688094218,0.7268381796216239,1.611243803410767,0,0,0,0,0,0,1500,1500,1500,1500,1500,1500
1748735691.843166,0.04,0.0,0.03,-0.002181661564992912,-0.002181661564992912,0.0,0.005596969688094218,0.7268381796216239,1.611243803410767,0,0,0,0,0,0,1500,1500,1500,1500,1500,1500
1748735691.942099,0.01,0.0,0.0,0.003272492347489368,-0.001090830782496456,-0.002181661564992912,0.005596969688094218,0.7268381796216239,1.611243803410767,0,0,0,0,0,0,1500,1500,1500,1500,1500,1500
1748735692.0420976,0.01,0.0,0.0,0.003272492347489368,-0.001090830782496456,-0.002181661564992912,0.005596969688094218,0.7268381796216239,1.611243803410767,0,0,0,0,0,0,1500,1500,1500,1500,1500,1500
1748735692.1415167,0.0,0.0,0.03,0.0,0.0,-0.001090830782496456,0.005596969688094218,0.7268381796216239,1.611243803410767,0,0,0,0,0,0,1500,1500,1500,1500,1500,1500
1748735692.225143,0.0,0.0,0.03,0.0,0.0,-0.001090830782496456,0.005596969688094218,0.7268381796216239,1.611243803410767,0,0,0,0,0,0,1500,1500,1500,1500,1500,1500
1748735692.324264,0.01,-0.02,1.33,-0.001090830782496456,0.004363323129985824,0.001090830782496456,0.005596969688094218,0.7268381796216239,1.611243803410767,0,0,0,0,0,0,1500,1500,1500,1500,1500,1500
1748735692.4246597,0.01,-0.01,0.06,0.001090830782496456,0.004363323129985824,0.001090830782496456,0.005596969688094218,0.7268381796216239,1.611243803410767,0,0,0,0,0,0,1500,1500,1500,1500,1500,1500
1748735692.508728,0.01,-0.01,0.06,0.001090830782496456,0.004363323129985824,0.001090830782496456,0.005596969688094218,0.7268381796216239,1.611243803410767,0,0,0,0,0,0,1500,1500,1500,1500,1500,1500
1748735692.6081884,0.01,0.0,0.05,-0.004363323129985824,0.0,0.001090830782496456,0.005596969688094218,0.7268381796216239,1.611243803410767,0,0,0,0,0,0,1500,1500,1500,1500,1500,1500
1748735692.7086632,0.01,0.0,0.05,-0.004363323129985824,0.0,0.001090830782496456,0.005596969688094218,0.7268381796216239,1.611243803410767,0,0,0,0,0,0,1500,1500,1500,1500,1500,1500
1748735692.8083239,0.0,0.0,0.02,-0.002181661564992912,0.004363323129985824,0.0,0.005596969688094218,0.7268381796216239,1.611243803410767,0,0,0,0,0,0,1500,1500,1500,1500,1500,1500
1748735692.9095852,0.01,-0.02,0.04,0.002181661564992912,-0.002181661564992912,0.0,0.005596969688094218,0.7268381796216239,1.611243803410767,0,0,0,0,0,0,1500,1500,1500,1500,1500,1500
1748735692.9918363,0.01,-0.02,0.04,0.002181661564992912,-0.002181661564992912,0.0,0.005596969688094218,0.7268381796216239,1.611243803410767,0,0,0,0,0,0,1500,1500,1500,1500,1500,1500
1748735693.0915318,0.01,-0.03,0.07,-0.001090830782496456,-0.002181661564992912,-0.001090830782496456,0.005596969688094218,0.7268381796216239,1.611243803410767,0,0,0,0,0,0,1500,1500,1500,1500,1500,1500
1748735693.1927044,0.01,-0.03,0.07,-0.001090830782496456,-0.002181661564992912,-0.001090830782496456,0.005596969688094218,0.7268381796216239,1.611243803410767,0,0,0,0,0,0,1500,1500,1500,1500,1500,1500
1748735693.291834,0.0,-0.01,0.01,0.001090830782496456,0.001090830782496456,0.0,0.005596969688094218,0.7268381796216239,1.611243803410767,0,0,0,0,0,0,1500,1500,1500,1500,1500,1500
1748735693.3925896,0.03,0.01,0.01,-0.001090830782496456,-0.002181661564992912,0.002181661564992912,0.005596969688094218,0.7268381796216239,1.611243803410767,0,0,0,0,0,0,1500,1500,1500,1500,1500,1500
1748735693.4789214,0.03,0.01,0.01,-0.001090830782496456,-0.002181661564992912,0.002181661564992912,0.005596969688094218,0.7268381796216239,1.611243803410767,0,0,0,0,0,0,1500,1500,1500,1500,1500,1500
1748735693.575732,0.0,0.0,0.03,-0.001090830782496456,0.0,-0.002181661564992912,0.005596969688094218,0.7268381796216239,1.611243803410767,0,0,0,0,0,0,1500,1500,1500,1500,1500,1500
1748735693.6637564,0.0,-0.04,0.04,0.003272492347489368,0.003272492347489368,0.001090830782496456,0.005596969688094218,0.7268381796216239,1.611243803410767,0,0,0,0,0,0,1500,1500,1500,1500,1500,1500
1748735693.7586656,0.0,-0.04,0.04,0.003272492347489368,0.003272492347489368,0.001090830782496456,0.005596969688094218,0.7268381796216239,1.611243803410767,0,0,0,0,0,0,1500,1500,1500,1500,1500,1500
1748735693.8603306,0.01,-0.02,0.0,0.002181661564992912,-0.003272492347489368,-0.001090830782496456,0.005596969688094218,0.7268381796216239,1.611243803410767,0,0,0,0,0,0,1500,1500,1500,1500,1500,1500
1748735693.959054,0.01,-0.02,0.0,0.002181661564992912,-0.003272492347489368,-0.001090830782496456,0.005596969688094218,0.7268381796216239,1.611243803410767,0,0,0,0,0,0,1500,1500,1500,1500,1500,1500
1748735694.060312,0.01,-0.02,0.04,0.004363323129985824,0.001090830782496456,0.0,0.005596969688094218,0.7268381796216239,1.611243803410767,0,0,0,0,0,0,1500,1500,1500,1500,1500,1500
1748735694.1601496,0.0,0.0,0.02,0.003272492347489368,0.00545415391248228,-0.002181661564992912,0.005596969688094218,0.7268381796216239,1.611243803410767,0,0,0,0,0,0,1500,1500,1500,1500,1500,1500
1748735694.2430239,0.0,0.0,0.02,0.003272492347489368,0.00545415391248228,-0.002181661564992912,0.005596969688094218,0.7268381796216239,1.611243803410767,0,0,0,0,0,0,1500,1500,1500,1500,1500,1500
1748735694.3448267,0.01,0.0,0.02,-0.003272492347489368,-0.001090830782496456,0.002181661564992912,0.005596969688094218,0.7268381796216239,1.611243803410767,0,0,0,0,0,0,1500,1500,1500,1500,1500,1500
1748735694.428101,0.01,0.0,0.02,-0.003272492347489368,-0.001090830782496456,0.002181661564992912,0.005596969688094218,0.7268381796216239,1.611243803410767,0,0,0,0,0,0,1500,1500,1500,1500,1500,1500
1748735694.526891,0.0,-0.03,0.03,-0.002181661564992912,-0.001090830782496456,0.0,0.005596969688094218,0.7268381796216239,1.611243803410767,0,0,0,0,0,0,1500,1500,1500,1500,1500,1500
1748735694.6276221,0.02,0.0,0.02,-0.004363323129985824,0.0,0.001090830782496456,0.005596969688094218,0.7268381796216239,1.611243803410767,0,0,0,0,0,0,1500,1500,1500,1500,1500,1500
1748735694.7102382,0.02,0.0,0.02,-0.004363323129985824,0.0,0.001090830782496456,0.005596969688094218,0.7268381796216239,1.611243803410767,0,0,0,0,0,0,1500,1500,1500,1500,1500,1500
1748735694.809889,0.02,-0.01,0.02,0.001090830782496456,-0.004363323129985824,0.0,0.005596969688094218,0.7268381796216239,1.611243803410767,0,0,0,0,0,0,1500,1500,1500,1500,1500,1500
1748735694.9087746,0.02,-0.01,0.02,0.001090830782496456,-0.004363323129985824,0.0,0.005596969688094218,0.7268381796216239,1.611243803410767,0,0,0,0,0,0,1500,1500,1500,1500,1500,1500
1748735694.9926214,0.0,0.0,0.0,0.001090830782496456,0.0,0.0,0.005596969688094218,0.7268381796216239,1.611243803410767,0,0,0,0,0,0,1500,1500,1500,1500,1500,1500
1748735695.0932946,0.01,0.0,0.08,0.003272492347489368,0.0,0.001090830782496456,0.005596969688094218,0.7268381796216239,1.611243803410767,0,0,0,0,0,0,1500,1500,1500,1500,1500,1500
1748735695.193045,0.01,0.0,0.08,0.003272492347489368,0.0,0.001090830782496456,0.005596969688094218,0.7268381796216239,1.611243803410767,0,0,0,0,0,0,1500,1500,1500,1500,1500,1500
1748735695.2927194,0.01,-0.04,0.05,-0.002181661564992912,0.003272492347489368,0.001090830782496456,0.005596969688094218,0.7268381796216239,1.611243803410767,0,0,0,0,0,0,1500,1500,1500,1500,1500,1500
1748735695.3935547,0.01,-0.04,0.05,-0.002181661564992912,0.003272492347489368,0.001090830782496456,0.005596969688094218,0.7268381796216239,1.611243803410767,0,0,0,0,0,0,1500,1500,1500,1500,1500,1500
1748735695.4760108,0.02,0.01,0.03,-0.001090830782496456,-0.003272492347489368,-0.001090830782496456,0.005596969688094218,0.7268381796216239,1.611243803410767,0,0,0,0,0,0,1500,1500,1500,1500,1500,1500
1748735695.576204,0.01,0.0,0.05,0.0,0.0,0.0,0.005596969688094218,0.7268381796216239,1.611243803410767,0,0,0,0,0,0,1500,1500,1500,1500,1500,1500
1748735695.6767175,0.01,0.0,0.05,0.0,0.0,0.0,0.005596969688094218,0.7268381796216239,1.611243803410767,0,0,0,0,0,0,1500,1500,1500,1500,1500,1500
1748735695.7753937,0.0,0.0,0.01,-0.004363323129985824,-0.001090830782496456,0.004363323129985824,0.005596969688094218,0.7268381796216239,1.611243803410767,0,0,0,0,0,0,1500,1500,1500,1500,1500,1500
1748735695.875509,0.0,0.0,0.01,-0.004363323129985824,-0.001090830782496456,0.004363323129985824,0.005596969688094218,0.7268381796216239,1.611243803410767,0,0,0,0,0,0,1500,1500,1500,1500,1500,1500
1748735695.9747467,0.0,-0.02,0.03,-0.002181661564992912,0.001090830782496456,0.0,0.005596969688094218,0.7268381796216239,1.611243803410767,0,0,0,0,0,0,1500,1500,1500,1500,1500,1500
1748735696.07492,0.03,-0.03,0.01,-0.001090830782496456,-0.003272492347489368,0.001090830782496456,0.005596969688094218,0.7268381796216239,1.611243803410767,0,0,0,0,0,0,1500,1500,1500,1500,1500,1500
1748735696.174964,0.03,-0.03,0.01,-0.001090830782496456,-0.003272492347489368,0.001090830782496456,0.005596969688094218,0.7268381796216239,1.611243803410767,0,0,0,0,0,0,1500,1500,1500,1500,1500,1500
1748735696.258093,0.01,0.0,0.03,0.0,0.0,0.001090830782496456,0.005596969688094218,0.7268381796216239,1.611243803410767,0,0,0,0,0,0,1500,1500,1500,1500,1500,1500
1748735696.3538263,-0.01,-0.01,0.02,-0.001090830782496456,-0.001090830782496456,-0.001090830782496456,0.005596969688094218,0.7268381796216239,1.611243803410767,0,0,0,0,0,0,1500,1500,1500,1500,1500,1500
1748735696.4591324,-0.01,-0.01,0.02,-0.001090830782496456,-0.001090830782496456,-0.001090830782496456,0.005596969688094218,0.7268381796216239,1.611243803410767,0,0,0,0,0,0,1500,1500,1500,1500,1500,1500
1748735696.5602903,0.0,-0.03,0.06,0.002181661564992912,-0.001090830782496456,-0.001090830782496456,0.005596969688094218,0.7268381796216239,1.611243803410767,0,0,0,0,0,0,1500,1500,1500,1500,1500,1500
1748735696.659342,0.0,-0.03,0.06,0.002181661564992912,-0.001090830782496456,-0.001090830782496456,0.005596969688094218,0.7268381796216239,1.611243803410767,0,0,0,0,0,0,1500,1500,1500,1500,1500,1500
1748735696.7604477,0.0,-0.04,0.04,-0.00545415391248228,-0.002181661564992912,-0.001090830782496456,0.005596969688094218,0.7268381796216239,1.611243803410767,0,0,0,0,0,0,1500,1500,1500,1500,1500,1500
1748735696.8593855,0.0,0.0,0.03,-0.004363323129985824,0.0,0.0,0.005596969688094218,0.7268381796216239,1.611243803410767,0,0,0,0,0,0,1500,1500,1500,1500,1500,1500
1748735696.9426537,0.0,0.0,0.03,-0.004363323129985824,0.0,0.0,0.005596969688094218,0.7268381796216239,1.611243803410767,0,0,0,0,0,0,1500,1500,1500,1500,1500,1500
1748735697.0453608,0.01,0.01,0.02,-0.002181661564992912,0.001090830782496456,-0.001090830782496456,0.005596969688094218,0.7268381796216239,1.611243803410767,0,0,0,0,0,0,1500,1500,1500,1500,1500,1500
1748735697.1416693,0.01,0.01,0.02,-0.002181661564992912,0.001090830782496456,-0.001090830782496456,0.005596969688094218,0.7268381796216239,1.611243803410767,0,0,0,0,0,0,1500,1500,1500,1500,1500,1500
1748735697.225554,0.0,0.0,0.0,0.001090830782496456,0.0,-0.001090830782496456,0.005596969688094218,0.7268381796216239,1.611243803410767,0,0,0,0,0,0,1500,1500,1500,1500,1500,1500
1748735697.325657,0.0,-0.03,0.01,-0.002181661564992912,0.002181661564992912,-0.001090830782496456,0.005596969688094218,0.7268381796216239,1.611243803410767,0,0,0,0,0,0,1500,1500,1500,1500,1500,1500
1748735697.4254448,0.0,-0.03,0.01,-0.002181661564992912,0.002181661564992912,-0.001090830782496456,0.005596969688094218,0.7268381796216239,1.611243803410767,0,0,0,0,0,0,1500,1500,1500,1500,1500,1500
1748735697.5093074,0.0,-0.01,0.0,-0.001090830782496456,0.0,-0.002181661564992912,0.005596969688094218,0.7268381796216239,1.611243803410767,0,0,0,0,0,0,1500,1500,1500,1500,1500,1500
1748735697.6080954,0.0,-0.01,0.0,-0.001090830782496456,0.0,-0.002181661564992912,0.005596969688094218,0.7268381796216239,1.611243803410767,0,0,0,0,0,0,1500,1500,1500,1500,1500,1500
1748735697.7075346,0.0,0.0,0.01,-0.002181661564992912,-0.001090830782496456,0.0,0.005596969688094218,0.7268381796216239,1.611243803410767,0,0,0,0,0,0,1500,1500,1500,1500,1500,1500
1748735697.8083198,0.0,0.0,0.01,0.001090830782496456,0.001090830782496456,0.0,0.005596969688094218,0.7268381796216239,1.611243803410767,0,0,0,0,0,0,1500,1500,1500,1500,1500,1500
1748735697.908139,0.0,0.0,0.01,0.001090830782496456,0.001090830782496456,0.0,0.005596969688094218,0.7268381796216239,1.611243803410767,0,0,0,0,0,0,1500,1500,1500,1500,1500,1500
1748735697.9922986,0.0,-0.02,0.04,-0.002181661564992912,-0.001090830782496456,0.0,0.005596969688094218,0.7268381796216239,1.611243803410767,0,0,0,0,0,0,1500,1500,1500,1500,1500,1500
1748735698.0931318,0.0,-0.02,0.04,-0.002181661564992912,-0.001090830782496456,0.0,0.005596969688094218,0.7268381796216239,1.611243803410767,0,0,0,0,0,0,1500,1500,1500,1500,1500,1500
1748735698.177867,0.0,-0.01,0.01,-0.002181661564992912,0.004363323129985824,0.001090830782496456,0.005596969688094218,0.7268381796216239,1.611243803410767,0,0,0,0,0,0,1500,1500,1500,1500,1500,1500
1748735698.2761467,0.01,0.01,0.03,-0.001090830782496456,-0.001090830782496456,0.001090830782496456,0.005596969688094218,0.7268381796216239,1.611243803410767,0,0,0,0,0,0,1500,1500,1500,1500,1500,1500
1748735698.3751273,0.01,0.01,0.03,-0.001090830782496456,-0.001090830782496456,0.001090830782496456,0.005596969688094218,0.7268381796216239,1.611243803410767,0,0,0,0,0,0,1500,1500,1500,1500,1500,1500
1748735698.4612617,0.01,-0.01,0.04,-0.001090830782496456,-0.002181661564992912,0.0,0.005596969688094218,0.7268381796216239,1.611243803410767,0,0,0,0,0,0,1500,1500,1500,1500,1500,1500
1748735698.5605621,0.01,-0.01,0.04,-0.001090830782496456,-0.002181661564992912,0.0,0.005596969688094218,0.7268381796216239,1.611243803410767,0,0,0,0,0,0,1500,1500,1500,1500,1500,1500
1748735698.6602528,0.0,0.01,0.03,0.0,-0.001090830782496456,-0.001090830782496456,0.005596969688094218,0.7268381796216239,1.611243803410767,0,0,0,0,0,0,1500,1500,1500,1500,1500,1500
1748735698.7603498,0.02,-0.01,0.06,0.003272492347489368,-0.001090830782496456,0.0,0.005596969688094218,0.7268381796216239,1.611243803410767,0,0,0,0,0,0,1500,1500,1500,1500,1500,1500
1748735698.8610854,0.02,-0.01,0.06,0.003272492347489368,-0.001090830782496456,0.0,0.005596969688094218,0.7268381796216239,1.611243803410767,0,0,0,0,0,0,1500,1500,1500,1500,1500,1500
1748735698.9430985,0.0,-0.03,0.04,0.003272492347489368,-0.001090830782496456,0.0,0.005596969688094218,0.7268381796216239,1.611243803410767,0,0,0,0,0,0,1500,1500,1500,1500,1500,1500
1748735699.0434015,0.0,-0.03,0.04,0.003272492347489368,-0.001090830782496456,0.0,0.005596969688094218,0.7268381796216239,1.611243803410767,0,0,0,0,0,0,1500,1500,1500,1500,1500,1500
1748735699.1435764,0.03,0.0,0.01,0.002181661564992912,0.001090830782496456,-0.001090830782496456,0.005596969688094218,0.7268381796216239,1.611243803410767,0,0,0,0,0,0,1500,1500,1500,1500,1500,1500
1748735699.2260244,0.02,-0.01,0.06,0.001090830782496456,-0.001090830782496456,0.0,0.005596969688094218,0.7268381796216239,1.611243803410767,0,0,0,0,0,0,1500,1500,1500,1500,1500,1500
1748735699.3267868,0.02,-0.01,0.06,0.001090830782496456,-0.001090830782496456,0.0,0.005596969688094218,0.7268381796216239,1.611243803410767,0,0,0,0,0,0,1500,1500,1500,1500,1500,1500
1748735699.4270062,0.0,-0.03,0.02,0.001090830782496456,0.0,0.001090830782496456,0.005596969688094218,0.7268381796216239,1.611243803410767,0,0,0,0,0,0,1500,1500,1500,1500,1500,1500
1748735699.526856,0.0,-0.03,0.02,0.001090830782496456,0.0,0.001090830782496456,0.005596969688094218,0.7268381796216239,1.611243803410767,0,0,0,0,0,0,1500,1500,1500,1500,1500,1500
1748735699.6261342,0.01,-0.04,0.04,-0.001090830782496456,0.001090830782496456,0.002181661564992912,0.005596969688094218,0.7268381796216239,1.611243803410767,0,0,0,0,0,0,1500,1500,1500,1500,1500,1500
1748735699.7105165,-0.02,-0.01,0.03,0.0,-0.002181661564992912,-0.003272492347489368,0.005596969688094218,0.7268381796216239,1.611243803410767,0,0,0,0,0,0,1500,1500,1500,1500,1500,1500
1748735699.809179,-0.02,-0.01,0.03,0.0,-0.002181661564992912,-0.003272492347489368,0.005596969688094218,0.7268381796216239,1.611243803410767,0,0,0,0,0,0,1500,1500,1500,1500,1500,1500
1748735699.9088078,0.0,0.0,0.02,0.003272492347489368,-0.003272492347489368,0.0,0.005596969688094218,0.7268381796216239,1.611243803410767,0,0,0,0,0,0,1500,1500,1500,1500,1500,1500
1748735700.0040524,0.0,0.0,0.02,0.003272492347489368,-0.003272492347489368,0.0,0.005596969688094218,0.7268381796216239,1.611243803410767,0,0,0,0,0,0,1500,1500,1500,1500,1500,1500
1748735700.110503,0.01,0.0,0.03,-0.001090830782496456,-0.002181661564992912,-0.003272492347489368,0.005596969688094218,0.7268381796216239,1.611243803410767,0,0,0,0,0,0,1500,1500,1500,1500,1500,1500
1748735700.1930983,0.0,-0.05,0.05,0.001090830782496456,0.0,0.0,0.005596969688094218,0.7268381796216239,1.611243803410767,0,0,0,0,0,0,1500,1500,1500,1500,1500,1500
1748735700.2913458,0.0,-0.05,0.05,0.001090830782496456,0.0,0.0,0.005596969688094218,0.7268381796216239,1.611243803410767,0,0,0,0,0,0,1500,1500,1500,1500,1500,1500
1748735700.3919926,0.02,-0.01,0.03,-0.001090830782496456,0.004363323129985824,0.0,0.005596969688094218,0.7268381796216239,1.611243803410767,0,0,0,0,0,0,1500,1500,1500,1500,1500,1500
1748735700.4747138,0.02,-0.01,0.03,-0.001090830782496456,0.004363323129985824,0.0,0.005596969688094218,0.7268381796216239,1.611243803410767,0,0,0,0,0,0,1500,1500,1500,1500,1500,1500
1748735700.5767455,0.01,0.0,-0.01,0.002181661564992912,0.003272492347489368,0.001090830782496456,0.005596969688094218,0.7268381796216239,1.611243803410767,0,0,0,0,0,0,1500,1500,1500,1500,1500,1500
1748735700.6765363,0.02,0.0,0.0,0.001090830782496456,-0.004363323129985824,-0.001090830782496456,0.005596969688094218,0.7268381796216239,1.611243803410767,0,0,0,0,0,0,1500,1500,1500,1500,1500,1500
1748735700.7753477,0.02,0.0,0.0,0.001090830782496456,-0.004363323129985824,-0.001090830782496456,0.005596969688094218,0.7268381796216239,1.611243803410767,0,0,0,0,0,0,1500,1500,1500,1500,1500,1500
1748735700.875387,0.0,-0.02,0.03,0.002181661564992912,0.002181661564992912,-0.003272492347489368,0.005596969688094218,0.7268381796216239,1.611243803410767,0,0,0,0,0,0,1500,1500,1500,1500,1500,1500
1748735700.9587069,0.0,-0.02,0.03,0.002181661564992912,0.002181661564992912,-0.003272492347489368,0.005596969688094218,0.7268381796216239,1.611243803410767,0,0,0,0,0,0,1500,1500,1500,1500,1500,1500
1748735701.061013,0.02,-0.04,0.03,0.0,0.0,-0.001090830782496456,0.005596969688094218,0.7268381796216239,1.611243803410767,0,0,0,0,0,0,1500,1500,1500,1500,1500,1500
1748735701.1595454,0.02,-0.04,0.02,0.001090830782496456,-0.003272492347489368,-0.001090830782496456,0.005596969688094218,0.7268381796216239,1.611243803410767,0,0,0,0,0,0,1500,1500,1500,1500,1500,1500
1748735701.2419517,0.02,-0.04,0.02,0.001090830782496456,-0.003272492347489368,-0.001090830782496456,0.005596969688094218,0.7268381796216239,1.611243803410767,0,0,0,0,0,0,1500,1500,1500,1500,1500,1500
1748735701.3443074,0.02,-0.01,-0.01,-0.001090830782496456,0.003272492347489368,0.0,0.005596969688094218,0.7268381796216239,1.611243803410767,0,0,0,0,0,0,1500,1500,1500,1500,1500,1500
1748735701.4375098,0.01,0.0,0.03,0.002181661564992912,-0.002181661564992912,0.0,0.005596969688094218,0.7268381796216239,1.611243803410767,0,0,0,0,0,0,1500,1500,1500,1500,1500,1500
1748735701.5260532,0.01,0.0,0.03,0.002181661564992912,-0.002181661564992912,0.0,0.005596969688094218,0.7268381796216239,1.611243803410767,0,0,0,0,0,0,1500,1500,1500,1500,1500,1500
1748735701.6260388,0.0,0.02,0.06,0.002181661564992912,-0.002181661564992912,0.001090830782496456,0.005596969688094218,0.7268381796216239,1.611243803410767,0,0,0,0,0,0,1500,1500,1500,1500,1500,1500
1748735701.7103724,0.0,0.02,0.06,0.002181661564992912,-0.002181661564992912,0.001090830782496456,0.005596969688094218,0.7268381796216239,1.611243803410767,0,0,0,0,0,0,1500,1500,1500,1500,1500,1500
1748735701.8094494,-0.01,-0.02,0.06,0.0,0.0,0.0,0.005596969688094218,0.7268381796216239,1.611243803410767,0,0,0,0,0,0,1500,1500,1500,1500,1500,1500
1748735701.909049,0.0,-0.01,0.03,0.001090830782496456,0.001090830782496456,0.001090830782496456,0.005596969688094218,0.7268381796216239,1.611243803410767,0,0,0,0,0,0,1500,1500,1500,1500,1500,1500
1748735701.9928064,0.0,-0.01,0.03,0.001090830782496456,0.001090830782496456,0.001090830782496456,0.005596969688094218,0.7268381796216239,1.611243803410767,0,0,0,0,0,0,1500,1500,1500,1500,1500,1500
1748735702.0935519,0.02,0.0,-0.01,0.002181661564992912,0.001090830782496456,0.0,0.005596969688094218,0.7268381796216239,1.611243803410767,0,0,0,0,0,0,1500,1500,1500,1500,1500,1500
1748735702.1925125,0.02,0.0,-0.01,0.002181661564992912,0.001090830782496456,0.0,0.005596969688094218,0.7268381796216239,1.611243803410767,0,0,0,0,0,0,1500,1500,1500,1500,1500,1500
1748735702.2933557,0.02,0.01,0.04,0.003272492347489368,-0.002181661564992912,-0.001090830782496456,0.005596969688094218,0.7268381796216239,1.611243803410767,0,0,0,0,0,0,1500,1500,1500,1500,1500,1500
1748735702.3887756,0.0,-0.01,0.02,0.0,-0.001090830782496456,-0.003272492347489368,0.005596969688094218,0.7268381796216239,1.611243803410767,0,0,0,0,0,0,1500,1500,1500,1500,1500,1500
1748735702.477234,0.0,-0.01,0.02,0.0,-0.001090830782496456,-0.003272492347489368,0.005596969688094218,0.7268381796216239,1.611243803410767,0,0,0,0,0,0,1500,1500,1500,1500,1500,1500
1748735702.5766242,0.0,-0.04,0.06,0.001090830782496456,0.002181661564992912,0.0,0.005596969688094218,0.7268381796216239,1.611243803410767,0,0,0,0,0,0,1500,1500,1500,1500,1500,1500
1748735702.6759672,0.0,-0.04,0.06,0.001090830782496456,0.002181661564992912,0.0,0.005596969688094218,0.7268381796216239,1.611243803410767,0,0,0,0,0,0,1500,1500,1500,1500,1500,1500
1748735702.7758348,-0.03,0.0,0.01,-0.003272492347489368,-0.004363323129985824,-0.001090830782496456,0.005596969688094218,0.7268381796216239,1.611243803410767,0,0,0,0,0,0,1500,1500,1500,1500,1500,1500
1748735702.8772445,0.0,0.0,0.03,0.002181661564992912,-0.001090830782496456,0.0,0.005596969688094218,0.7268381796216239,1.611243803410767,0,0,0,0,0,0,1500,1500,1500,1500,1500,1500
1748735702.960188,0.0,0.0,0.03,0.002181661564992912,-0.001090830782496456,0.0,0.005596969688094218,0.7268381796216239,1.611243803410767,0,0,0,0,0,0,1500,1500,1500,1500,1500,1500
1748735703.058731,0.0,0.0,0.02,0.001090830782496456,-0.001090830782496456,-0.001090830782496456,0.005596969688094218,0.7268381796216239,1.611243803410767,0,0,0,0,0,0,1500,1500,1500,1500,1500,1500
1748735703.1594582,0.0,0.0,0.02,0.001090830782496456,-0.001090830782496456,-0.001090830782496456,0.005596969688094218,0.7268381796216239,1.611243803410767,0,0,0,0,0,0,1500,1500,1500,1500,1500,1500
1748735703.2415056,0.01,-0.02,0.04,0.0,0.001090830782496456,0.001090830782496456,0.005596969688094218,0.7268381796216239,1.611243803410767,0,0,0,0,0,0,1500,1500,1500,1500,1500,1500
1748735703.3392081,0.0,-0.04,0.03,-0.001090830782496456,-0.00545415391248228,0.001090830782496456,0.005596969688094218,0.7268381796216239,1.611243803410767,0,0,0,0,0,0,1500,1500,1500,1500,1500,1500
1748735703.44308,0.0,-0.04,0.03,-0.001090830782496456,-0.00545415391248228,0.001090830782496456,0.005596969688094218,0.7268381796216239,1.611243803410767,0,0,0,0,0,0,1500,1500,1500,1500,1500,1500
1748735703.543345,0.01,-0.01,0.05,0.0,0.002181661564992912,0.0,0.005596969688094218,0.7268381796216239,1.611243803410767,0,0,0,0,0,0,1500,1500,1500,1500,1500,1500
1748735703.642375,0.01,-0.01,0.05,0.0,0.002181661564992912,0.0,0.005596969688094218,0.7268381796216239,1.611243803410767,0,0,0,0,0,0,1500,1500,1500,1500,1500,1500
1748735703.726166,0.0,-0.01,0.02,0.002181661564992912,-0.001090830782496456,0.001090830782496456,0.005596969688094218,0.7268381796216239,1.611243803410767,0,0,0,0,0,0,1500,1500,1500,1500,1500,1500
1748735703.8266342,0.0,-0.02,0.04,0.004363323129985824,0.00545415391248228,-0.001090830782496456,0.005596969688094218,0.7268381796216239,1.611243803410767,0,0,0,0,0,0,1500,1500,1500,1500,1500,1500
1748735703.9268878,0.0,-0.02,0.04,0.004363323129985824,0.00545415391248228,-0.001090830782496456,0.005596969688094218,0.7268381796216239,1.611243803410767,0,0,0,0,0,0,1500,1500,1500,1500,1500,1500
1748735704.0278144,0.0,-0.04,0.05,-0.001090830782496456,0.003272492347489368,0.001090830782496456,0.005596969688094218,0.7268381796216239,1.611243803410767,0,0,0,0,0,0,1500,1500,1500,1500,1500,1500
1748735704.127769,0.0,-0.04,0.05,-0.001090830782496456,0.003272492347489368,0.001090830782496456,0.005596969688094218,0.7268381796216239,1.611243803410767,0,0,0,0,0,0,1500,1500,1500,1500,1500,1500
1748735704.2135527,0.0,-0.02,0.02,-0.003272492347489368,0.001090830782496456,0.001090830782496456,0.005596969688094218,0.7268381796216239,1.611243803410767,0,0,0,0,0,0,1500,1500,1500,1500,1500,1500
1748735704.3108182,0.0,-0.01,0.0,0.002181661564992912,-0.001090830782496456,-0.002181661564992912,0.005596969688094218,0.7268381796216239,1.611243803410767,0,0,0,0,0,0,1500,1500,1500,1500,1500,1500
1748735704.4094574,0.0,-0.01,0.0,0.002181661564992912,-0.001090830782496456,-0.002181661564992912,0.005596969688094218,0.7268381796216239,1.611243803410767,0,0,0,0,0,0,1500,1500,1500,1500,1500,1500
1748735704.4926684,0.03,0.0,0.02,0.002181661564992912,0.002181661564992912,0.0,0.005596969688094218,0.7268381796216239,1.611243803410767,0,0,0,0,0,0,1500,1500,1500,1500,1500,1500
1748735704.5925224,0.03,0.0,0.02,0.002181661564992912,0.002181661564992912,0.0,0.005596969688094218,0.7268381796216239,1.611243803410767,0,0,0,0,0,0,1500,1500,1500,1500,1500,1500
1748735704.6930509,0.01,-0.01,0.06,0.001090830782496456,0.001090830782496456,-0.001090830782496456,0.005596969688094218,0.7268381796216239,1.611243803410767,0,0,0,0,0,0,1500,1500,1500,1500,1500,1500
1748735704.7939448,0.01,0.0,0.06,-0.002181661564992912,-0.002181661564992912,-0.002181661564992912,0.005596969688094218,0.7268381796216239,1.611243803410767,0,0,0,0,0,0,1500,1500,1500,1500,1500,1500
1748735704.8930297,0.01,0.0,0.06,-0.002181661564992912,-0.002181661564992912,-0.002181661564992912,0.005596969688094218,0.7268381796216239,1.611243803410767,0,0,0,0,0,0,1500,1500,1500,1500,1500,1500
1748735704.975852,0.0,-0.03,0.0,-0.001090830782496456,-0.003272492347489368,0.001090830782496456,0.005596969688094218,0.7268381796216239,1.611243803410767,0,0,0,0,0,0,1500,1500,1500,1500,1500,1500
1748735705.076041,0.0,-0.03,0.0,-0.001090830782496456,-0.003272492347489368,0.001090830782496456,0.005596969688094218,0.7268381796216239,1.611243803410767,0,0,0,0,0,0,1500,1500,1500,1500,1500,1500
1748735705.1763167,0.01,-0.04,0.04,0.001090830782496456,0.0,0.002181661564992912,0.005596969688094218,0.7268381796216239,1.611243803410767,0,0,0,0,0,0,1500,1500,1500,1500,1500,1500
1748735705.275316,-0.01,0.0,0.0,0.0,0.0,0.001090830782496456,0.005596969688094218,0.7268381796216239,1.611243803410767,0,0,0,0,0,0,1500,1500,1500,1500,1500,1500
1748735705.3753598,-0.01,0.0,0.0,0.0,0.0,0.001090830782496456,0.005596969688094218,0.7268381796216239,1.611243803410767,0,0,0,0,0,0,1500,1500,1500,1500,1500,1500
1748735705.4588778,0.02,-0.01,0.0,0.0,0.001090830782496456,-0.002181661564992912,0.005596969688094218,0.7268381796216239,1.611243803410767,0,0,0,0,0,0,1500,1500,1500,1500,1500,1500
1748735705.5589547,0.02,-0.01,0.0,0.0,0.001090830782496456,-0.002181661564992912,0.005596969688094218,0.7268381796216239,1.611243803410767,0,0,0,0,0,0,1500,1500,1500,1500,1500,1500
1748735705.6587212,-0.02,0.0,0.02,-0.004363323129985824,-0.003272492347489368,0.002181661564992912,0.005596969688094218,0.7268381796216239,1.611243803410767,0,0,0,0,0,0,1500,1500,1500,1500,1500,1500
1748735705.7419932,0.0,-0.03,0.02,0.001090830782496456,-0.002181661564992912,0.001090830782496456,0.005596969688094218,0.7268381796216239,1.611243803410767,0,0,0,0,0,0,1500,1500,1500,1500,1500,1500
1748735705.8428671,0.0,-0.03,0.02,0.001090830782496456,-0.002181661564992912,0.001090830782496456,0.005596969688094218,0.7268381796216239,1.611243803410767,0,0,0,0,0,0,1500,1500,1500,1500,1500,1500
1748735705.9431872,0.0,-0.03,0.0,0.002181661564992912,0.004363323129985824,0.001090830782496456,0.005596969688094218,0.7268381796216239,1.611243803410767,0,0,0,0,0,0,1500,1500,1500,1500,1500,1500
1748735706.0433095,0.0,-0.03,0.0,0.002181661564992912,0.004363323129985824,0.001090830782496456,0.005596969688094218,0.7268381796216239,1.611243803410767,0,0,0,0,0,0,1500,1500,1500,1500,1500,1500
1748735706.144145,0.0,-0.01,0.0,0.002181661564992912,0.002181661564992912,-0.001090830782496456,0.005596969688094218,0.7268381796216239,1.611243803410767,0,0,0,0,0,0,1500,1500,1500,1500,1500,1500
1748735706.2280576,-0.01,0.0,0.01,0.002181661564992912,0.002181661564992912,0.0,0.005596969688094218,0.7268381796216239,1.611243803410767,0,0,0,0,0,0,1500,1500,1500,1500,1500,1500
1748735706.3272116,-0.01,0.0,0.01,0.002181661564992912,0.002181661564992912,0.0,0.005596969688094218,0.7268381796216239,1.611243803410767,0,0,0,0,0,0,1500,1500,1500,1500,1500,1500
1748735706.4261453,0.0,0.0,0.03,0.002181661564992912,-0.001090830782496456,0.0,0.005596969688094218,0.7268381796216239,1.611243803410767,0,0,0,0,0,0,1500,1500,1500,1500,1500,1500
1748735706.5271227,0.0,-0.01,0.03,-0.001090830782496456,0.003272492347489368,0.001090830782496456,0.005596969688094218,0.7268381796216239,1.611243803410767,0,0,0,0,0,0,1500,1500,1500,1500,1500,1500
1748735706.6269925,0.0,-0.01,0.03,-0.001090830782496456,0.003272492347489368,0.001090830782496456,0.005596969688094218,0.7268381796216239,1.611243803410767,0,0,0,0,0,0,1500,1500,1500,1500,1500,1500
1748735706.710388,0.0,0.0,0.02,-0.003272492347489368,0.0,0.002181661564992912,0.005596969688094218,0.7268381796216239,1.611243803410767,0,0,0,0,0,0,1500,1500,1500,1500,1500,1500
1748735706.8109477,0.0,0.0,0.02,-0.003272492347489368,0.0,0.002181661564992912,0.005596969688094218,0.7268381796216239,1.611243803410767,0,0,0,0,0,0,1500,1500,1500,1500,1500,1500
1748735706.909547,0.0,-0.03,0.0,0.001090830782496456,-0.004363323129985824,0.0,0.005596969688094218,0.7268381796216239,1.611243803410767,0,0,0,0,0,0,1500,1500,1500,1500,1500,1500
1748735706.9920084,0.0,-0.03,0.0,0.001090830782496456,-0.004363323129985824,0.0,0.005596969688094218,0.7268381796216239,1.611243803410767,0,0,0,0,0,0,1500,1500,1500,1500,1500,1500
1748735707.0932317,0.02,-0.01,0.0,0.001090830782496456,0.0,-0.001090830782496456,0.005596969688094218,0.7268381796216239,1.611243803410767,0,0,0,0,0,0,1500,1500,1500,1500,1500,1500
1748735707.194793,0.01,0.0,0.0,0.002181661564992912,-0.001090830782496456,0.001090830782496456,0.005596969688094218,0.7268381796216239,1.611243803410767,0,0,0,0,0,0,1500,1500,1500,1500,1500,1500
1748735707.2935448,0.01,0.0,0.0,0.002181661564992912,-0.001090830782496456,0.001090830782496456,0.005596969688094218,0.7268381796216239,1.611243803410767,0,0,0,0,0,0,1500,1500,1500,1500,1500,1500
1748735707.3935533,0.0,0.0,0.04,0.001090830782496456,0.0,0.0,0.005596969688094218,0.7268381796216239,1.611243803410767,0,0,0,0,0,0,1500,1500,1500,1500,1500,1500
1748735707.4763064,0.0,-0.02,0.03,0.0,-0.001090830782496456,0.0,0.005596969688094218,0.7268381796216239,1.611243803410767,0,0,0,0,0,0,1500,1500,1500,1500,1500,1500
1748735707.5781345,0.0,-0.02,0.03,0.0,-0.001090830782496456,0.0,0.005596969688094218,0.7268381796216239,1.611243803410767,0,0,0,0,0,0,1500,1500,1500,1500,1500,1500
1748735707.6763382,0.02,-0.04,0.03,-0.002181661564992912,-0.002181661564992912,0.0,0.005596969688094218,0.7268381796216239,1.611243803410767,0,0,0,0,0,0,1500,1500,1500,1500,1500,1500
1748735707.7759423,0.02,-0.04,0.03,-0.002181661564992912,-0.002181661564992912,0.0,0.005596969688094218,0.7268381796216239,1.611243803410767,0,0,0,0,0,0,1500,1500,1500,1500,1500,1500
1748735707.8753927,-0.01,0.0,0.01,0.001090830782496456,0.0,0.003272492347489368,0.005596969688094218,0.7268381796216239,1.611243803410767,0,0,0,0,0,0,1500,1500,1500,1500,1500,1500
1748735707.961107,0.0,-0.01,0.01,0.0,-0.002181661564992912,0.001090830782496456,0.005596969688094218,0.7268381796216239,1.611243803410767,0,0,0,0,0,0,1500,1500,1500,1500,1500,1500
1748735708.0609205,0.0,-0.01,0.01,0.0,-0.002181661564992912,0.001090830782496456,0.005596969688094218,0.7268381796216239,1.611243803410767,0,0,0,0,0,0,1500,1500,1500,1500,1500,1500
1748735708.1603818,0.03,0.0,0.02,0.002181661564992912,0.0,0.0,0.005596969688094218,0.7268381796216239,1.611243803410767,0,0,0,0,0,0,1500,1500,1500,1500,1500,1500
1748735708.2648497,0.03,0.0,0.02,0.002181661564992912,0.0,0.0,0.005596969688094218,0.7268381796216239,1.611243803410767,0,0,0,0,0,0,1500,1500,1500,1500,1500,1500
1748735708.3606758,0.0,-0.03,0.05,0.0,-0.001090830782496456,0.0,0.005596969688094218,0.7268381796216239,1.611243803410767,0,0,0,0,0,0,1500,1500,1500,1500,1500,1500
1748735708.4444897,0.0,-0.02,0.01,0.0,0.001090830782496456,-0.001090830782496456,0.005596969688094218,0.7268381796216239,1.611243803410767,0,0,0,0,0,0,1500,1500,1500,1500,1500,1500
1748735708.5429504,0.0,-0.02,0.01,0.0,0.001090830782496456,-0.001090830782496456,0.005596969688094218,0.7268381796216239,1.611243803410767,0,0,0,0,0,0,1500,1500,1500,1500,1500,1500
1748735708.6429098,0.03,-0.02,-0.01,-0.001090830782496456,0.001090830782496456,0.0,0.005596969688094218,0.7268381796216239,1.611243803410767,0,0,0,0,0,0,1500,1500,1500,1500,1500,1500
1748735708.7260365,0.03,-0.02,-0.01,-0.001090830782496456,0.001090830782496456,0.0,0.005596969688094218,0.7268381796216239,1.611243803410767,0,0,0,0,0,0,1500,1500,1500,1500,1500,1500
1748735708.8259187,0.0,-0.01,0.02,-0.001090830782496456,0.001090830782496456,0.002181661564992912,0.005596969688094218,0.7268381796216239,1.611243803410767,0,0,0,0,0,0,1500,1500,1500,1500,1500,1500
1748735708.9265556,0.01,0.0,0.0,0.002181661564992912,0.001090830782496456,0.001090830782496456,0.005596969688094218,0.7268381796216239,1.611243803410767,0,0,0,0,0,0,1500,1500,1500,1500,1500,1500
1748735709.0259416,0.01,0.0,0.0,0.002181661564992912,0.001090830782496456,0.001090830782496456,0.005596969688094218,0.7268381796216239,1.611243803410767,0,0,0,0,0,0,1500,1500,1500,1500,1500,1500
1748735709.126682,0.01,-0.01,0.07,-0.002181661564992912,0.00545415391248228,-0.001090830782496456,0.005596969688094218,0.7268381796216239,1.611243803410767,0,0,0,0,0,0,1500,1500,1500,1500,1500,1500
1748735709.210537,0.01,-0.01,0.07,-0.002181661564992912,0.00545415391248228,-0.001090830782496456,0.005596969688094218,0.7268381796216239,1.611243803410767,0,0,0,0,0,0,1500,1500,1500,1500,1500,1500
1748735709.3088129,0.0,-0.03,0.06,0.001090830782496456,-0.001090830782496456,0.001090830782496456,0.005596969688094218,0.7268381796216239,1.611243803410767,0,0,0,0,0,0,1500,1500,1500,1500,1500,1500
1748735709.4084795,0.0,-0.02,0.03,-0.002181661564992912,-0.002181661564992912,0.002181661564992912,0.005596969688094218,0.7268381796216239,1.611243803410767,0,0,0,0,0,0,1500,1500,1500,1500,1500,1500
1748735709.4926832,0.0,-0.02,0.03,-0.002181661564992912,-0.002181661564992912,0.002181661564992912,0.005596969688094218,0.7268381796216239,1.611243803410767,0,0,0,0,0,0,1500,1500,1500,1500,1500,1500
1748735709.5926013,0.0,0.01,-0.01,-0.001090830782496456,-0.001090830782496456,0.002181661564992912,0.005596969688094218,0.7268381796216239,1.611243803410767,0,0,0,0,0,0,1500,1500,1500,1500,1500,1500
1748735709.6938934,0.0,0.01,-0.01,-0.001090830782496456,-0.001090830782496456,0.002181661564992912,0.005596969688094218,0.7268381796216239,1.611243803410767,0,0,0,0,0,0,1500,1500,1500,1500,1500,1500
1748735709.7929165,0.0,0.0,0.02,0.0,0.003272492347489368,-0.002181661564992912,0.005596969688094218,0.7268381796216239,1.611243803410767,0,0,0,0,0,0,1500,1500,1500,1500,1500,1500
1748735709.893793,0.0,-0.04,0.02,0.001090830782496456,0.0,0.0,0.005596969688094218,0.7268381796216239,1.611243803410767,0,0,0,0,0,0,1500,1500,1500,1500,1500,1500
1748735709.976372,0.0,-0.04,0.02,0.001090830782496456,0.0,0.0,0.005596969688094218,0.7268381796216239,1.611243803410767,0,0,0,0,0,0,1500,1500,1500,1500,1500,1500
1748735710.0783567,0.01,-0.05,0.05,-0.001090830782496456,0.002181661564992912,0.0,0.005596969688094218,0.7268381796216239,1.611243803410767,0,0,0,0,0,0,1500,1500,1500,1500,1500,1500
1748735710.176833,0.01,-0.05,0.05,-0.001090830782496456,0.002181661564992912,0.0,0.005596969688094218,0.7268381796216239,1.611243803410767,0,0,0,0,0,0,1500,1500,1500,1500,1500,1500
1748735710.2755945,0.0,-0.04,0.04,0.0,0.002181661564992912,-0.001090830782496456,0.005596969688094218,0.7268381796216239,1.611243803410767,0,0,0,0,0,0,1500,1500,1500,1500,1500,1500
1748735710.3757098,0.0,0.01,0.03,-0.001090830782496456,0.0,-0.001090830782496456,0.005596969688094218,0.7268381796216239,1.611243803410767,0,0,0,0,0,0,1500,1500,1500,1500,1500,1500
1748735710.4647183,0.0,0.01,0.03,-0.001090830782496456,0.0,-0.001090830782496456,0.005596969688094218,0.7268381796216239,1.611243803410767,0,0,0,0,0,0,1500,1500,1500,1500,1500,1500
1748735710.560418,0.01,0.02,0.0,0.0,0.002181661564992912,0.001090830782496456,0.005596969688094218,0.7268381796216239,1.611243803410767,0,0,0,0,0,0,1500,1500,1500,1500,1500,1500
1748735710.6588807,0.01,0.02,0.0,0.0,0.002181661564992912,0.001090830782496456,0.005596969688094218,0.7268381796216239,1.611243803410767,0,0,0,0,0,0,1500,1500,1500,1500,1500,1500
1748735710.7423413,0.0,0.0,0.01,-0.002181661564992912,0.0,0.001090830782496456,0.005596969688094218,0.7268381796216239,1.611243803410767,0,0,0,0,0,0,1500,1500,1500,1500,1500,1500
1748735710.8425164,0.0,-0.01,0.08,0.002181661564992912,-0.002181661564992912,0.0,0.005596969688094218,0.7268381796216239,1.611243803410767,0,0,0,0,0,0,1500,1500,1500,1500,1500,1500
1748735710.943487,0.0,-0.01,0.08,0.002181661564992912,-0.002181661564992912,0.0,0.005596969688094218,0.7268381796216239,1.611243803410767,0,0,0,0,0,0,1500,1500,1500,1500,1500,1500
1748735711.0441504,-0.01,-0.04,0.06,0.0,0.001090830782496456,-0.001090830782496456,0.005596969688094218,0.7268381796216239,1.611243803410767,0,0,0,0,0,0,1500,1500,1500,1500,1500,1500
1748735711.132041,0.0,-0.02,0.0,-0.003272492347489368,-0.001090830782496456,0.001090830782496456,0.005596969688094218,0.7268381796216239,1.611243803410767,0,0,0,0,0,0,1500,1500,1500,1500,1500,1500
1748735711.2249763,0.0,-0.02,0.0,-0.003272492347489368,-0.001090830782496456,0.001090830782496456,0.005596969688094218,0.7268381796216239,1.611243803410767,0,0,0,0,0,0,1500,1500,1500,1500,1500,1500
1748735711.326764,-0.01,-0.01,0.04,0.0,-0.001090830782496456,0.0,0.005596969688094218,0.7268381796216239,1.611243803410767,0,0,0,0,0,0,1500,1500,1500,1500,1500,1500
1748735711.425971,-0.01,-0.01,0.04,0.0,-0.001090830782496456,0.0,0.005596969688094218,0.7268381796216239,1.611243803410767,0,0,0,0,0,0,1500,1500,1500,1500,1500,1500
1748735711.5274918,0.0,0.03,0.03,0.0,-0.001090830782496456,0.002181661564992912,0.005596969688094218,0.7268381796216239,1.611243803410767,0,0,0,0,0,0,1500,1500,1500,1500,1500,1500
1748735711.626175,0.01,-0.02,0.05,0.001090830782496456,-0.002181661564992912,0.001090830782496456,2.679686550597007,-1.5707963267948966,1.5881697294787407,0,0,0,0,0,0,1500,1500,1500,1500,1500,1500
1748735711.710586,0.01,-0.02,0.05,0.001090830782496456,-0.002181661564992912,0.001090830782496456,2.679686550597007,-1.5707963267948966,1.5881697294787407,0,0,0,0,0,0,1500,1500,1500,1500,1500,1500
1748735711.8095367,0.0,-0.04,0.04,0.001090830782496456,-0.001090830782496456,-0.001090830782496456,0.005596969688094218,0.7268381796216239,1.611243803410767,0,0,0,0,0,0,1500,1500,1500,1500,1500,1500
