time,ay,ax,az,gy,gx,gz,roll,pitch,yaw,cmd_fx,cmd_fy,cmd_fz,cmd_tx,cmd_ty,cmd_tz,pwm_1,pwm_2,pwm_3,pwm_4,pwm_5,pwm_6
1747541610.925327,0.0,0.0,0.0,0.0,0.0,0.0,0.0,0.0,0.0,0,0,0,0,0,0,1500,1500,1500,1500,1500,1500
1747541611.010758,-0.11,-0.36,0.08,0.0,-0.004363323129985824,0.001090830782496456,1.8950011873271952,-0.18673080928541327,-0.2590539665890033,0,0,0,0,0,0,1500,1500,1500,1500,1500,1500
1747541611.109897,-0.11,-0.36,0.08,0.0,-0.004363323129985824,0.001090830782496456,1.8950011873271952,-0.18673080928541327,-0.2590539665890033,0,0,0,0,0,0,1500,1500,1500,1500,1500,1500
1747541611.2103639,-0.08,-0.33,0.08,-0.001090830782496456,0.003272492347489368,0.0,1.8950011873271952,-0.18673080928541327,-0.2590539665890033,0,0,0,0,0,0,1500,1500,1500,1500,1500,1500
1747541611.309054,-0.06,-0.32,0.16,-0.006544984694978736,-0.00545415391248228,0.0,1.8950011873271952,-0.18673080928541327,-0.2590539665890033,0,0,0,0,0,0,1500,1500,1500,1500,1500,1500
1747541611.409923,-0.06,-0.32,0.16,-0.006544984694978736,-0.00545415391248228,0.0,1.8950011873271952,-0.18673080928541327,-0.2590539665890033,0,0,0,0,0,0,1500,1500,1500,1500,1500,1500
1747541611.4932895,-0.01,-0.03,0.02,-0.002181661564992912,-0.002181661564992912,0.001090830782496456,1.8950011873271952,-0.18673080928541327,-0.2590539665890033,0,0,0,0,0,0,1500,1500,1500,1500,1500,1500
1747541611.5936816,-0.01,-0.03,0.02,-0.002181661564992912,-0.002181661564992912,0.001090830782496456,1.8950011873271952,-0.18673080928541327,-0.2590539665890033,0,0,0,0,0,0,1500,1500,1500,1500,1500,1500
1747541611.6935778,-0.01,-0.04,0.0,0.0,0.0,-0.001090830782496456,1.8950011873271952,-0.18673080928541327,-0.2590539665890033,0,0,0,0,0,0,1500,1500,1500,1500,1500,1500
1747541611.7774122,-0.01,-0.04,0.0,0.0,0.0,-0.001090830782496456,1.8950011873271952,-0.18673080928541327,-0.2590539665890033,0,0,0,0,0,0,1500,1500,1500,1500,1500,1500
1747541611.876115,-0.02,-0.03,0.05,0.002181661564992912,0.0,0.0,1.8950011873271952,-0.18673080928541327,-0.2590539665890033,0,0,0,0,0,0,1500,1500,1500,1500,1500,1500
1747541611.9774137,-0.02,-0.03,0.01,-0.003272492347489368,-0.004363323129985824,-0.002181661564992912,1.8950011873271952,-0.18673080928541327,-0.2590539665890033,0,0,0,0,0,0,1500,1500,1500,1500,1500,1500
1747541612.0763092,-0.02,-0.03,0.01,-0.003272492347489368,-0.004363323129985824,-0.002181661564992912,1.8950011873271952,-0.18673080928541327,-0.2590539665890033,0,0,0,0,0,0,1500,1500,1500,1500,1500,1500
1747541612.1771863,0.0,0.0,-0.04,0.001090830782496456,0.003272492347489368,0.001090830782496456,1.8950011873271952,-0.18673080928541327,-0.2590539665890033,0,0,0,0,0,0,1500,1500,1500,1500,1500,1500
1747541612.2592497,0.01,0.0,0.05,-0.002181661564992912,0.001090830782496456,0.001090830782496456,1.8950011873271952,-0.18673080928541327,-0.2590539665890033,0,0,0,0,0,0,1500,1500,1500,1500,1500,1500
1747541612.360545,0.01,0.0,0.05,-0.002181661564992912,0.001090830782496456,0.001090830782496456,1.8950011873271952,-0.18673080928541327,-0.2590539665890033,0,0,0,0,0,0,1500,1500,1500,1500,1500,1500
1747541612.4603882,-0.03,-0.02,0.01,-0.002181661564992912,-0.004363323129985824,0.001090830782496456,1.8950011873271952,-0.18673080928541327,-0.2590539665890033,0,0,0,0,0,0,1500,1500,1500,1500,1500,1500
1747541612.5599742,-0.03,-0.02,0.01,-0.002181661564992912,-0.004363323129985824,0.001090830782496456,1.8950011873271952,-0.18673080928541327,-0.2590539665890033,0,0,0,0,0,0,1500,1500,1500,1500,1500,1500
1747541612.6603582,0.0,-0.01,0.0,-0.002181661564992912,-0.001090830782496456,0.0,1.8950011873271952,-0.18673080928541327,-0.2590539665890033,0,0,0,0,0,0,1500,1500,1500,1500,1500,1500
1747541612.7436616,0.0,0.0,0.08,0.002181661564992912,-0.002181661564992912,0.0,1.8950011873271952,-0.18673080928541327,-0.2590539665890033,0,0,0,0,0,0,1500,1500,1500,1500,1500,1500
1747541612.8435514,0.0,0.0,0.08,0.002181661564992912,-0.002181661564992912,0.0,1.8950011873271952,-0.18673080928541327,-0.2590539665890033,0,0,0,0,0,0,1500,1500,1500,1500,1500,1500
1747541612.9437401,-0.02,-0.01,-0.02,-0.002181661564992912,0.002181661564992912,0.0,1.8950011873271952,-0.18673080928541327,-0.2590539665890033,0,0,0,0,0,0,1500,1500,1500,1500,1500,1500
1747541613.0265307,-0.02,-0.01,-0.02,-0.002181661564992912,0.002181661564992912,0.0,1.8950011873271952,-0.18673080928541327,-0.2590539665890033,0,0,0,0,0,0,1500,1500,1500,1500,1500,1500
1747541613.1263623,0.0,-0.01,-0.04,-0.003272492347489368,-0.003272492347489368,-0.002181661564992912,1.8950011873271952,-0.18673080928541327,-0.2590539665890033,0,0,0,0,0,0,1500,1500,1500,1500,1500,1500
1747541613.2258797,0.0,-0.01,0.02,0.0,-0.001090830782496456,-0.001090830782496456,1.8950011873271952,-0.18673080928541327,-0.2590539665890033,0,0,0,0,0,0,1500,1500,1500,1500,1500,1500
1747541613.3261738,0.0,-0.01,0.02,0.0,-0.001090830782496456,-0.001090830782496456,1.8950011873271952,-0.18673080928541327,-0.2590539665890033,0,0,0,0,0,0,1500,1500,1500,1500,1500,1500
1747541613.427477,-0.04,-0.01,0.03,-0.002181661564992912,0.0,0.001090830782496456,1.8950011873271952,-0.18673080928541327,-0.2590539665890033,0,0,0,0,0,0,1500,1500,1500,1500,1500,1500
1747541613.510703,-0.04,-0.01,0.03,-0.002181661564992912,0.0,0.001090830782496456,1.8950011873271952,-0.18673080928541327,-0.2590539665890033,0,0,0,0,0,0,1500,1500,1500,1500,1500,1500
1747541613.6100738,0.01,-0.01,0.0,-0.003272492347489368,0.001090830782496456,0.0,1.8950011873271952,-0.18673080928541327,-0.2590539665890033,0,0,0,0,0,0,1500,1500,1500,1500,1500,1500
1747541613.7107217,-0.01,-0.01,0.05,0.0,0.001090830782496456,-0.001090830782496456,1.8950011873271952,-0.18673080928541327,-0.2590539665890033,0,0,0,0,0,0,1500,1500,1500,1500,1500,1500
1747541613.8106403,-0.01,-0.01,0.05,0.0,0.001090830782496456,-0.001090830782496456,1.8950011873271952,-0.18673080928541327,-0.2590539665890033,0,0,0,0,0,0,1500,1500,1500,1500,1500,1500
1747541613.9097285,-0.03,-0.03,0.0,0.0,0.0,0.002181661564992912,1.8950011873271952,-0.18673080928541327,-0.2590539665890033,0,0,0,0,0,0,1500,1500,1500,1500,1500,1500
1747541613.993854,-0.03,-0.03,0.0,0.0,0.0,0.002181661564992912,1.8950011873271952,-0.18673080928541327,-0.2590539665890033,0,0,0,0,0,0,1500,1500,1500,1500,1500,1500
1747541614.0938425,0.0,0.0,-0.03,0.0,0.0,-0.001090830782496456,1.8950011873271952,-0.18673080928541327,-0.2590539665890033,0,0,0,0,0,0,1500,1500,1500,1500,1500,1500
1747541614.193827,0.0,-0.01,0.04,0.0,0.0,0.0,1.8950011873271952,-0.18673080928541327,-0.2590539665890033,0,0,0,0,0,0,1500,1500,1500,1500,1500,1500
1747541614.277785,0.0,-0.01,0.04,0.0,0.0,0.0,1.8950011873271952,-0.18673080928541327,-0.2590539665890033,0,0,0,0,0,0,1500,1500,1500,1500,1500,1500
1747541614.3757806,-0.02,-0.02,0.05,-0.003272492347489368,-0.001090830782496456,0.0,1.8950011873271952,-0.18673080928541327,-0.2590539665890033,0,0,0,0,0,0,1500,1500,1500,1500,1500,1500
1747541614.4763875,0.01,0.0,-0.03,0.001090830782496456,-0.002181661564992912,0.001090830782496456,1.8950011873271952,-0.18673080928541327,-0.2590539665890033,0,0,0,0,0,0,1500,1500,1500,1500,1500,1500
1747541614.5759296,0.01,0.0,-0.03,0.001090830782496456,-0.002181661564992912,0.001090830782496456,1.8950011873271952,-0.18673080928541327,-0.2590539665890033,0,0,0,0,0,0,1500,1500,1500,1500,1500,1500
1747541614.6771998,0.0,0.0,0.05,-0.001090830782496456,0.001090830782496456,-0.001090830782496456,1.8950011873271952,-0.18673080928541327,-0.2590539665890033,0,0,0,0,0,0,1500,1500,1500,1500,1500,1500
1747541614.7604938,0.0,0.0,0.05,-0.001090830782496456,0.001090830782496456,-0.001090830782496456,1.8950011873271952,-0.18673080928541327,-0.2590539665890033,0,0,0,0,0,0,1500,1500,1500,1500,1500,1500
1747541614.859742,-0.03,-0.04,-0.01,0.001090830782496456,-0.00545415391248228,-0.001090830782496456,1.8950011873271952,-0.18673080928541327,-0.2590539665890033,0,0,0,0,0,0,1500,1500,1500,1500,1500,1500
1747541614.9517298,0.01,0.0,-0.02,0.0,-0.002181661564992912,-0.001090830782496456,1.8950011873271952,-0.18673080928541327,-0.2590539665890033,0,0,0,0,0,0,1500,1500,1500,1500,1500,1500
1747541615.0434747,0.01,0.0,-0.02,0.0,-0.002181661564992912,-0.001090830782496456,1.8950011873271952,-0.18673080928541327,-0.2590539665890033,0,0,0,0,0,0,1500,1500,1500,1500,1500,1500
1747541615.143246,0.0,0.0,0.03,-0.002181661564992912,-0.002181661564992912,0.0,1.8950011873271952,-0.18673080928541327,-0.2590539665890033,0,0,0,0,0,0,1500,1500,1500,1500,1500,1500
1747541615.227248,0.0,0.0,0.03,-0.002181661564992912,-0.002181661564992912,0.0,1.8950011873271952,-0.18673080928541327,-0.2590539665890033,0,0,0,0,0,0,1500,1500,1500,1500,1500,1500
1747541615.3258276,-0.03,-0.02,0.04,0.0,0.00545415391248228,0.002181661564992912,1.8950011873271952,-0.18673080928541327,-0.2590539665890033,0,0,0,0,0,0,1500,1500,1500,1500,1500,1500
1747541615.4271772,-0.03,-0.02,0.04,0.0,0.00545415391248228,0.002181661564992912,1.8950011873271952,-0.18673080928541327,-0.2590539665890033,0,0,0,0,0,0,1500,1500,1500,1500,1500,1500
1747541615.5105803,0.02,0.0,-0.02,0.001090830782496456,0.003272492347489368,-0.001090830782496456,1.8950011873271952,-0.18673080928541327,-0.2590539665890033,0,0,0,0,0,0,1500,1500,1500,1500,1500,1500
1747541615.6095903,0.0,-0.01,0.06,-0.001090830782496456,0.001090830782496456,0.002181661564992912,1.8950011873271952,-0.18673080928541327,-0.2590539665890033,0,0,0,0,0,0,1500,1500,1500,1500,1500,1500
1747541615.7095103,0.0,-0.01,0.06,-0.001090830782496456,0.001090830782496456,0.002181661564992912,1.8950011873271952,-0.18673080928541327,-0.2590539665890033,0,0,0,0,0,0,1500,1500,1500,1500,1500,1500
1747541615.793499,-0.01,-0.05,0.01,0.002181661564992912,0.001090830782496456,0.0,1.8950011873271952,-0.18673080928541327,-0.2590539665890033,0,0,0,0,0,0,1500,1500,1500,1500,1500,1500
1747541615.8937259,-0.01,-0.05,0.01,0.002181661564992912,0.001090830782496456,0.0,1.8950011873271952,-0.18673080928541327,-0.2590539665890033,0,0,0,0,0,0,1500,1500,1500,1500,1500,1500
1747541615.9926612,0.0,0.0,-0.02,0.001090830782496456,-0.002181661564992912,-0.001090830782496456,1.8950011873271952,-0.18673080928541327,-0.2590539665890033,0,0,0,0,0,0,1500,1500,1500,1500,1500,1500
1747541616.0927162,-0.01,0.0,0.04,0.0,0.003272492347489368,0.0,1.8950011873271952,-0.18673080928541327,-0.2590539665890033,0,0,0,0,0,0,1500,1500,1500,1500,1500,1500
1747541616.1934397,-0.01,0.0,0.04,0.0,0.003272492347489368,0.0,1.8950011873271952,-0.18673080928541327,-0.2590539665890033,0,0,0,0,0,0,1500,1500,1500,1500,1500,1500
1747541616.2776234,-0.04,-0.02,0.01,0.001090830782496456,0.002181661564992912,0.0,1.8950011873271952,-0.18673080928541327,-0.2590539665890033,0,0,0,0,0,0,1500,1500,1500,1500,1500,1500
1747541616.376147,-0.04,-0.02,0.01,0.001090830782496456,0.002181661564992912,0.0,1.8950011873271952,-0.18673080928541327,-0.2590539665890033,0,0,0,0,0,0,1500,1500,1500,1500,1500,1500
1747541616.4773264,0.02,-0.01,0.0,0.0,-0.001090830782496456,0.001090830782496456,1.8950011873271952,-0.18673080928541327,-0.2590539665890033,0,0,0,0,0,0,1500,1500,1500,1500,1500,1500
1747541616.5758138,0.0,-0.03,0.04,0.001090830782496456,0.0,0.0,1.8950011873271952,-0.18673080928541327,-0.2590539665890033,0,0,0,0,0,0,1500,1500,1500,1500,1500,1500
1747541616.6772027,0.0,-0.03,0.04,0.001090830782496456,0.0,0.0,1.8950011873271952,-0.18673080928541327,-0.2590539665890033,0,0,0,0,0,0,1500,1500,1500,1500,1500,1500
1747541616.7600179,-0.02,-0.03,0.0,0.002181661564992912,0.003272492347489368,0.001090830782496456,1.8950011873271952,-0.18673080928541327,-0.2590539665890033,0,0,0,0,0,0,1500,1500,1500,1500,1500,1500
1747541616.8547723,0.01,-0.04,-0.03,0.001090830782496456,0.004363323129985824,0.0,1.8950011873271952,-0.18673080928541327,-0.2590539665890033,0,0,0,0,0,0,1500,1500,1500,1500,1500,1500
1747541616.9590285,0.01,-0.04,-0.03,0.001090830782496456,0.004363323129985824,0.0,1.8950011873271952,-0.18673080928541327,-0.2590539665890033,0,0,0,0,0,0,1500,1500,1500,1500,1500,1500
1747541617.0439394,0.01,0.0,0.0,0.001090830782496456,0.003272492347489368,0.0,1.8950011873271952,-0.18673080928541327,-0.2590539665890033,0,0,0,0,0,0,1500,1500,1500,1500,1500,1500
1747541617.143165,0.01,0.0,0.0,0.001090830782496456,0.003272492347489368,0.0,1.8950011873271952,-0.18673080928541327,-0.2590539665890033,0,0,0,0,0,0,1500,1500,1500,1500,1500,1500
1747541617.2435892,-0.04,-0.03,0.01,0.002181661564992912,0.002181661564992912,-0.003272492347489368,1.8950011873271952,-0.18673080928541327,-0.2590539665890033,0,0,0,0,0,0,1500,1500,1500,1500,1500,1500
1747541617.343744,0.01,0.0,-0.01,0.001090830782496456,-0.002181661564992912,-0.003272492347489368,1.8950011873271952,-0.18673080928541327,-0.2590539665890033,0,0,0,0,0,0,1500,1500,1500,1500,1500,1500
1747541617.4435563,0.01,0.0,-0.01,0.001090830782496456,-0.002181661564992912,-0.003272492347489368,1.8950011873271952,-0.18673080928541327,-0.2590539665890033,0,0,0,0,0,0,1500,1500,1500,1500,1500,1500
1747541617.5266166,0.0,-0.02,0.03,-0.006544984694978736,0.001090830782496456,0.001090830782496456,1.8950011873271952,-0.18673080928541327,-0.2590539665890033,0,0,0,0,0,0,1500,1500,1500,1500,1500,1500
1747541617.6272898,0.0,-0.02,0.03,-0.006544984694978736,0.001090830782496456,0.001090830782496456,1.8950011873271952,-0.18673080928541327,-0.2590539665890033,0,0,0,0,0,0,1500,1500,1500,1500,1500,1500
1747541617.7264886,-0.03,-0.03,0.0,-0.002181661564992912,0.00545415391248228,0.0,1.8950011873271952,-0.18673080928541327,-0.2590539665890033,0,0,0,0,0,0,1500,1500,1500,1500,1500,1500
1747541617.8262825,0.01,0.0,-0.03,0.004363323129985824,0.002181661564992912,-0.001090830782496456,1.8950011873271952,-0.18673080928541327,-0.2590539665890033,0,0,0,0,0,0,1500,1500,1500,1500,1500,1500
1747541617.926336,0.01,0.0,-0.03,0.004363323129985824,0.002181661564992912,-0.001090830782496456,1.8950011873271952,-0.18673080928541327,-0.2590539665890033,0,0,0,0,0,0,1500,1500,1500,1500,1500,1500
1747541618.0095448,0.01,0.0,-0.01,-0.002181661564992912,0.002181661564992912,-0.008726646259971648,1.8737777654075858,-0.18673080928541327,-0.2566178666508937,0,0,0,0,0,0,1500,1500,1500,1500,1500,1500
1747541618.1101754,0.01,0.0,-0.01,-0.002181661564992912,0.002181661564992912,-0.008726646259971648,1.8737777654075858,-0.18673080928541327,-0.2566178666508937,0,0,0,0,0,0,1500,1500,1500,1500,1500,1500
1747541618.2099776,-0.03,0.0,0.01,-0.015271630954950384,0.002181661564992912,-0.008726646259971648,1.8948077011090196,-0.18625557399147338,-0.2589486792979136,0,0,0,0,0,0,1500,1500,1500,1500,1500,1500
1747541618.3099189,-0.04,0.0,-0.05,-0.028361600344907856,0.001090830782496456,-0.014180800172453928,1.8916040500063587,-0.184736166056619,-0.25849546705201326,0,0,0,0,0,0,1500,1500,1500,1500,1500,1500
1747541618.4103808,-0.04,0.0,-0.05,-0.028361600344907856,0.001090830782496456,-0.014180800172453928,1.8916040500063587,-0.184736166056619,-0.25849546705201326,0,0,0,0,0,0,1500,1500,1500,1500,1500,1500
1747541618.49389,-0.05,-0.03,0.02,-0.04036073895236887,0.0,-0.016362461737446838,1.8865903720718518,-0.18284473483007946,-0.25769257377138927,0,0,0,0,0,0,1500,1500,1500,1500,1500,1500
1747541618.5905402,-0.06,-0.03,-0.05,-0.04690572364734761,-0.009817477042468103,-0.01090830782496456,1.879540759171338,-0.18090739860355867,-0.25711018508621686,0,0,0,0,0,0,1500,1500,1500,1500,1500,1500
1747541618.6934943,-0.06,-0.03,-0.05,-0.04690572364734761,-0.009817477042468103,-0.01090830782496456,1.879540759171338,-0.18090739860355867,-0.25711018508621686,0,0,0,0,0,0,1500,1500,1500,1500,1500,1500
1747541618.7765303,-0.03,-0.03,-0.06,-0.04363323129985824,-0.01090830782496456,-0.017453292519943295,1.8727509840827479,-0.1790248246749448,-0.2566712155852727,0,0,0,0,0,0,1500,1500,1500,1500,1500,1500
1747541618.8774836,-0.03,-0.03,-0.06,-0.04363323129985824,-0.01090830782496456,-0.017453292519943295,1.8727509840827479,-0.1790248246749448,-0.2566712155852727,0,0,0,0,0,0,1500,1500,1500,1500,1500,1500
1747541618.9790494,-0.05,-0.03,-0.04,-0.025089107997418487,-0.020725784867432664,-0.0272707695624114,1.86753193661958,-0.17529209350048,-0.2566491943365335,0,0,0,0,0,0,1500,1500,1500,1500,1500,1500
1747541619.075693,-0.05,-0.06,0.0,0.016362461737446838,-0.026179938779914945,-0.050178215994836975,1.8660474601135362,-0.1686561528780993,-0.25781137922783826,0,0,0,0,0,0,1500,1500,1500,1500,1500,1500
1747541619.1779835,-0.05,-0.06,0.0,0.016362461737446838,-0.026179938779914945,-0.050178215994836975,1.8660474601135362,-0.1686561528780993,-0.25781137922783826,0,0,0,0,0,0,1500,1500,1500,1500,1500,1500
1747541619.2795134,-0.01,-0.06,-0.08,0.10581058590215622,-0.01090830782496456,-0.08944812416470939,1.8756685727682647,-0.1566064836895761,-0.25692564060620504,0,0,0,0,0,0,1500,1500,1500,1500,1500,1500
1747541619.3777204,-0.01,-0.06,-0.08,0.10581058590215622,-0.01090830782496456,-0.08944812416470939,1.8756685727682647,-0.1566064836895761,-0.25692564060620504,0,0,0,0,0,0,1500,1500,1500,1500,1500,1500
1747541619.4772105,-0.01,-0.03,-0.04,0.17235126363444003,0.009817477042468103,-0.10471975511965978,1.897779588853033,-0.14217079527521204,-0.2521810970311249,0,0,0,0,0,0,1500,1500,1500,1500,1500,1500
1747541619.575626,-0.03,-0.03,-0.09,0.18544123302439752,0.008726646259971648,-0.10799224746714914,1.9237497733713544,-0.12729163150847123,-0.24660280776261753,0,0,0,0,0,0,1500,1500,1500,1500,1500,1500
1747541619.6770878,-0.03,-0.03,-0.09,0.18544123302439752,0.008726646259971648,-0.10799224746714914,1.9237497733713544,-0.12729163150847123,-0.24660280776261753,0,0,0,0,0,0,1500,1500,1500,1500,1500,1500
1747541619.7603729,-0.01,-0.01,-0.01,0.17998707911191522,0.015271630954950384,-0.10581058590215622,1.951478598511204,-0.11204255972276168,-0.23967000968715094,0,0,0,0,0,0,1500,1500,1500,1500,1500,1500
1747541619.8605044,-0.04,0.0,-0.02,0.1734420944169365,0.031634092692397225,-0.09599310885968812,1.97598565672561,-0.09956076899505312,-0.2308287922826578,0,0,0,0,0,0,1500,1500,1500,1500,1500,1500
1747541619.959144,-0.04,0.0,-0.02,0.1734420944169365,0.031634092692397225,-0.09599310885968812,1.97598565672561,-0.09956076899505312,-0.2308287922826578,0,0,0,0,0,0,1500,1500,1500,1500,1500,1500
1747541620.0427208,-0.04,-0.03,-0.09,0.18762289458939044,0.025089107997418487,-0.11780972450961724,2.0019894112196184,-0.08735144894634206,-0.21962307516185478,0,0,0,0,0,0,1500,1500,1500,1500,1500,1500
1747541620.1436827,-0.04,-0.03,-0.09,0.18762289458939044,0.025089107997418487,-0.11780972450961724,2.0019894112196184,-0.08735144894634206,-0.21962307516185478,0,0,0,0,0,0,1500,1500,1500,1500,1500,1500
1747541620.2426362,-0.21,-0.13,-0.09,0.45487643630102215,-0.04799655442984406,-0.47123889803846897,2.0440755550352847,-0.05172988900994561,-0.2034624952155758,0,0,0,0,0,0,1500,1500,1500,1500,1500,1500
1747541620.3430188,0.12,0.07,-0.08,1.0330167510241437,0.09817477042468103,-0.8115781021773633,2.1559521842553813,0.03583542527794688,-0.1513976725042891,0,0,0,0,0,0,1500,1500,1500,1500,1500,1500
1747541620.4431565,0.12,0.07,-0.08,1.0330167510241437,0.09817477042468103,-0.8115781021773633,2.1559521842553813,0.03583542527794688,-0.1513976725042891,0,0,0,0,0,0,1500,1500,1500,1500,1500,1500
1747541620.5260394,-0.06,0.08,-0.14,1.038470904936626,0.16798794050445423,-0.6239552075879728,2.329878323568248,0.10985919747567381,-0.06161239233099267,0,0,0,0,0,0,1500,1500,1500,1500,1500,1500
1747541620.6257393,-0.06,0.08,-0.14,1.038470904936626,0.16798794050445423,-0.6239552075879728,2.329878323568248,0.10985919747567381,-0.06161239233099267,0,0,0,0,0,0,1500,1500,1500,1500,1500,1500
1747541620.7258081,-0.12,0.0,-0.09,0.9108437033845407,0.15271630954950383,-0.4603305902135044,2.489751659944068,0.14639119240089205,0.01684593737303845,0,0,0,0,0,0,1500,1500,1500,1500,1500,1500
1747541620.8095114,-0.11,0.08,-0.17,0.8006697943523987,0.14508049407202864,-0.3294308963139297,2.623922411445547,0.16057118360562223,0.0776678535730281,0,0,0,0,0,0,1500,1500,1500,1500,1500,1500
1747541620.9096787,-0.11,0.08,-0.17,0.8006697943523987,0.14508049407202864,-0.3294308963139297,2.623922411445547,0.16057118360562223,0.0776678535730281,0,0,0,0,0,0,1500,1500,1500,1500,1500,1500
1747541620.993288,-0.12,0.15,-0.16,0.7123125009701857,0.15489797111449674,-0.23671027980173096,2.750093337468189,0.15934241610512115,0.12816405011493653,0,0,0,0,0,0,1500,1500,1500,1500,1500,1500
1747541621.0938902,-0.12,0.15,-0.16,0.7123125009701857,0.15489797111449674,-0.23671027980173096,2.750093337468189,0.15934241610512115,0.12816405011493653,0,0,0,0,0,0,1500,1500,1500,1500,1500,1500
1747541621.193308,-0.14,0.09,-0.09,0.5945027764605685,0.14835298641951802,-0.16253378659197193,2.848616181558023,0.14890953162503442,0.16260696766209876,0,0,0,0,0,0,1500,1500,1500,1500,1500,1500
1747541621.277226,-0.15,0.11,-0.18,0.4734205596034619,0.16689710972195776,-0.10581058590215622,2.931958465448099,0.13211415719309227,0.18828468834218115,0,0,0,0,0,0,1500,1500,1500,1500,1500,1500
1747541621.3764215,-0.15,0.11,-0.18,0.4734205596034619,0.16689710972195776,-0.10581058590215622,2.931958465448099,0.13211415719309227,0.18828468834218115,0,0,0,0,0,0,1500,1500,1500,1500,1500,1500
1747541621.476515,-0.17,0.11,-0.18,0.3839724354387525,0.17780541754692233,-0.050178215994836975,2.9951334744504297,0.11183909239785762,0.20500419217414725,0,0,0,0,0,0,1500,1500,1500,1500,1500,1500
1747541621.5766456,-0.17,0.15,-0.19,0.29670597283903605,0.18216874067690814,-0.004363323129985824,3.0471145637293864,0.08601036827837427,0.2116363134460322,0,0,0,0,0,0,1500,1500,1500,1500,1500,1500
1747541621.6758041,-0.17,0.15,-0.19,0.29670597283903605,0.18216874067690814,-0.004363323129985824,3.0471145637293864,0.08601036827837427,0.2116363134460322,0,0,0,0,0,0,1500,1500,1500,1500,1500,1500
1747541621.7599754,-0.12,0.14,-0.15,0.17998707911191522,0.17235126363444003,0.02945243112740431,3.0815462705650263,0.0604063927113572,0.21106583926220393,0,0,0,0,0,0,1500,1500,1500,1500,1500,1500
1747541621.860284,-0.12,0.14,-0.15,0.17998707911191522,0.17235126363444003,0.02945243112740431,3.0815462705650263,0.0604063927113572,0.21106583926220393,0,0,0,0,0,0,1500,1500,1500,1500,1500,1500
1747541621.960523,-0.11,0.08,-0.18,0.08617563181722002,0.18871372537188688,0.050178215994836975,3.1001326057440237,0.03350257233411341,0.20604839803830097,0,0,0,0,0,0,1500,1500,1500,1500,1500,1500
1747541622.0594203,-0.1,0.07,-0.17,0.006544984694978736,0.20398535632683726,0.08290313946973066,3.1062916501058684,0.005216175129909572,0.1975323921994605,0,0,0,0,0,0,1500,1500,1500,1500,1500,1500
1747541622.1597893,-0.1,0.07,-0.17,0.006544984694978736,0.20398535632683726,0.08290313946973066,3.1062916501058684,0.005216175129909572,0.1975323921994605,0,0,0,0,0,0,1500,1500,1500,1500,1500,1500
1747541622.2436092,-0.1,0.09,-0.21,-0.05890486225480862,0.19853120241435498,0.10690141668465268,3.101551652696618,-0.026109756194771155,0.18357229285434679,0,0,0,0,0,0,1500,1500,1500,1500,1500,1500
1747541622.3436704,-0.1,0.09,-0.21,-0.05890486225480862,0.19853120241435498,0.10690141668465268,3.101551652696618,-0.026109756194771155,0.18357229285434679,0,0,0,0,0,0,1500,1500,1500,1500,1500,1500
1747541622.4431243,-0.12,0.07,-0.12,-0.1265363707695889,0.16253378659197193,0.11671889372712078,3.088016093282322,-0.05259772101705594,0.16822890608655272,0,0,0,0,0,0,1500,1500,1500,1500,1500,1500
1747541622.526066,-0.07,0.04,0.06,-0.18653206380689397,0.12435470920459599,0.09817477042468103,3.064049890258813,-0.0748220349939511,0.15279421895524672,0,0,0,0,0,0,1500,1500,1500,1500,1500,1500
1747541622.6264918,-0.07,0.04,0.06,-0.18653206380689397,0.12435470920459599,0.09817477042468103,3.064049890258813,-0.0748220349939511,0.15279421895524672,0,0,0,0,0,0,1500,1500,1500,1500,1500,1500
1747541622.7262404,-0.08,0.01,-0.02,-0.2279836335417593,0.06435901616729091,0.08072147790473774,3.0346682905483084,-0.08903066022681477,0.14130825619174936,0,0,0,0,0,0,1500,1500,1500,1500,1500,1500
1747541622.8276236,-0.11,0.03,-0.02,-0.24216443371421323,0.016362461737446838,0.08508480103472356,2.998802789280956,-0.09689745991857557,0.1289247230664693,0,0,0,0,0,0,1500,1500,1500,1500,1500,1500
1747541622.926508,-0.11,0.03,-0.02,-0.24216443371421323,0.016362461737446838,0.08508480103472356,2.998802789280956,-0.09689745991857557,0.1289247230664693,0,0,0,0,0,0,1500,1500,1500,1500,1500,1500
1747541623.0098996,-0.06,0.05,0.04,-0.2716168648416175,-0.022907446432425576,0.07853981633974483,2.960131124438882,-0.09804748442356051,0.11574584736252477,0,0,0,0,0,0,1500,1500,1500,1500,1500,1500
1747541623.1094453,-0.06,0.05,0.04,-0.2716168648416175,-0.022907446432425576,0.07853981633974483,2.960131124438882,-0.09804748442356051,0.11574584736252477,0,0,0,0,0,0,1500,1500,1500,1500,1500,1500
1747541623.2101326,-0.02,-0.01,-0.01,-0.28034351110158917,-0.031634092692397225,0.05890486225480862,2.9175807213486173,-0.09553445709999167,0.1046198854459291,0,0,0,0,0,0,1500,1500,1500,1500,1500,1500
1747541623.292709,-0.02,-0.01,-0.01,-0.28034351110158917,-0.031634092692397225,0.05890486225480862,2.9175807213486173,-0.09553445709999167,0.1046198854459291,0,0,0,0,0,0,1500,1500,1500,1500,1500,1500
1747541623.3932831,-0.04,-0.05,0.01,-0.2596177262341565,-0.015271630954950384,0.06872233929727672,2.878846210088942,-0.09424386558775635,0.09494796249875401,0,0,0,0,0,0,1500,1500,1500,1500,1500,1500
1747541623.494196,-0.04,-0.05,-0.03,-0.21380283336930536,-0.009817477042468103,0.08399397025222712,2.843403090038916,-0.09573698784748759,0.08262177537102029,0,0,0,0,0,0,1500,1500,1500,1500,1500,1500
1747541623.593422,-0.04,-0.05,-0.03,-0.21380283336930536,-0.009817477042468103,0.08399397025222712,2.843403090038916,-0.09573698784748759,0.08262177537102029,0,0,0,0,0,0,1500,1500,1500,1500,1500,1500
1747541623.6936817,-0.05,-0.05,-0.04,-0.18435040224190105,-0.007635815477475192,0.08290313946973066,2.815504084743491,-0.09932690963672033,0.07073182733284673,0,0,0,0,0,0,1500,1500,1500,1500,1500,1500
1747541623.7764823,-0.04,-0.07,0.0,-0.16035212502697901,-0.007635815477475192,0.07308566242726255,2.7895006109773917,-0.10328915857143112,0.05911480649980908,0,0,0,0,0,0,1500,1500,1500,1500,1500,1500
1747541623.875765,-0.04,-0.07,0.0,-0.16035212502697901,-0.007635815477475192,0.07308566242726255,2.7895006109773917,-0.10328915857143112,0.05911480649980908,0,0,0,0,0,0,1500,1500,1500,1500,1500,1500
1747541623.9758906,-0.04,-0.1,-0.12,-0.13962634015954636,-0.007635815477475192,0.06872233929727672,2.7689370769234767,-0.10683442028606145,0.04926907293174104,0,0,0,0,0,0,1500,1500,1500,1500,1500,1500
1747541624.0727365,-0.03,-0.07,-0.09,-0.12326387842209953,-0.008726646259971648,0.06654067773228381,2.7495603620634017,-0.11087924923240534,0.03936363244002696,0,0,0,0,0,0,1500,1500,1500,1500,1500,1500
1747541624.1762476,-0.03,-0.07,-0.09,-0.12326387842209953,-0.008726646259971648,0.06654067773228381,2.7495603620634017,-0.11087924923240534,0.03936363244002696,0,0,0,0,0,0,1500,1500,1500,1500,1500,1500
1747541624.2598004,-0.04,-0.08,-0.07,-0.11671889372712078,-0.009817477042468103,0.05999569303730508,2.732079260665118,-0.11366796958838717,0.029998131823510327,0,0,0,0,0,0,1500,1500,1500,1500,1500,1500
1747541624.360043,-0.04,-0.08,-0.07,-0.11671889372712078,-0.009817477042468103,0.05999569303730508,2.732079260665118,-0.11366796958838717,0.029998131823510327,0,0,0,0,0,0,1500,1500,1500,1500,1500,1500
1747541624.4595628,-0.06,-0.07,-0.09,-0.11671889372712078,-0.009817477042468103,0.0545415391248228,2.7150328741343377,-0.1164804648243187,0.021376079597205958,0,-1.511811,0,0,0,0,1460,1460,1460,1500,1500,1500
1747541624.5604446,-0.04,-0.1,-0.11,-0.11562806294462433,-0.01090830782496456,0.04581489286485115,2.6989371224864613,-0.11791613853202897,0.014029926329501783,0,-2.140585,0,0,0,0,1420,1420,1420,1500,1500,1500
1747541624.6600735,-0.04,-0.1,-0.11,-0.11562806294462433,-0.01090830782496456,0.04581489286485115,2.6989371224864613,-0.11791613853202897,0.014029926329501783,0,-2.140585,0,0,0,0,1380,1380,1400,1500,1500,1500
1747541624.743398,-0.46,-0.71,-0.03,-0.13526301702956053,-0.011999138607461015,0.038179077387375956,2.6817662139048717,-0.11820693240188926,0.007353934297389761,0,-2.140585,0,0,0,0,1377,1380,1400,1500,1500,1500
1747541624.8427875,-0.46,-0.71,-0.03,-0.13526301702956053,-0.011999138607461015,0.038179077387375956,2.6817662139048717,-0.11820693240188926,0.007353934297389761,0,-2.404492,0,0,0,0,1366,1370,1392,1500,1500,1500
1747541624.9432306,-0.62,0.04,0.04,-0.18762289458939044,-0.020725784867432664,-0.022907446432425576,2.660440897749935,-0.1143045881119398,0.003649707950198052,0,-2.683736,0,0,0,0,1355,1359,1384,1500,1500,1500
1747541625.0257335,-0.17,0.11,-0.53,-0.3076142806640006,-0.07417649320975901,-0.2945243112740431,2.6205686287577357,-0.0887516594643016,0.022662389268221395,0,-1.051097,0,0,0,0,1395,1399,1424,1500,1500,1500
1747541625.1256785,-0.17,0.11,-0.53,-0.3076142806640006,-0.07417649320975901,-0.2945243112740431,2.6205686287577357,-0.0887516594643016,0.022662389268221395,0,-0.825321,0,0,0,0,1430,1431,1439,1500,1500,1500
1747541625.2258065,0.21,0.0,0.14,-0.27379852640661045,-0.10362892433716332,-0.3981532356112064,2.570093323081772,-0.04233535517449014,0.06474704121325417,0,-0.825321,0,0,0,0,1430,1431,1439,1500,1500,1500
1747541625.3100622,0.21,0.0,0.14,-0.27379852640661045,-0.10362892433716332,-0.3981532356112064,2.570093323081772,-0.04233535517449014,0.06474704121325417,0,-0.825321,0,0,0,0,1430,1431,1439,1500,1500,1500
1747541625.4094784,0.27,-0.04,-0.17,-0.16798794050445423,-0.018544123302439753,-0.2879793265790644,2.538399079011119,-0.0099725588102727,0.1052936847689341,0,-0.825321,0,0,0,0,1430,1431,1439,1500,1500,1500
1747541625.4926271,0.27,-0.09,-0.1,-0.10690141668465268,0.04908738521234052,-0.1810779098944117,2.5189603688941924,0.006560208764245624,0.1352131036477679,0,-2.140585,0,0,0,0,1390,1391,1400,1500,1500,1500
1747541625.5938237,0.27,-0.09,-0.1,-0.10690141668465268,0.04908738521234052,-0.1810779098944117,2.5189603688941924,0.006560208764245624,0.1352131036477679,0,-2.878419,0,0,0,0,1354,1359,1383,1500,1500,1500
1747541625.6935158,-0.1,-0.2,-0.1,-0.08072147790473774,0.04254240051736178,-0.18653206380689397,2.508215329542418,0.012513472376345905,0.15974440240733698,0,-2.978317,0,0,0,0,1354,1359,1383,1500,1500,1500
1747541625.7761364,-0.1,-0.2,-0.1,-0.08072147790473774,0.04254240051736178,-0.18653206380689397,2.508215329542418,0.012513472376345905,0.15974440240733698,0,-3.079918,0,0,0,0,1354,1359,1383,1500,1500,1500
1747541625.876535,-0.25,-0.19,-0.13,-0.10799224746714914,0.026179938779914945,-0.31634092692397225,2.4955860142444077,0.03141940977540722,0.19220580256936864,0,-3.079918,0,0,0,0,1354,1359,1383,1500,1500,1500
1747541625.9757204,-0.16,-0.07,0.21,-0.06326818538479445,0.030543261909900768,-0.38069994309126315,2.4846666713865613,0.061194772360749404,0.2360762296183494,0,-3.079918,0,0,0,0,1354,1359,1383,1500,1500,1500
1747541626.0765827,-0.16,-0.07,0.21,-0.06326818538479445,0.030543261909900768,-0.38069994309126315,2.4846666713865613,0.061194772360749404,0.2360762296183494,0,-4.808429,0,0,0,0,1354,1359,1383,1500,1500,1500
1747541626.1758735,-0.05,0.14,0.0,-0.04254240051736178,0.05999569303730508,-0.37088246604879505,2.4801872959885247,0.09154124922910095,0.28690690059092194,0,-4.808429,0,0,0,0,1354,1359,1383,1500,1500,1500
1747541626.260532,-0.05,0.14,0.0,-0.04254240051736178,0.05999569303730508,-0.37088246604879505,2.4801872959885247,0.09154124922910095,0.28690690059092194,0,-4.808429,0,0,0,0,1354,1359,1383,1500,1500,1500
1747541626.3596258,0.0,0.11,-0.14,-0.002181661564992912,0.10253809355466686,-0.33597588100890846,2.4832194982668647,0.11535901713251324,0.33861110529430677,0,-4.808429,0,0,0,0,1354,1359,1383,1500,1500,1500
1747541626.4603488,-0.03,-0.19,0.13,0.03599741582238305,0.15162547876700738,-0.2748893571891069,2.49121742707736,0.1272662957582638,0.3848732240507453,0,-4.808429,0,0,0,0,1354,1359,1383,1500,1500,1500
1747541626.5600324,-0.03,-0.19,0.13,0.03599741582238305,0.15162547876700738,-0.2748893571891069,2.49121742707736,0.1272662957582638,0.3848732240507453,0,-4.808429,0,0,0,0,1354,1359,1383,1500,1500,1500
1747541626.659959,0.08,-0.12,0.0,0.07853981633974483,0.18762289458939044,-0.20180369476184434,2.5064258565065454,0.12759811572040541,0.4304494096657546,0,-4.808429,0,0,0,0,1354,1359,1383,1500,1500,1500
1747541626.7438638,0.11,-0.27,0.22,0.08399397025222712,0.22362031041177347,-0.13744467859455345,2.5244097710773543,0.11623231422954738,0.4704376802487127,0,-4.808429,0,0,0,0,1354,1359,1383,1500,1500,1500
1747541626.842616,0.11,-0.27,0.22,0.08399397025222712,0.22362031041177347,-0.13744467859455345,2.5244097710773543,0.11623231422954738,0.4704376802487127,0,-4.808429,0,0,0,0,1354,1359,1383,1500,1500,1500
1747541626.943187,0.18,-0.13,0.05,0.0818123086872342,0.2585268954516601,-0.09817477042468103,2.5410513747627377,0.09663589808081434,0.5048661715658881,0,-4.808429,0,0,0,0,1354,1359,1383,1500,1500,1500
1747541627.0258944,0.18,-0.13,0.05,0.0818123086872342,0.2585268954516601,-0.09817477042468103,2.5410513747627377,0.09663589808081434,0.5048661715658881,0,-4.808429,0,0,0,0,1354,1359,1383,1500,1500,1500
1747541627.1263156,0.02,0.09,-0.12,0.05672320068981571,0.28034351110158917,-0.07090400086226964,2.554087502914634,0.06867264821139478,0.5392706780842208,0,-4.808429,0,0,0,0,1354,1359,1383,1500,1500,1500
1747541627.2274523,0.12,-0.22,-0.07,0.04690572364734761,0.2617993877991494,-0.06763150851478027,2.5635447331107244,0.04162810403341175,0.570024462450704,0,-3.725313,0,0,0,0,1354,1359,1383,1500,1500,1500
1747541627.3620691,0.12,-0.22,-0.07,0.04690572364734761,0.2617993877991494,-0.06763150851478027,2.5635447331107244,0.04162810403341175,0.570024462450704,0,-3.725313,0,0,0,0,1354,1359,1383,1500,1500,1500
1747541627.4614058,0.03,0.11,-0.09,0.004363323129985824,0.25743606466916363,-0.061086523819801536,2.5678883033950535,0.013237520224844278,0.6006535449212941,0,-3.725313,0,0,0,0,1354,1359,1383,1500,1500,1500
1747541627.5607648,0.03,-0.04,0.2,-0.04254240051736178,0.25089107997418486,-0.050178215994836975,2.565122122579292,-0.01581214692678264,0.6291229330981492,0,-3.725313,0,0,0,0,1354,1359,1383,1500,1500,1500
1747541627.660681,0.03,-0.04,0.2,-0.04254240051736178,0.25089107997418486,-0.050178215994836975,2.565122122579292,-0.01581214692678264,0.6291229330981492,0,0,0,0,0,0,1394,1399,1423,1500,1500,1500
1747541627.7438111,0.04,-0.07,-0.21,-0.07090400086226964,0.25416357232167425,-0.03599741582238305,2.5551947078298127,-0.04590235132437326,0.6560654590911171,0,0,0,0,0,0,1434,1439,1463,1500,1500,1500
1747541627.8424394,0.04,-0.07,-0.21,-0.07090400086226964,0.25416357232167425,-0.03599741582238305,2.5551947078298127,-0.04590235132437326,0.6560654590911171,0,0,0,0,0,0,1474,1479,1500,1500,1500,1500
1747541627.942706,0.49,-0.49,-0.13,-0.08399397025222712,0.3076142806640006,0.06981317007977318,2.5397482439381984,-0.08043989131181589,0.6789213722321529,0,0,0,0,0,0,1500,1500,1500,1500,1500,1500
1747541628.0265868,0.54,-0.21,-0.14,-0.04145156973486533,0.4232423436086249,0.3370667117914049,2.5327473534400853,-0.15417667396423185,0.684396196975357,0,0,0,0,0,0,1500,1500,1500,1500,1500,1500
1747541628.1257188,0.54,-0.21,-0.14,-0.04145156973486533,0.4232423436086249,0.3370667117914049,2.5327473534400853,-0.15417667396423185,0.684396196975357,0,0,0,0,0,0,1500,1500,1500,1500,1500,1500
1747541628.2264223,0.18,-0.09,-0.03,-0.03381575425739013,0.4603305902135044,0.4559672670835186,2.531808185736531,-0.24538496837269408,0.6724194153378823,0,0,0,0,0,0,1500,1500,1500,1500,1500,1500
1747541628.3264167,0.16,-0.08,-0.1,-0.05235987755982989,0.4636030825609938,0.5137812985558308,2.5319627307740786,-0.34827395787433546,0.6508715845816867,0,0,0,0,0,0,1500,1500,1500,1500,1500,1500
1747541628.4264226,0.16,-0.08,-0.1,-0.05235987755982989,0.4636030825609938,0.5137812985558308,2.5319627307740786,-0.34827395787433546,0.6508715845816867,0,0,0,0,0,0,1500,1500,1500,1500,1500,1500
1747541628.5099018,0.11,-0.1,-0.13,-0.08835729338221293,0.43960480534607177,0.557414529855689,2.5333486389217357,-0.44741254250722357,0.6217049287592165,0,0,0,0,0,0,1500,1500,1500,1500,1500,1500
1747541628.609243,0.11,-0.1,-0.13,-0.08835729338221293,0.43960480534607177,0.557414529855689,2.5333486389217357,-0.44741254250722357,0.6217049287592165,0,-0.537779,0,0,0,0,1460,1460,1460,1500,1500,1500
1747541628.709338,0.0,-0.07,-0.12,-0.12871803233458182,0.3752457891787809,0.5377795757707527,2.5361338477118682,-0.5486342893404783,0.5817561639527827,0,-2.056024,0,0,0,0,1420,1420,1420,1500,1500,1500
1747541628.8091455,-0.09,-0.04,-0.11,-0.1712604328519436,0.24107360293171676,0.43960480534607177,2.5375049246268464,-0.6300494711173944,0.5386913508746515,0,-2.780225,0,0,0,0,1380,1380,1383,1500,1500,1500
1747541628.9092581,-0.09,-0.04,-0.11,-0.1712604328519436,0.24107360293171676,0.43960480534607177,2.5375049246268464,-0.6300494711173944,0.5386913508746515,0,-3.503365,0,0,0,0,1354,1359,1383,1500,1500,1500
1747541629.0097363,-0.21,0.23,-0.06,-0.23234695667174513,0.10253809355466686,0.2977968036215325,2.531544774849603,-0.6815118371952691,0.4975438918936514,0,-4.937296,0,0,0,0,1354,1359,1383,1500,1500,1500
1747541629.1094983,-0.54,-0.27,-0.27,-0.27598018797160334,0.06981317007977318,0.11671889372712078,2.5082892568118806,-0.7010156924948472,0.47529964984300155,0,-5.746281,0,0,0,-0.005903,1354,1359,1383,1500,1500,1500
1747541629.2093997,-0.54,-0.27,-0.27,-0.27598018797160334,0.06981317007977318,0.11671889372712078,2.5082892568118806,-0.7010156924948472,0.47529964984300155,0,-8.37155,0,0,0,-0.023353,1354,1359,1383,1500,1500,1500
1747541629.3092155,-0.05,-0.32,-0.03,-0.21380283336930536,0.11017390903214205,0.0818123086872342,2.476337158426756,-0.7182133964940093,0.4688357165416014,0,-12.5,0,0,0,-0.046218,1354,1359,1383,1500,1500,1500
1747541629.4066112,-0.08,-0.11,0.05,-0.16580627893946132,0.2083486794568231,0.02181661564992912,2.4447104991779423,-0.7406215670094929,0.47627390161526284,0,-12.5,0,0,0,-0.049236,1354,1359,1383,1500,1500,1500
1747541629.4930103,-0.08,-0.11,0.05,-0.16580627893946132,0.2083486794568231,0.02181661564992912,2.4447104991779423,-0.7406215670094929,0.47627390161526284,0,-12.5,0,0,0,-0.049236,1354,1359,1383,1500,1500,1500
1747541629.5922842,0.35000000000000003,-0.5700000000000001,0.18,-0.001090830782496456,0.4046982203061852,-0.028361600344907856,2.4036255438129586,-0.7786169939602935,0.5170058123282272,0,-12.5,0,0,0,-0.049236,1354,1359,1383,1500,1500,1500
1747541629.6939318,0.35000000000000003,-0.5700000000000001,0.18,-0.001090830782496456,0.4046982203061852,-0.028361600344907856,2.4036255438129586,-0.7786169939602935,0.5170058123282272,0,-12.5,0,0,0,-0.049236,1354,1359,1383,1500,1500,1500
1747541629.7765412,-0.02,0.17,0.0,0.13744467859455345,0.6130468997630083,0.028361600344907856,2.359888668151207,-0.8484737245715617,0.59880100437787,0,-12.5,0,0,0,-0.049236,1354,1359,1383,1500,1500,1500
1747541629.8764892,-0.02,0.17,0.0,0.13744467859455345,0.6130468997630083,0.028361600344907856,2.359888668151207,-0.8484737245715617,0.59880100437787,0,-12.5,0,0,0,-0.049236,1354,1359,1383,1500,1500,1500
1747541629.976257,-0.15,0.07,-0.23,-0.008726646259971648,0.43524148221608594,0.022907446432425576,2.305542213576717,-0.9055427701613202,0.6848307883544568,0,-12.5,0,0,0,-0.049236,1354,1359,1383,1500,1500,1500
1747541630.076277,-0.67,0.14,0.1,-0.1832595714594046,0.23343778745424157,-0.017453292519943295,2.2409189103000173,-0.9305950762231798,0.7461687706071068,0,-12.5,0,0,0,-0.049236,1354,1359,1383,1500,1500,1500
1747541630.1766047,-0.67,0.14,0.1,-0.1832595714594046,0.23343778745424157,-0.017453292519943295,2.2409189103000173,-0.9305950762231798,0.7461687706071068,0,-12.5,0,0,0,-0.049236,1354,1359,1383,1500,1500,1500
1747541630.2598405,-0.21,-0.01,0.13,-0.2901609881440573,0.11017390903214205,-0.04690572364734761,2.1739243301399944,-0.939877354116554,0.784772018585136,0,-12.5,0,0,0,-0.049236,1354,1359,1383,1500,1500,1500
1747541630.3602653,0.1,-0.16,-0.15,-0.346884188833873,0.04254240051736178,-0.04799655442984406,2.1068140776068525,-0.9388275899080458,0.8065400331384108,0,-12.5,0,0,0,-0.049236,1354,1359,1383,1500,1500,1500
1747541630.4595473,0.1,-0.16,-0.15,-0.346884188833873,0.04254240051736178,-0.04799655442984406,2.1068140776068525,-0.9388275899080458,0.8065400331384108,0,-12.5,0,0,0,-0.049236,1354,1359,1383,1500,1500,1500
1747541630.5434988,0.17,0.19,-0.24,-0.3621558197888234,0.03381575425739013,-0.026179938779914945,2.0464407221238465,-0.9370532693856557,0.8187203714887481,0,-12.5,0,0,0,-0.049236,1354,1359,1383,1500,1500,1500
1747541630.6438072,0.17,0.19,-0.24,-0.3621558197888234,0.03381575425739013,-0.026179938779914945,2.0464407221238465,-0.9370532693856557,0.8187203714887481,0,-12.5,0,0,0,-0.049236,1354,1359,1383,1500,1500,1500
1747541630.7437878,-0.11,0.04,-0.16,-0.3425208657038872,0.04363323129985824,-0.038179077387375956,1.9821669127424841,-0.935236330915844,0.8302948653290236,0,-12.5,0,0,0,-0.049236,1354,1359,1383,1500,1500,1500
1747541630.8433733,-0.11,-0.28,-0.02,-0.3119776037939864,0.07963064712224129,-0.05235987755982989,1.9172808026477395,-0.9323598925235516,0.8486581502563727,0,-12.5,0,0,0,-0.049236,1354,1359,1383,1500,1500,1500
1747541630.943392,-0.11,-0.28,-0.02,-0.3119776037939864,0.07963064712224129,-0.05235987755982989,1.9172808026477395,-0.9323598925235516,0.8486581502563727,0,-12.5,0,0,0,-0.049236,1354,1359,1383,1500,1500,1500
1747541631.025829,-0.43,-0.07,0.15,-0.2814343418840856,0.1265363707695889,-0.06544984694978735,1.8480944588107786,-0.9276436831422916,0.878419482760896,0,-12.5,0,0,0,-0.049236,1354,1359,1383,1500,1500,1500
1747541631.126266,-0.43,-0.07,0.15,-0.2814343418840856,0.1265363707695889,-0.06544984694978735,1.8480944588107786,-0.9276436831422916,0.878419482760896,0,-12.5,0,0,0,-0.049236,1354,1359,1383,1500,1500,1500
1747541631.226585,-0.33,-0.15,-0.14,-0.22252947962927702,0.15271630954950383,-0.05890486225480862,1.7791814398967014,-0.9220595873761805,0.9166844395056521,0,-12.5,0,0,0,-0.049236,1354,1359,1383,1500,1500,1500
1747541631.3261168,-0.64,-0.13,-0.11,-0.19416787928436915,0.1712604328519436,-0.02181661564992912,1.7186514997245603,-0.9194420955465938,0.9560695872688882,0,-12.5,0,0,0,-0.049236,1354,1359,1383,1500,1500,1500
1747541631.4263344,-0.64,-0.13,-0.11,-0.19416787928436915,0.1712604328519436,-0.02181661564992912,1.7186514997245603,-0.9194420955465938,0.9560695872688882,0,-12.5,0,0,0,-0.049236,1354,1359,1383,1500,1500,1500
1747541631.509263,-0.51,-0.01,-0.03,-0.20507618710933373,0.17453292519943295,-0.032724923474893676,1.6540953347400236,-0.9153372526267074,0.9985578737327077,0,-12.5,0,0,0,-0.049236,1354,1359,1383,1500,1500,1500
1747541631.6099396,-0.51,-0.01,-0.03,-0.20507618710933373,0.17453292519943295,-0.032724923474893676,1.6540953347400236,-0.9153372526267074,0.9985578737327077,0,-12.5,0,0,0,-0.049236,1354,1359,1383,1500,1500,1500
1747541631.7090883,-0.23,-0.18,0.03,-0.19744037163185854,0.16689710972195776,-0.011999138607461015,1.5931382596042825,-0.9118698890071724,1.0383938993389359,0,-12.5,0,0,0,-0.049236,1354,1359,1383,1500,1500,1500
1747541631.793109,-0.71,-0.3,-0.16,-0.19416787928436915,0.16580627893946132,0.020725784867432664,1.5310007702549167,-0.9116092281885644,1.0788768640793978,0,-12.5,0,0,0,-0.049236,1354,1359,1383,1500,1500,1500
1747541631.892925,-0.71,-0.3,-0.16,-0.19416787928436915,0.16580627893946132,0.020725784867432664,1.5310007702549167,-0.9116092281885644,1.0788768640793978,0,-12.5,0,0,0,-0.049236,1354,1359,1383,1500,1500,1500
1747541631.992865,-0.5,-0.11,-0.08,-0.20725784867432664,0.136353847812057,0.032724923474893676,1.4743342384977802,-0.9120238885011669,1.114515164296254,0,-12.5,0,0,0,-0.049236,1354,1359,1383,1500,1500,1500
1747541632.093212,-0.7000000000000001,-0.06,-0.11,-0.21162117180431245,0.12435470920459599,0.039269908169872414,1.417315996772569,-0.913150937900909,1.1473223886367088,0,-12.5,0,0,0,-0.049236,1354,1359,1383,1500,1500,1500
1747541632.1925843,-0.7000000000000001,-0.06,-0.11,-0.21162117180431245,0.12435470920459599,0.039269908169872414,1.417315996772569,-0.913150937900909,1.1473223886367088,0,-12.5,0,0,0,-0.049236,1354,1359,1383,1500,1500,1500
1747541632.2765565,-0.13,0.0,-0.05,-0.20725784867432664,0.11780972450961724,0.031634092692397225,1.3622098364229054,-0.913279956933074,1.1769642110142733,0,-12.5,0,0,0,-0.049236,1354,1359,1383,1500,1500,1500
1747541632.3761418,-0.13,0.0,-0.05,-0.20725784867432664,0.11780972450961724,0.031634092692397225,1.3622098364229054,-0.913279956933074,1.1769642110142733,0,-12.5,0,0,0,-0.049236,1354,1359,1383,1500,1500,1500
1747541632.4762692,-0.26,-0.28,-0.1,-0.2007128639793479,0.11126473981463851,0.04363323129985824,1.3085964177012976,-0.9130993558235669,1.2053829755174992,0,-12.5,0,0,0,-0.049236,1354,1359,1383,1500,1500,1500
1747541632.576588,-0.68,-0.19,-0.06,-0.18762289458939044,0.11999138607461016,0.04036073895236887,1.2570183005116546,-0.9134353227992262,1.2345562369642205,0,-12.5,0,0,0,-0.049236,1354,1359,1383,1500,1500,1500
1747541632.6767108,-0.68,-0.19,-0.06,-0.18762289458939044,0.11999138607461016,0.04036073895236887,1.2570183005116546,-0.9134353227992262,1.2345562369642205,0,-12.5,0,0,0,-0.049236,1354,1359,1383,1500,1500,1500
1747541632.760063,-0.14,-0.11,-0.21,-0.18653206380689397,0.13526301702956053,0.025089107997418487,1.202165581982419,-0.9109864744296868,1.2674512689842228,0,-12.5,0,0,0,-0.049236,1354,1359,1383,1500,1500,1500
1747541632.857478,-0.27,-0.18,-0.1,-0.16471544815696484,0.1407171709420428,0.019634954084936207,1.1517936079130613,-0.9045132820350419,1.2989425347599566,0,-12.5,0,0,0,-0.049236,1354,1359,1383,1500,1500,1500
1747541632.9600222,-0.27,-0.18,-0.1,-0.16471544815696484,0.1407171709420428,0.019634954084936207,1.1517936079130613,-0.9045132820350419,1.2989425347599566,0,-12.5,0,0,0,-0.049236,1354,1359,1383,1500,1500,1500
1747541633.0433738,-0.58,-0.08,0.02,-0.14289883250703572,0.14289883250703572,0.03381575425739013,1.10176171197,-0.897662584879229,1.333063533897754,0,-12.5,0,0,0,-0.049236,1354,1359,1383,1500,1500,1500
1747541633.1431978,-0.58,-0.08,0.02,-0.14289883250703572,0.14289883250703572,0.03381575425739013,1.10176171197,-0.897662584879229,1.333063533897754,0,-12.5,0,0,0,-0.049236,1354,1359,1383,1500,1500,1500
1747541633.2431195,-0.7000000000000001,-0.14,0.01,-0.13308135546456762,0.12762720155208535,0.04581489286485115,1.0536220893740327,-0.8926481313865735,1.3663013976922702,0,-12.5,0,0,0,-0.049236,1354,1359,1383,1500,1500,1500
1747541633.3430219,-0.33,-0.09,0.03,-0.12871803233458182,0.11562806294462433,0.05345070834232634,1.0121539666344783,-0.8897275917056624,1.3957320171109993,0,-12.5,0,0,0,-0.049236,1354,1359,1383,1500,1500,1500
1747541633.4429598,-0.33,-0.09,0.03,-0.12871803233458182,0.11562806294462433,0.05345070834232634,1.0121539666344783,-0.8897275917056624,1.3957320171109993,0,-12.5,0,0,0,-0.049236,1354,1359,1383,1500,1500,1500
1747541633.5264225,-0.75,-0.06,-0.11,-0.1341721862470641,0.11453723216212788,0.050178215994836975,0.9691762089835911,-0.8861384894843067,1.4254038083166605,0,-12.5,0,0,0,-0.049236,1354,1359,1383,1500,1500,1500
1747541633.6263232,-0.75,-0.06,-0.11,-0.1341721862470641,0.11453723216212788,0.050178215994836975,0.9691762089835911,-0.8861384894843067,1.4254038083166605,0,-12.5,0,0,0,-0.049236,1354,1359,1383,1500,1500,1500
1747541633.7261188,-0.43,-0.06,-0.26,-0.13962634015954636,0.10799224746714914,0.04908738521234052,0.9248773618143732,-0.8817878578819021,1.4544516939488206,0,-12.5,0,0,0,-0.049236,1354,1359,1383,1500,1500,1500
1747541633.8263478,-0.52,0.01,-0.03,-0.1407171709420428,0.11017390903214205,0.044724062082354694,0.8844039246985258,-0.8769847002272461,1.480384898673026,0,-12.5,0,0,0,-0.049236,1354,1359,1383,1500,1500,1500
1747541633.926508,-0.52,0.01,-0.03,-0.1407171709420428,0.11017390903214205,0.044724062082354694,0.8844039246985258,-0.8769847002272461,1.480384898673026,0,-12.5,0,0,0,-0.049236,1354,1359,1383,1500,1500,1500
1747541634.009223,-0.32,-0.21,-0.17,-0.12871803233458182,0.11999138607461016,0.05235987755982989,0.8421465608798017,-0.8706726719360647,1.508747054212808,0,-12.5,0,0,0,-0.049236,1354,1359,1383,1500,1500,1500
1747541634.1073935,-0.34,-0.18,-0.29,-0.14180800172453928,0.12980886311707826,0.038179077387375956,0.8008052783111317,-0.8629234088582248,1.5369723449202013,0,-12.5,0,0,0,-0.049236,1354,1359,1383,1500,1500,1500
1747541634.2099385,-0.34,-0.18,-0.29,-0.14180800172453928,0.12980886311707826,0.038179077387375956,0.8008052783111317,-0.8629234088582248,1.5369723449202013,0,-12.5,0,0,0,-0.049236,1354,1359,1383,1500,1500,1500
1747541634.2925906,-0.43,-0.12,-0.22,-0.13853550937704992,0.1265363707695889,0.028361600344907856,0.7589145345948475,-0.8514334783679453,1.5628898110197735,0,-12.5,0,0,0,-0.049236,1354,1359,1383,1500,1500,1500
1747541634.3938234,-0.43,-0.12,-0.22,-0.13853550937704992,0.1265363707695889,0.028361600344907856,0.7589145345948475,-0.8514334783679453,1.5628898110197735,0,-12.5,0,0,0,-0.049236,1354,1359,1383,1500,1500,1500
1747541634.4923942,-0.45,-0.15,-0.22,-0.11671889372712078,0.12980886311707826,0.05999569303730508,0.7203404786441032,-0.8418148274799307,1.5896688875167282,0,-12.5,0,0,0,-0.049236,1354,1359,1383,1500,1500,1500
1747541634.5925024,-0.53,-0.49,-0.19,-0.11344640137963143,0.1090830782496456,0.05672320068981571,0.6817459659455417,-0.8325060772226611,1.6185325201167822,0,-12.5,0,0,0,-0.049236,1354,1359,1383,1500,1500,1500
1747541634.693307,-0.53,-0.49,-0.19,-0.11344640137963143,0.1090830782496456,0.05672320068981571,0.6817459659455417,-0.8325060772226611,1.6185325201167822,0,-12.5,0,0,0,-0.049236,1354,1359,1383,1500,1500,1500
1747541634.7763877,-0.25,-0.21,-0.28,-0.1090830782496456,0.10581058590215622,0.04799655442984406,0.6471646990164807,-0.8229435367518203,1.6429539591187068,0,-12.5,0,0,0,-0.049236,1354,1359,1383,1500,1500,1500
1747541634.8753755,-0.25,-0.21,-0.28,-0.1090830782496456,0.10581058590215622,0.04799655442984406,0.6471646990164807,-0.8229435367518203,1.6429539591187068,0,-12.5,0,0,0,-0.049236,1354,1359,1383,1500,1500,1500
1747541634.9752405,-0.66,-0.29,-0.08,-0.10362892433716332,0.10362892433716332,0.06763150851478027,0.6120398106762517,-0.8142364841017459,1.6682030367931215,0,-12.5,0,0,0,-0.049236,1354,1359,1383,1500,1500,1500
1747541635.075495,-0.16,-0.21,-0.02,-0.11126473981463851,0.10035643198967395,0.06544984694978735,0.5791196346712434,-0.8063521257229102,1.6919245611006886,0,-12.5,0,0,0,-0.049236,1354,1359,1383,1500,1500,1500
1747541635.1766691,-0.16,-0.21,-0.02,-0.11126473981463851,0.10035643198967395,0.06544984694978735,0.5791196346712434,-0.8063521257229102,1.6919245611006886,0,-12.5,0,0,0,-0.049236,1354,1359,1383,1500,1500,1500
1747541635.2612696,-0.86,-0.3,0.04,-0.11780972450961724,0.10253809355466686,0.050178215994836975,0.5444238326025537,-0.7971554443359222,1.7148215082392575,0,-12.5,0,0,0,-0.049236,1354,1359,1383,1500,1500,1500
1747541635.3630347,-0.5,0.02,0.03,-0.08508480103472356,0.11126473981463851,0.06326818538479445,0.515225811809503,-0.7872341056501208,1.735429106544066,0,-12.5,0,0,0,-0.049236,1354,1359,1383,1500,1500,1500
1747541635.4594994,-0.5,0.02,0.03,-0.08508480103472356,0.11126473981463851,0.06326818538479445,0.515225811809503,-0.7872341056501208,1.735429106544066,0,-12.5,0,0,0,-0.049236,1354,1359,1383,1500,1500,1500
1747541635.5785089,-0.51,-0.09,0.03,-0.08944812416470939,0.10799224746714914,0.07308566242726255,0.4848339764020294,-0.7762970256246382,1.7602134353938186,0,-12.5,0,0,0,-0.049236,1354,1359,1383,1500,1500,1500
1747541635.6765573,-0.51,-0.09,0.03,-0.08944812416470939,0.10799224746714914,0.07308566242726255,0.4848339764020294,-0.7762970256246382,1.7602134353938186,0,-12.5,0,0,0,-0.049236,1354,1359,1383,1500,1500,1500
1747541635.760338,-0.68,0.01,-0.1,-0.07417649320975901,0.10799224746714914,0.0818123086872342,0.45407464361417593,-0.7663605912244047,1.7860614539907314,0,-12.5,0,0,0,-0.049236,1354,1359,1383,1500,1500,1500
1747541635.8600547,-0.48,-0.13,-0.01,-0.06872233929727672,0.10581058590215622,0.07417649320975901,0.4251348485723038,-0.7554341673897714,1.811119272851382,0,-12.5,0,0,0,-0.049236,1354,1359,1383,1500,1500,1500
1747541635.95907,-0.48,-0.13,-0.01,-0.06872233929727672,0.10581058590215622,0.07417649320975901,0.4251348485723038,-0.7554341673897714,1.811119272851382,0,-12.5,0,0,0,-0.049236,1354,1359,1383,1500,1500,1500
1747541636.0436556,-0.11,-0.12,-0.12,-0.061086523819801536,0.09381144729469522,0.06217735460229799,0.39956904644022,-0.74417516122233,1.8331816701886159,0,-12.5,0,0,0,-0.049236,1354,1359,1383,1500,1500,1500
1747541636.1423886,-0.11,-0.12,-0.12,-0.061086523819801536,0.09381144729469522,0.06217735460229799,0.39956904644022,-0.74417516122233,1.8331816701886159,0,-12.5,0,0,0,-0.049236,1354,1359,1383,1500,1500,1500
1747541636.242502,-0.6900000000000001,-0.14,-0.06,-0.050178215994836975,0.09272061651219876,0.06217735460229799,0.37923792087813624,-0.734451846243098,1.8515645723537835,0,-12.5,0,0,0,-0.049236,1354,1359,1383,1500,1500,1500
1747541636.3426678,-0.2,0.05,-0.17,-0.05890486225480862,0.08508480103472356,0.06326818538479445,0.35910403188168183,-0.7241363562204113,1.8697194867574414,0,-12.5,0,0,0,-0.049236,1354,1359,1383,1500,1500,1500
1747541636.4428499,-0.2,0.05,-0.17,-0.05890486225480862,0.08508480103472356,0.06326818538479445,0.35910403188168183,-0.7241363562204113,1.8697194867574414,0,-12.5,0,0,0,-0.049236,1354,1359,1383,1500,1500,1500
1747541636.526586,-0.14,-0.2,-0.11,-0.0545415391248228,0.08835729338221293,0.07853981633974483,0.3389043547269133,-0.7151672584433917,1.8881131672833136,0,-12.5,0,0,0,-0.049236,1354,1359,1383,1500,1500,1500
1747541636.626057,-0.14,-0.2,-0.11,-0.0545415391248228,0.08835729338221293,0.07853981633974483,0.3389043547269133,-0.7151672584433917,1.8881131672833136,0,-12.5,0,0,0,-0.049236,1354,1359,1383,1500,1500,1500
1747541636.725962,-0.13,0.15,-0.25,-0.05781403147231216,0.0916297857297023,0.0916297857297023,0.31735977898395834,-0.7058294971191195,1.9106200426142292,0,-0.722657,0,0,0,0,1394,1399,1423,1500,1500,1500
1747541636.8258631,-0.22,-0.05,-0.04,-0.05235987755982989,0.09272061651219876,0.06981317007977318,0.29485440418675535,-0.6947363789421711,1.9321796536893352,0,0,0,0,0,0,1434,1439,1463,1500,1500,1500
1747541636.9260063,-0.22,-0.05,-0.04,-0.05235987755982989,0.09272061651219876,0.06981317007977318,0.29485440418675535,-0.6947363789421711,1.9321796536893352,0,0,0,0,0,0,1474,1479,1500,1500,1500,1500
1747541637.0092485,0.38,0.15,-0.1,-0.015271630954950384,0.10581058590215622,0.06981317007977318,0.27818517742385096,-0.6827134918675969,1.9502252902226973,0,0,0,0,0,0,1500,1500,1500,1500,1500,1500
1747541637.109886,0.23,0.03,-0.14,0.04363323129985824,0.07090400086226964,0.07526732399225546,0.27091531999092433,-0.6727752983689796,1.9672268804800315,0,0,0,0,0,0,1500,1500,1500,1500,1500,1500
1747541637.2095366,0.23,0.03,-0.14,0.04363323129985824,0.07090400086226964,0.07526732399225546,0.27091531999092433,-0.6727752983689796,1.9672268804800315,0,0,0,0,0,0,1500,1500,1500,1500,1500,1500
1747541637.2936184,-0.11,0.08,-0.05,0.0719948316447661,0.04690572364734761,0.09381144729469522,0.269557241551389,-0.6680346954247391,1.9848661139083492,0,0,0,0,0,0,1500,1500,1500,1500,1500,1500
1747541637.3928719,-0.11,0.08,-0.05,0.0719948316447661,0.04690572364734761,0.09381144729469522,0.269557241551389,-0.6680346954247391,1.9848661139083492,0,0,0,0,0,0,1500,1500,1500,1500,1500,1500
1747541637.4922633,-0.13,0.09,-0.09,0.11453723216212788,0.05126904677733343,0.11344640137963143,0.2712795537947964,-0.6640884103915515,2.0067247857972412,0,0,0,0,0,0,1500,1500,1500,1500,1500,1500
1747541637.5924382,-0.18,0.04,-0.1,0.17235126363444003,0.061086523819801536,0.12108221685710661,0.2784859492981353,-0.659629879481646,2.030014128729673,0,0,0,0,0,0,1500,1500,1500,1500,1500,1500
1747541637.692595,-0.18,0.04,-0.1,0.17235126363444003,0.061086523819801536,0.12108221685710661,0.2784859492981353,-0.659629879481646,2.030014128729673,0,0,0,0,0,0,1500,1500,1500,1500,1500,1500
1747541637.776682,-0.2,0.09,-0.09,0.24107360293171676,0.07417649320975901,0.11780972450961724,0.2957235555781149,-0.6537330640169146,1.8946195798185126,0,0,0,0,0,0,1500,1500,1500,1500,1500,1500
1747541637.8734334,-0.21,0.08,-0.13,0.2999784651865254,0.07417649320975901,0.11235557059713497,0.32166211763548547,-0.6476951877432795,1.9044014435295296,0,0,0,0,0,0,1500,1500,1500,1500,1500,1500
1747541637.9763227,-0.21,0.08,-0.13,0.2999784651865254,0.07417649320975901,0.11235557059713497,0.32166211763548547,-0.6476951877432795,1.9044014435295296,0,0,0,0,0,0,1500,1500,1500,1500,1500,1500
1747541638.0756135,-0.21,0.07,-0.06,0.346884188833873,0.0719948316447661,0.09490227807719166,0.35927628813454565,-0.640882248667877,1.9141794623410548,0,0,0,0,0,0,1500,1500,1500,1500,1500,1500
1747541638.1758685,-0.21,0.07,-0.06,0.346884188833873,0.0719948316447661,0.09490227807719166,0.35927628813454565,-0.640882248667877,1.9141794623410548,0,0,0,0,0,0,1500,1500,1500,1500,1500,1500
1747541638.2598367,-0.21,0.07,-0.07,0.3916082509162277,0.06981317007977318,0.07853981633974483,0.4050490348759571,-0.6348833580276223,1.9173760047209918,0,-0.031945,0,0,0,0,1462,1462,1463,1500,1500,1500
1747541638.359737,-0.18,0.05,-0.02,0.4265148359561143,0.07526732399225546,0.06872233929727672,0.45797480401457846,-0.6295180091094332,1.9157757686636314,0,-2.140585,0,0,0,0,1422,1422,1423,1500,1500,1500
1747541638.4596357,-0.18,0.05,-0.02,0.4265148359561143,0.07526732399225546,0.06872233929727672,0.45797480401457846,-0.6295180091094332,1.9157757686636314,0,-2.314819,0,0,0,0,1382,1382,1395,1500,1500,1500
1747541638.5426316,-0.34,-0.08,0.02,0.45160394395353276,0.07635815477475191,0.05890486225480862,0.5125864093465975,-0.6236962000223123,1.9032982384630817,0,-2.314819,0,0,0,0,1370,1373,1395,1500,1500,1500
1747541638.643171,-0.34,-0.08,0.02,0.45160394395353276,0.07635815477475191,0.05890486225480862,0.5125864093465975,-0.6236962000223123,1.9032982384630817,0,-2.314819,0,0,0,0,1370,1373,1395,1500,1500,1500
1747541638.7427368,-0.67,0.0,0.03,0.4145156973486533,0.050178215994836975,0.0272707695624114,0.5729838444957387,-0.6170173112563113,1.9066507146722973,0,-2.314819,0,0,0,0,1370,1373,1395,1500,1500,1500
1747541638.842888,-0.63,-0.01,-0.16,0.33597588100890846,0.06435901616729091,0.055632369907319255,0.6196474334254465,-0.5988969876094301,1.9202930559400926,0,-2.314819,0,0,0,0,1370,1373,1395,1500,1500,1500
1747541638.9425423,-0.63,-0.01,-0.16,0.33597588100890846,0.06435901616729091,0.055632369907319255,0.6196474334254465,-0.5988969876094301,1.9202930559400926,0,-2.314819,0,0,0,0,1370,1373,1395,1500,1500,1500
1747541639.0262485,-0.39,0.14,-0.22,0.22689280275926285,0.026179938779914945,0.08399397025222712,0.6567048624137792,-0.5940202222588893,1.9349583800956103,0,-2.314819,0,0,0,0,1370,1373,1395,1500,1500,1500
1747541639.1252754,-0.07,-0.13,-0.27,0.13744467859455345,0.00545415391248228,0.09708393964218458,0.6755414450490526,-0.5985405485187008,1.9485172108974904,0,-2.314819,0,0,0,0,1370,1373,1395,1500,1500,1500
1747541639.2262654,-0.07,-0.13,-0.27,0.13744467859455345,0.00545415391248228,0.09708393964218458,0.6755414450490526,-0.5985405485187008,1.9485172108974904,0,-2.314819,0,0,0,0,1370,1373,1395,1500,1500,1500
1747541639.3259401,-0.13,-0.17,-0.09,0.09053895494720585,-0.022907446432425576,0.10144726277217041,0.6864607141879504,-0.6080738664810103,1.9614305190638652,0,-2.314819,0,0,0,0,1370,1373,1395,1500,1500,1500
1747541639.4263868,-0.13,-0.17,-0.09,0.09053895494720585,-0.022907446432425576,0.10144726277217041,0.6864607141879504,-0.6080738664810103,1.9614305190638652,0,-2.314819,0,0,0,0,1370,1373,1395,1500,1500,1500
1747541639.5093567,-0.2,0.12,-0.07,0.03381575425739013,-0.06326818538479445,0.12108221685710661,0.6898162992414547,-0.624534054684238,1.9730031904909184,0,-2.314819,0,0,0,0,1370,1373,1395,1500,1500,1500
1747541639.6098263,-0.12,-0.16,-0.11,0.001090830782496456,-0.08944812416470939,0.1189005552921137,0.6870933450770069,-0.6453201731256564,1.9817256248896136,0,-2.314819,0,0,0,0,1370,1373,1395,1500,1500,1500
1747541639.7098181,-0.12,-0.16,-0.11,0.001090830782496456,-0.08944812416470939,0.1189005552921137,0.6870933450770069,-0.6453201731256564,1.9817256248896136,0,-2.404492,0,0,0,0,1366,1370,1392,1500,1500,1500
