time,ay,ax,az,gy,gx,gz,roll,pitch,yaw,cmd_fx,cmd_fy,cmd_fz,cmd_tx,cmd_ty,cmd_tz,pwm_1,pwm_2,pwm_3,pwm_4,pwm_5,pwm_6
1747615811.3210695,0.0,0.0,0.0,0.0,0.0,0.0,0.0,0.0,0.0,0,0,0,0,0,0,1500,1500,1500,1500,1500,1500
1747615811.4255676,-0.03,0.02,-0.4,0.001090830782496456,-0.003272492347489368,-0.002181661564992912,0.0013500346068530341,-0.12006365025145452,-8.114734112751952e-05,0,0,0,0,0,0,1500,1500,1500,1500,1500,1500
1747615811.5101957,-0.03,0.02,-0.4,0.001090830782496456,-0.003272492347489368,-0.002181661564992912,0.0013500346068530341,-0.12006365025145452,-8.114734112751952e-05,0,0,0,0,0,0,1500,1500,1500,1500,1500,1500
1747615811.6091816,-0.05,0.01,-0.44,0.001090830782496456,0.001090830782496456,-0.001090830782496456,0.0013500346068530341,-0.12006365025145452,-8.114734112751952e-05,0,0,0,0,0,0,1500,1500,1500,1500,1500,1500
1747615811.6983387,-0.05,0.01,-0.46,-0.004363323129985824,-0.001090830782496456,0.0,0.0013500346068530341,-0.12006365025145452,-8.114734112751952e-05,0,0,0,0,0,0,1500,1500,1500,1500,1500,1500
1747615811.7921994,-0.05,0.01,-0.46,-0.004363323129985824,-0.001090830782496456,0.0,0.0013500346068530341,-0.12006365025145452,-8.114734112751952e-05,0,0,0,0,0,0,1500,1500,1500,1500,1500,1500
1747615811.8941672,-0.07,0.01,-0.4,-0.001090830782496456,0.0,0.001090830782496456,0.0013500346068530341,-0.12006365025145452,-8.114734112751952e-05,0,0,0,0,0,0,1500,1500,1500,1500,1500,1500
1747615811.9789324,-0.07,0.01,-0.4,-0.001090830782496456,0.0,0.001090830782496456,0.0013500346068530341,-0.12006365025145452,-8.114734112751952e-05,0,0,0,0,0,0,1500,1500,1500,1500,1500,1500
1747615812.0800166,-0.05,0.0,-0.46,0.004363323129985824,0.0,-0.002181661564992912,0.0013500346068530341,-0.12006365025145452,-8.114734112751952e-05,0,0,0,0,0,0,1500,1500,1500,1500,1500,1500
1747615812.171889,-0.05,0.01,-0.42,0.0,0.001090830782496456,-0.002181661564992912,0.0013500346068530341,-0.12006365025145452,-8.114734112751952e-05,0,0,0,0,0,0,1500,1500,1500,1500,1500,1500
1747615812.2604463,-0.05,0.01,-0.42,0.0,0.001090830782496456,-0.002181661564992912,0.0013500346068530341,-0.12006365025145452,-8.114734112751952e-05,0,0,0,0,0,0,1500,1500,1500,1500,1500,1500
1747615812.3590205,-0.05,0.01,-0.38,-0.001090830782496456,-0.004363323129985824,0.0,0.0013500346068530341,-0.12006365025145452,-8.114734112751952e-05,0,0,0,0,0,0,1500,1500,1500,1500,1500,1500
1747615812.4583201,-0.05,0.01,-0.38,-0.001090830782496456,-0.004363323129985824,0.0,0.0013500346068530341,-0.12006365025145452,-8.114734112751952e-05,0,0,0,0,0,0,1500,1500,1500,1500,1500,1500
1747615812.5440354,-0.04,0.0,-0.45,0.0,0.0,0.0,0.0013500346068530341,-0.12006365025145452,-8.114734112751952e-05,0,0,0,0,0,0,1500,1500,1500,1500,1500,1500
1747615812.6420643,-0.06,0.0,-0.4,0.002181661564992912,0.003272492347489368,0.001090830782496456,0.0013500346068530341,-0.12006365025145452,-8.114734112751952e-05,0,0,0,0,0,0,1500,1500,1500,1500,1500,1500
1747615812.7453558,-0.06,0.0,-0.4,0.002181661564992912,0.003272492347489368,0.001090830782496456,0.0013500346068530341,-0.12006365025145452,-8.114734112751952e-05,0,0,0,0,0,0,1500,1500,1500,1500,1500,1500
1747615812.841806,-0.04,0.0,-0.46,0.001090830782496456,0.001090830782496456,0.0,0.0013500346068530341,-0.12006365025145452,-8.114734112751952e-05,0,0,0,0,0,0,1500,1500,1500,1500,1500,1500
1747615812.9452612,-0.04,0.0,-0.46,0.001090830782496456,0.001090830782496456,0.0,0.0013500346068530341,-0.12006365025145452,-8.114734112751952e-05,0,0,0,0,0,0,1500,1500,1500,1500,1500,1500
1747615813.044751,-0.04,0.0,-0.42,-0.001090830782496456,-0.002181661564992912,-0.001090830782496456,0.0013500346068530341,-0.12006365025145452,-8.114734112751952e-05,0,0,0,0,0,0,1500,1500,1500,1500,1500,1500
1747615813.1458259,-0.05,0.0,-0.45,-0.003272492347489368,0.002181661564992912,0.002181661564992912,0.0013500346068530341,-0.12006365025145452,-8.114734112751952e-05,0,0,0,0,0,0,1500,1500,1500,1500,1500,1500
1747615813.2462146,-0.05,0.0,-0.45,-0.003272492347489368,0.002181661564992912,0.002181661564992912,0.0013500346068530341,-0.12006365025145452,-8.114734112751952e-05,0,0,0,0,0,0,1500,1500,1500,1500,1500,1500
1747615813.3449695,-0.04,0.0,-0.42,0.002181661564992912,0.001090830782496456,-0.001090830782496456,0.0013500346068530341,-0.12006365025145452,-8.114734112751952e-05,0,0,0,0,0,0,1500,1500,1500,1500,1500,1500
1747615813.4321067,-0.05,0.0,-0.42,-0.002181661564992912,0.004363323129985824,0.0,0.0013500346068530341,-0.12006365025145452,-8.114734112751952e-05,0,0,0,0,0,0,1500,1500,1500,1500,1500,1500
1747615813.5298524,-0.05,0.0,-0.42,-0.002181661564992912,0.004363323129985824,0.0,0.0013500346068530341,-0.12006365025145452,-8.114734112751952e-05,0,0,0,0,0,0,1500,1500,1500,1500,1500,1500
1747615813.6257627,-0.04,-0.01,-0.44,0.001090830782496456,-0.001090830782496456,-0.001090830782496456,0.0013500346068530341,-0.12006365025145452,-8.114734112751952e-05,0,0,0,0,0,0,1500,1500,1500,1500,1500,1500
1747615813.729113,-0.04,-0.01,-0.44,0.001090830782496456,-0.001090830782496456,-0.001090830782496456,0.0013500346068530341,-0.12006365025145452,-8.114734112751952e-05,0,0,0,0,0,0,1500,1500,1500,1500,1500,1500
1747615813.8377397,-0.06,0.0,-0.41000000000000003,-0.002181661564992912,0.002181661564992912,0.002181661564992912,0.0013500346068530341,-0.12006365025145452,-8.114734112751952e-05,0,0,0,0,0,0,1500,1500,1500,1500,1500,1500
1747615813.9439538,-0.05,0.01,-0.46,0.001090830782496456,-0.001090830782496456,0.002181661564992912,0.0013500346068530341,-0.12006365025145452,-8.114734112751952e-05,0,0,0,0,0,0,1500,1500,1500,1500,1500,1500
1747615814.0257661,-0.05,0.01,-0.46,0.001090830782496456,-0.001090830782496456,0.002181661564992912,0.0013500346068530341,-0.12006365025145452,-8.114734112751952e-05,0,0,0,0,0,0,1500,1500,1500,1500,1500,1500
1747615814.129131,-0.05,0.0,-0.41000000000000003,-0.002181661564992912,0.002181661564992912,-0.001090830782496456,0.0013500346068530341,-0.12006365025145452,-8.114734112751952e-05,0,0,0,0,0,0,1500,1500,1500,1500,1500,1500
1747615814.2261784,-0.05,0.0,-0.41000000000000003,-0.002181661564992912,0.002181661564992912,-0.001090830782496456,0.0013500346068530341,-0.12006365025145452,-8.114734112751952e-05,0,0,0,0,0,0,1500,1500,1500,1500,1500,1500
1747615814.3270915,-0.05,0.0,-0.41000000000000003,0.0,0.0,0.001090830782496456,0.0013500346068530341,-0.12006365025145452,-8.114734112751952e-05,0,0,0,0,0,0,1500,1500,1500,1500,1500,1500
1747615814.4267051,-0.04,0.0,-0.45,0.001090830782496456,0.001090830782496456,-0.002181661564992912,0.0013500346068530341,-0.12006365025145452,-8.114734112751952e-05,0,0,0,0,0,0,1500,1500,1500,1500,1500,1500
1747615814.5099273,-0.04,0.0,-0.45,0.001090830782496456,0.001090830782496456,-0.002181661564992912,0.0013500346068530341,-0.12006365025145452,-8.114734112751952e-05,0,0,0,0,0,0,1500,1500,1500,1500,1500,1500
1747615814.608798,-0.07,0.01,-0.38,0.0,0.0,-0.002181661564992912,0.0013500346068530341,-0.12006365025145452,-8.114734112751952e-05,0,0,0,0,0,0,1500,1500,1500,1500,1500,1500
1747615814.7001088,-0.04,-0.01,-0.47000000000000003,0.001090830782496456,0.001090830782496456,0.001090830782496456,0.0013500346068530341,-0.12006365025145452,-8.114734112751952e-05,0,0,0,0,0,0,1500,1500,1500,1500,1500,1500
1747615814.7938921,-0.04,-0.01,-0.47000000000000003,0.001090830782496456,0.001090830782496456,0.001090830782496456,0.0013500346068530341,-0.12006365025145452,-8.114734112751952e-05,0,0,0,0,0,0,1500,1500,1500,1500,1500,1500
1747615814.893386,-0.04,0.0,-0.41000000000000003,-0.001090830782496456,0.003272492347489368,-0.14180800172453928,0.0013500346068530341,-0.12006365025145452,-8.114734112751952e-05,0,0,0,0,0,0,1500,1500,1500,1500,1500,1500
1747615814.9958591,-0.04,0.0,-0.41000000000000003,-0.001090830782496456,0.003272492347489368,-0.14180800172453928,0.0013500346068530341,-0.12006365025145452,-8.114734112751952e-05,0,0,0,0,0,0,1500,1500,1500,1500,1500,1500
1747615815.094165,-0.04,0.0,-0.44,-0.001090830782496456,0.0,0.0,0.0013500346068530341,-0.12006365025145452,-8.114734112751952e-05,0,0,0,0,0,0,1500,1500,1500,1500,1500,1500
1747615815.194326,-0.06,0.0,-0.42,-0.004363323129985824,-0.002181661564992912,-0.001090830782496456,0.0013500346068530341,-0.12006365025145452,-8.114734112751952e-05,0,0,0,0,0,0,1500,1500,1500,1500,1500,1500
1747615815.2921035,-0.06,0.0,-0.42,-0.004363323129985824,-0.002181661564992912,-0.001090830782496456,0.0013500346068530341,-0.12006365025145452,-8.114734112751952e-05,0,0,0,0,0,0,1500,1500,1500,1500,1500,1500
1747615815.393675,-0.04,0.01,-0.39,-0.001090830782496456,0.008726646259971648,0.0,0.0013500346068530341,-0.12006365025145452,-8.114734112751952e-05,0,0,0,0,0,0,1500,1500,1500,1500,1500,1500
1747615815.4772527,-0.04,0.01,-0.39,-0.001090830782496456,0.008726646259971648,0.0,0.0013500346068530341,-0.12006365025145452,-8.114734112751952e-05,0,0,0,0,0,0,1500,1500,1500,1500,1500,1500
1747615815.575177,-0.05,-0.02,-0.44,0.003272492347489368,-0.002181661564992912,-0.001090830782496456,0.0013500346068530341,-0.12006365025145452,-8.114734112751952e-05,0,0,0,0,0,0,1500,1500,1500,1500,1500,1500
1747615815.6784363,-0.04,0.0,-0.41000000000000003,0.0,0.007635815477475192,-0.002181661564992912,0.0013500346068530341,-0.12006365025145452,-8.114734112751952e-05,0,0,0,0,0,0,1500,1500,1500,1500,1500,1500
1747615815.761497,-0.04,0.0,-0.41000000000000003,0.0,0.007635815477475192,-0.002181661564992912,0.0013500346068530341,-0.12006365025145452,-8.114734112751952e-05,0,0,0,0,0,0,1500,1500,1500,1500,1500,1500
1747615815.8614593,-0.04,0.0,-0.4,0.001090830782496456,0.003272492347489368,0.001090830782496456,0.0013500346068530341,-0.12006365025145452,-8.114734112751952e-05,0,0,0,0,0,0,1500,1500,1500,1500,1500,1500
1747615815.9592366,-0.04,0.0,-0.4,0.001090830782496456,0.003272492347489368,0.001090830782496456,0.0013500346068530341,-0.12006365025145452,-8.114734112751952e-05,0,0,0,0,0,0,1500,1500,1500,1500,1500,1500
1747615816.0414965,-0.02,0.0,-0.46,0.0,-0.003272492347489368,-0.002181661564992912,0.0013500346068530341,-0.12006365025145452,-8.114734112751952e-05,0,0,0,0,0,0,1500,1500,1500,1500,1500,1500
1747615816.1444414,-0.07,0.0,-0.41000000000000003,-0.003272492347489368,-0.001090830782496456,0.001090830782496456,0.0013500346068530341,-0.12006365025145452,-8.114734112751952e-05,0,0,0,0,0,0,1500,1500,1500,1500,1500,1500
1747615816.246317,-0.07,0.0,-0.41000000000000003,-0.003272492347489368,-0.001090830782496456,0.001090830782496456,0.0013500346068530341,-0.12006365025145452,-8.114734112751952e-05,0,0,0,0,0,0,1500,1500,1500,1500,1500,1500
1747615816.3426404,-0.04,0.0,-0.41000000000000003,0.0,0.002181661564992912,-0.001090830782496456,0.0013500346068530341,-0.12006365025145452,-8.114734112751952e-05,0,0,0,0,0,0,1500,1500,1500,1500,1500,1500
1747615816.4380007,-0.05,0.0,-0.46,-0.002181661564992912,0.00545415391248228,0.0,0.0013500346068530341,-0.12006365025145452,-8.114734112751952e-05,0,0,0,0,0,0,1500,1500,1500,1500,1500,1500
1747615816.5248,-0.05,0.0,-0.46,-0.002181661564992912,0.00545415391248228,0.0,0.0013500346068530341,-0.12006365025145452,-8.114734112751952e-05,0,0,0,0,0,0,1500,1500,1500,1500,1500,1500
1747615816.6258688,-0.07,0.0,-0.38,0.003272492347489368,-0.002181661564992912,0.0,0.0013500346068530341,-0.12006365025145452,-8.114734112751952e-05,0,0,0,0,0,0,1500,1500,1500,1500,1500,1500
1747615816.7245572,-0.07,0.0,-0.38,0.003272492347489368,-0.002181661564992912,0.0,0.0013500346068530341,-0.12006365025145452,-8.114734112751952e-05,0,0,0,0,0,0,1500,1500,1500,1500,1500,1500
1747615816.8098025,-0.06,0.0,-0.44,-0.004363323129985824,0.003272492347489368,0.002181661564992912,0.0013500346068530341,-0.12006365025145452,-8.114734112751952e-05,0,0,0,0,0,0,1500,1500,1500,1500,1500,1500
1747615816.9077296,-0.06,0.0,-0.44,-0.004363323129985824,0.003272492347489368,0.002181661564992912,0.0013500346068530341,-0.12006365025145452,-8.114734112751952e-05,0,0,0,0,0,0,1500,1500,1500,1500,1500,1500
1747615816.992622,-0.07,0.0,-0.42,0.002181661564992912,-0.001090830782496456,0.0,0.0013500346068530341,-0.12006365025145452,-8.114734112751952e-05,0,0,0,0,0,0,1500,1500,1500,1500,1500,1500
1747615817.091014,-0.04,0.0,-0.4,0.001090830782496456,0.003272492347489368,0.0,0.0013500346068530341,-0.12006365025145452,-8.114734112751952e-05,0,0,0,0,0,0,1500,1500,1500,1500,1500,1500
1747615817.192516,-0.04,0.0,-0.4,0.001090830782496456,0.003272492347489368,0.0,0.0013500346068530341,-0.12006365025145452,-8.114734112751952e-05,0,0,0,0,0,0,1500,1500,1500,1500,1500,1500
1747615817.2756526,-0.05,0.0,-0.44,0.001090830782496456,0.002181661564992912,0.001090830782496456,0.0013500346068530341,-0.12006365025145452,-8.114734112751952e-05,0,0,0,0,0,0,1500,1500,1500,1500,1500,1500
1747615817.3770752,-0.05,0.0,-0.44,0.001090830782496456,0.002181661564992912,0.001090830782496456,0.0013500346068530341,-0.12006365025145452,-8.114734112751952e-05,0,0,0,0,0,0,1500,1500,1500,1500,1500,1500
1747615817.4776802,-0.06,0.0,-0.39,0.001090830782496456,-0.004363323129985824,0.001090830782496456,0.0013500346068530341,-0.12006365025145452,-8.114734112751952e-05,0,0,0,0,0,0,1500,1500,1500,1500,1500,1500
1747615817.5781221,-0.07,0.01,-0.4,-0.001090830782496456,0.0,0.0,0.0013500346068530341,-0.12006365025145452,-8.114734112751952e-05,0,0,0,0,0,0,1500,1500,1500,1500,1500,1500
1747615817.6753094,-0.07,0.01,-0.4,-0.001090830782496456,0.0,0.0,0.0013500346068530341,-0.12006365025145452,-8.114734112751952e-05,0,0,0,0,0,0,1500,1500,1500,1500,1500,1500
1747615817.759684,-0.04,-0.01,-0.42,0.001090830782496456,0.0,-0.002181661564992912,0.0013500346068530341,-0.12006365025145452,-8.114734112751952e-05,0,0,0,0,0,0,1500,1500,1500,1500,1500,1500
1747615817.8587294,-0.04,-0.01,-0.42,0.001090830782496456,0.0,-0.002181661564992912,0.0013500346068530341,-0.12006365025145452,-8.114734112751952e-05,0,0,0,0,0,0,1500,1500,1500,1500,1500,1500
1747615817.9605222,-0.04,0.0,-0.39,-0.001090830782496456,-0.002181661564992912,0.0,0.0013500346068530341,-0.12006365025145452,-8.114734112751952e-05,0,0,0,0,0,0,1500,1500,1500,1500,1500,1500
1747615818.0625122,-0.07,0.0,-0.41000000000000003,0.0,0.0,-0.002181661564992912,0.0013500346068530341,-0.12006365025145452,-8.114734112751952e-05,0,0,0,0,0,0,1500,1500,1500,1500,1500,1500
1747615818.1611357,-0.07,0.0,-0.41000000000000003,0.0,0.0,-0.002181661564992912,0.0013500346068530341,-0.12006365025145452,-8.114734112751952e-05,0,0,0,0,0,0,1500,1500,1500,1500,1500,1500
1747615818.2446563,-0.03,0.0,-0.43,0.002181661564992912,-0.002181661564992912,-0.001090830782496456,0.0013500346068530341,-0.12006365025145452,-8.114734112751952e-05,0,0,0,0,0,0,1500,1500,1500,1500,1500,1500
1747615818.3442543,-0.03,0.0,-0.43,0.002181661564992912,-0.002181661564992912,-0.001090830782496456,0.0013500346068530341,-0.12006365025145452,-8.114734112751952e-05,0,0,0,0,0,0,1500,1500,1500,1500,1500,1500
1747615818.4448717,-0.06,-0.01,-0.37,0.001090830782496456,0.0,-0.003272492347489368,0.0013500346068530341,-0.12006365025145452,-8.114734112751952e-05,0,0,0,0,0,0,1500,1500,1500,1500,1500,1500
1747615818.5418694,-0.06,0.0,-0.46,-0.004363323129985824,-0.001090830782496456,0.0,0.0013500346068530341,-0.12006365025145452,-8.114734112751952e-05,0,0,0,0,0,0,1500,1500,1500,1500,1500,1500
1747615818.6430316,-0.06,0.0,-0.46,-0.004363323129985824,-0.001090830782496456,0.0,0.0013500346068530341,-0.12006365025145452,-8.114734112751952e-05,0,0,0,0,0,0,1500,1500,1500,1500,1500,1500
1747615818.7426975,-0.06,0.0,-0.41000000000000003,0.0,0.002181661564992912,0.001090830782496456,0.0013500346068530341,-0.12006365025145452,-8.114734112751952e-05,0,0,0,0,0,0,1500,1500,1500,1500,1500,1500
1747615818.8420408,-0.04,0.02,-0.43,0.003272492347489368,-0.002181661564992912,0.0,0.0013500346068530341,-0.12006365025145452,-8.114734112751952e-05,0,0,0,0,0,0,1500,1500,1500,1500,1500,1500
1747615818.944603,-0.04,0.02,-0.43,0.003272492347489368,-0.002181661564992912,0.0,0.0013500346068530341,-0.12006365025145452,-8.114734112751952e-05,0,0,0,0,0,0,1500,1500,1500,1500,1500,1500
1747615819.044517,-0.06,-0.01,-0.47000000000000003,-0.001090830782496456,0.0,0.002181661564992912,0.0013500346068530341,-0.12006365025145452,-8.114734112751952e-05,0,0,0,0,0,0,1500,1500,1500,1500,1500,1500
1747615819.1369972,-0.04,0.01,-0.42,-0.002181661564992912,0.002181661564992912,-0.001090830782496456,0.0013500346068530341,-0.12006365025145452,-8.114734112751952e-05,0,0,0,0,0,0,1500,1500,1500,1500,1500,1500
1747615819.2416148,-0.04,0.01,-0.42,-0.002181661564992912,0.002181661564992912,-0.001090830782496456,0.0013500346068530341,-0.12006365025145452,-8.114734112751952e-05,0,0,0,0,0,0,1500,1500,1500,1500,1500,1500
1747615819.344909,-0.04,-0.01,-0.46,-0.001090830782496456,-0.00545415391248228,0.002181661564992912,0.0013500346068530341,-0.12006365025145452,-8.114734112751952e-05,0,0,0,0,0,0,1500,1500,1500,1500,1500,1500
1747615819.4407704,-0.04,-0.01,-0.46,-0.001090830782496456,-0.00545415391248228,0.002181661564992912,0.0013500346068530341,-0.12006365025145452,-8.114734112751952e-05,0,0,0,0,0,0,1500,1500,1500,1500,1500,1500
1747615819.5244308,-0.05,0.01,-0.43,0.001090830782496456,-0.004363323129985824,0.001090830782496456,0.0013500346068530341,-0.12006365025145452,-8.114734112751952e-05,0,0,0,0,0,0,1500,1500,1500,1500,1500,1500
1747615819.624247,-0.05,0.0,-0.39,-0.001090830782496456,0.002181661564992912,0.001090830782496456,0.0013500346068530341,-0.12006365025145452,-8.114734112751952e-05,0,0,0,0,0,0,1500,1500,1500,1500,1500,1500
1747615819.7269347,-0.05,0.0,-0.39,-0.001090830782496456,0.002181661564992912,0.001090830782496456,0.0013500346068530341,-0.12006365025145452,-8.114734112751952e-05,0,0,0,0,0,0,1500,1500,1500,1500,1500,1500
1747615819.8244932,-0.06,-0.01,-0.44,-0.001090830782496456,0.0,-0.001090830782496456,0.0013500346068530341,-0.12006365025145452,-8.114734112751952e-05,0,0,0,0,0,0,1500,1500,1500,1500,1500,1500
1747615819.922849,-0.06,0.0,-0.42,0.0,0.002181661564992912,0.0,0.0013500346068530341,-0.12006365025145452,-8.114734112751952e-05,0,0,0,0,0,0,1500,1500,1500,1500,1500,1500
1747615820.0144603,-0.06,0.0,-0.42,0.0,0.002181661564992912,0.0,0.0013500346068530341,-0.12006365025145452,-8.114734112751952e-05,0,0,0,0,0,0,1500,1500,1500,1500,1500,1500
1747615820.10806,-0.03,-0.01,-0.47000000000000003,0.001090830782496456,0.0,0.001090830782496456,0.0013500346068530341,-0.12006365025145452,-8.114734112751952e-05,0,0,0,0,0,0,1500,1500,1500,1500,1500,1500
1747615820.2111285,-0.03,-0.01,-0.47000000000000003,0.001090830782496456,0.0,0.001090830782496456,0.0013500346068530341,-0.12006365025145452,-8.114734112751952e-05,0,0,0,0,0,0,1500,1500,1500,1500,1500,1500
1747615820.3089616,-0.05,0.02,-0.42,-0.002181661564992912,0.0,0.0,0.0013500346068530341,-0.12006365025145452,-8.114734112751952e-05,0,0,0,0,0,0,1500,1500,1500,1500,1500,1500
1747615820.4024131,-0.04,0.0,-0.43,0.001090830782496456,-0.002181661564992912,-0.003272492347489368,0.0013500346068530341,-0.12006365025145452,-8.114734112751952e-05,0,0,0,0,0,0,1500,1500,1500,1500,1500,1500
1747615820.5077426,-0.04,0.0,-0.43,0.001090830782496456,-0.002181661564992912,-0.003272492347489368,0.0013500346068530341,-0.12006365025145452,-8.114734112751952e-05,0,0,0,0,0,0,1500,1500,1500,1500,1500,1500
1747615820.6109378,-0.08,-0.02,-0.38,0.001090830782496456,0.0,0.0,0.0013500346068530341,-0.12006365025145452,-8.114734112751952e-05,0,0,0,0,0,0,1500,1500,1500,1500,1500,1500
1747615820.7110574,-0.05,0.01,-0.41000000000000003,0.0,0.003272492347489368,0.001090830782496456,0.0013500346068530341,-0.12006365025145452,-8.114734112751952e-05,0,0,0,0,0,0,1500,1500,1500,1500,1500,1500
1747615820.8071985,-0.05,0.01,-0.41000000000000003,0.0,0.003272492347489368,0.001090830782496456,0.0013500346068530341,-0.12006365025145452,-8.114734112751952e-05,0,0,0,0,0,0,1500,1500,1500,1500,1500,1500
1747615820.910164,0.04,0.05,-0.43,-0.004363323129985824,-0.00545415391248228,-0.001090830782496456,0.0013500346068530341,-0.12006365025145452,-8.114734112751952e-05,0,0,0,0,0,0,1500,1500,1500,1500,1500,1500
1747615821.0109982,0.04,0.05,-0.43,-0.004363323129985824,-0.00545415391248228,-0.001090830782496456,0.0013500346068530341,-0.12006365025145452,-8.114734112751952e-05,0,0,0,0,0,0,1500,1500,1500,1500,1500,1500
1747615821.1124864,0.0,-0.04,-0.32,0.008726646259971648,-0.001090830782496456,0.007635815477475192,0.0013279035333517348,-0.1200638979034612,0.00028704381596131475,0,0,0,0,0,0,1500,1500,1500,1500,1500,1500
1747615821.2092102,-0.16,0.02,-0.4,-0.00545415391248228,-0.004363323129985824,0.001090830782496456,0.0030609621647068783,-0.11970300923145057,-6.11223425624988e-05,0,0,0,0,0,0,1500,1500,1500,1500,1500,1500
1747615821.3109784,-0.16,0.02,-0.4,-0.00545415391248228,-0.004363323129985824,0.001090830782496456,0.0030609621647068783,-0.11970300923145057,-6.11223425624988e-05,0,0,0,0,0,0,1500,1500,1500,1500,1500,1500
1747615821.4086783,-0.01,-0.18,-0.4,0.002181661564992912,-0.003272492347489368,-0.004363323129985824,0.002223942184478468,-0.11982528487141335,-0.00037798101680390766,0,0,0,0,0,0,1500,1500,1500,1500,1500,1500
1747615821.5042229,0.01,0.11,-0.44,0.006544984694978736,0.0,0.0,0.002093884200983885,-0.11994816267168382,-0.00024801617503429196,0,0,0,0,0,0,1500,1500,1500,1500,1500,1500
1747615821.5925574,0.01,0.11,-0.44,0.006544984694978736,0.0,0.0,0.002093884200983885,-0.11994816267168382,-0.00024801617503429196,0,0,0,0,0,0,1500,1500,1500,1500,1500,1500
1747615821.691782,-0.05,-0.03,-0.53,-0.004363323129985824,-0.003272492347489368,0.003272492347489368,0.001993256086079083,-0.11994780996011417,-0.0006088549881723837,0,0,0,0,0,0,1500,1500,1500,1500,1500,1500
1747615821.7907224,-0.05,-0.03,-0.53,-0.004363323129985824,-0.003272492347489368,0.003272492347489368,0.001993256086079083,-0.11994780996011417,-0.0006088549881723837,0,0,0,0,0,0,1500,1500,1500,1500,1500,1500
1747615821.8902807,-0.01,0.06,-0.41000000000000003,-0.002181661564992912,-0.001090830782496456,-0.004363323129985824,0.001625003719694849,-0.12006326001194388,-0.0005868229341477746,0,0,0,0,0,0,1500,1500,1500,1500,1500,1500
1747615821.9929588,-0.06,0.19,-0.41000000000000003,0.004363323129985824,-0.002181661564992912,-0.004363323129985824,0.002253311141542331,-0.11970201116225268,-0.0008687702499142989,0,0,0,0,0,0,1500,1500,1500,1500,1500,1500
1747615822.093251,-0.06,0.19,-0.41000000000000003,0.004363323129985824,-0.002181661564992912,-0.004363323129985824,0.002253311141542331,-0.11970201116225268,-0.0008687702499142989,0,0,0,0,0,0,1500,1500,1500,1500,1500,1500
1747615822.1926317,-0.07,0.0,-0.3,0.011999138607461015,0.006544984694978736,-0.001090830782496456,0.0018855104772255845,-0.12055391067118568,-0.0008475381798501573,0,0,0,0,0,0,1500,1500,1500,1500,1500,1500
1747615822.2755377,-0.07,0.0,-0.3,0.011999138607461015,0.006544984694978736,-0.001090830782496456,0.0018855104772255845,-0.12055391067118568,-0.0008475381798501573,0,0,0,0,0,0,1500,1500,1500,1500,1500,1500
1747615822.376705,-0.14,0.08,-0.49,0.003272492347489368,0.0,0.001090830782496456,0.00188536461013297,-0.12030843911190538,-0.0008472879486961345,0,0,0,0,0,0,1500,1500,1500,1500,1500,1500
1747615822.4761343,-0.08,0.01,-0.41000000000000003,0.002181661564992912,0.002181661564992912,-0.002181661564992912,0.002008098826532148,-0.12030839408293743,-0.0008546802039401639,0,0,0,0,0,0,1500,1500,1500,1500,1500,1500
1747615822.5747082,-0.08,0.01,-0.41000000000000003,0.002181661564992912,0.002181661564992912,-0.002181661564992912,0.002008098826532148,-0.12030839408293743,-0.0008546802039401639,0,0,0,0,0,0,1500,1500,1500,1500,1500,1500
1747615822.6744027,-0.04,-0.02,-0.48,0.0,0.003272492347489368,0.003272492347489368,0.0018854375284497976,-0.12043117398004263,-0.0008474130560616953,0,0,0,0,0,0,1500,1500,1500,1500,1500,1500
1747615822.7599545,-0.04,-0.02,-0.48,0.0,0.003272492347489368,0.003272492347489368,0.0018854375284497976,-0.12043117398004263,-0.0008474130560616953,0,0,0,0,0,0,1500,1500,1500,1500,1500,1500
1747615822.8720129,-0.07,0.03,-0.42,-0.002181661564992912,-0.002181661564992912,-0.001090830782496456,0.00188536461013297,-0.12030843911190538,-0.0008472879486961345,0,0,0,0,0,0,1500,1500,1500,1500,1500,1500
1747615822.9628596,0.12,-0.08,-0.26,0.001090830782496456,-0.00545415391248228,0.0,0.0018852917222704668,-0.12018570606484391,-0.0008471628577471127,0,0,0,0,0,0,1500,1500,1500,1500,1500,1500
1747615823.0583858,0.12,-0.08,-0.26,0.001090830782496456,-0.00545415391248228,0.0,0.0018852917222704668,-0.12018570606484391,-0.0008471628577471127,0,0,0,0,0,0,1500,1500,1500,1500,1500,1500
1747615823.1581182,0.0,0.0,-0.44,-0.00545415391248228,0.002181661564992912,0.002181661564992912,0.002008098826532148,-0.12030839408293743,-0.0008546802039401639,0,0,0,0,0,0,1500,1500,1500,1500,1500,1500
1747615823.2427747,0.01,0.08,-0.45,-0.001090830782496456,0.001090830782496456,0.001090830782496456,0.0018854375284497976,-0.12043117398004263,-0.0008474130560616953,0,0,0,0,0,0,1500,1500,1500,1500,1500,1500
1747615823.3429644,0.01,0.08,-0.45,-0.001090830782496456,0.001090830782496456,0.001090830782496456,0.0018854375284497976,-0.12043117398004263,-0.0008474130560616953,0,0,0,0,0,0,1500,1500,1500,1500,1500,1500
1747615823.4451146,0.0,-0.14,-0.33,0.002181661564992912,0.004363323129985824,-0.006544984694978736,0.0018855104772255845,-0.12055391067118568,-0.0008475381798501573,0,0,0,0,0,0,1500,1500,1500,1500,1500,1500
1747615823.542973,0.0,-0.14,-0.33,0.002181661564992912,0.004363323129985824,-0.006544984694978736,0.0018855104772255845,-0.12055391067118568,-0.0008475381798501573,0,0,0,0,0,0,1500,1500,1500,1500,1500,1500
1747615823.6445205,0.05,0.03,-0.34,0.011999138607461015,0.004363323129985824,0.001090830782496456,0.0017627726546940055,-0.12055395570149152,-0.0008401306956064704,0,0,0,0,0,0,1500,1500,1500,1500,1500,1500
1747615823.7428463,-0.08,0.08,-0.4,-0.002181661564992912,-0.002181661564992912,0.0,0.0020082483265192893,-0.12055386564088008,-0.0008549456640008339,0,0,0,0,0,0,1500,1500,1500,1500,1500,1500
1747615823.8412306,-0.08,0.08,-0.4,-0.002181661564992912,-0.002181661564992912,0.0,0.0020082483265192893,-0.12055386564088008,-0.0008549456640008339,0,0,0,0,0,0,1500,1500,1500,1500,1500,1500
1747615823.941098,0.0,-0.2,-0.43,-0.00545415391248228,-0.002181661564992912,-0.006544984694978736,0.0018855104772255845,-0.12055391067118568,-0.0008475381798501573,0,0,0,0,0,0,1500,1500,1500,1500,1500,1500
1747615824.0273213,0.08,0.03,-0.46,0.0,-0.004363323129985824,0.006544984694978736,0.0018855104772255845,-0.12055391067118568,-0.0008475381798501573,0,0,0,0,0,0,1500,1500,1500,1500,1500,1500
1747615824.1265001,0.08,0.03,-0.46,0.0,-0.004363323129985824,0.006544984694978736,0.0018855104772255845,-0.12055391067118568,-0.0008475381798501573,0,0,0,0,0,0,1500,1500,1500,1500,1500,1500
1747615824.2267516,-0.3,0.04,-0.32,0.003272492347489368,0.00545415391248228,-0.006544984694978736,0.0018855104772255845,-0.12055391067118568,-0.0008475381798501573,0,0,0,0,0,0,1500,1500,1500,1500,1500,1500
1747615824.32789,-0.3,0.04,-0.32,0.003272492347489368,0.00545415391248228,-0.006544984694978736,0.0018855104772255845,-0.12055391067118568,-0.0008475381798501573,0,0,0,0,0,0,1500,1500,1500,1500,1500,1500
1747615824.426815,-0.03,-0.05,-0.43,0.0,-0.004363323129985824,0.002181661564992912,0.001639826995142939,-0.12018579612144499,-0.0008323935748806777,0,0,0,0,0,0,1500,1500,1500,1500,1500,1500
1747615824.5100722,-0.1,-0.1,-0.39,-0.001090830782496456,0.00545415391248228,0.004363323129985824,0.0017627726546940055,-0.12055395570149152,-0.0008401306956064704,0,0,0,0,0,0,1500,1500,1500,1500,1500,1500
1747615824.6085882,-0.1,-0.1,-0.39,-0.001090830782496456,0.00545415391248228,0.004363323129985824,0.0017627726546940055,-0.12055395570149152,-0.0008401306956064704,0,0,0,0,0,0,1500,1500,1500,1500,1500,1500
1747615824.7072845,0.0,-0.14,-0.37,-0.002181661564992912,-0.001090830782496456,0.001090830782496456,0.0017627726546940055,-0.12055395570149152,-0.0008401306956064704,0,0,0,0,0,0,1500,1500,1500,1500,1500,1500
1747615824.792629,0.0,-0.14,-0.37,-0.002181661564992912,-0.001090830782496456,0.001090830782496456,0.0017627726546940055,-0.12055395570149152,-0.0008401306956064704,0,0,0,0,0,0,1500,1500,1500,1500,1500,1500
1747615824.892911,-0.03,0.04,-0.38,0.00545415391248228,-0.003272492347489368,-0.001090830782496456,0.0017627015233142183,-0.12043121900967929,-0.0008400131864397625,0,0,0,0,0,0,1500,1500,1500,1500,1500,1500
1747615824.9925048,-0.04,0.03,-0.4,0.0,0.001090830782496456,0.0,0.0017627726546940055,-0.12055395570149152,-0.0008401306956064704,0,0,0,0,0,0,1500,1500,1500,1500,1500,1500
1747615825.09127,-0.04,0.03,-0.4,0.0,0.001090830782496456,0.0,0.0017627726546940055,-0.12055395570149152,-0.0008401306956064704,0,0,0,0,0,0,1500,1500,1500,1500,1500,1500
1747615825.1934884,0.0,0.21,-0.35000000000000003,0.00545415391248228,0.002181661564992912,0.003272492347489368,0.0017627015233142183,-0.12043121900967929,-0.0008400131864397625,0,0,0,0,0,0,1500,1500,1500,1500,1500,1500
1747615825.2728972,0.0,0.21,-0.35000000000000003,0.00545415391248228,0.002181661564992912,0.003272492347489368,0.0017627015233142183,-0.12043121900967929,-0.0008400131864397625,0,0,0,0,0,0,1500,1500,1500,1500,1500,1500
1747615825.3784666,-0.04,-0.15,-0.41000000000000003,-0.002181661564992912,0.001090830782496456,-0.008726646259971648,0.001770101384000577,-0.12043111394052747,-0.0009627490364213456,0,0,0,0,0,0,1500,1500,1500,1500,1500,1500
1747615825.4754837,-0.07,-0.15,-0.53,-0.008726646259971648,-0.00545415391248228,0.003272492347489368,0.0019001490993320019,-0.12030821396706814,-0.001092756026949172,0,0,0,0,0,0,1500,1500,1500,1500,1500,1500
1747615825.557181,-0.07,-0.15,-0.53,-0.008726646259971648,-0.00545415391248228,0.003272492347489368,0.0019001490993320019,-0.12030821396706814,-0.001092756026949172,0,0,0,0,0,0,1500,1500,1500,1500,1500,1500
1747615825.657578,-0.11,0.04,-0.47000000000000003,-0.002181661564992912,-0.007635815477475192,-0.007635815477475192,0.0019002372461961422,-0.12043094883186302,-0.0010928847653052139,0,0,0,0,0,0,1500,1500,1500,1500,1500,1500
1747615825.7429378,-0.11,0.04,-0.47000000000000003,-0.002181661564992912,-0.007635815477475192,-0.007635815477475192,0.0019002372461961422,-0.12043094883186302,-0.0010928847653052139,0,0,0,0,0,0,1500,1500,1500,1500,1500,1500
1747615825.8444986,-0.01,-0.06,-0.5,0.002181661564992912,-0.001090830782496456,0.001090830782496456,0.0019002372461961422,-0.12043094883186302,-0.0010928847653052139,0,0,0,0,0,0,1500,1500,1500,1500,1500,1500
1747615825.941453,-0.07,0.18,-0.52,0.004363323129985824,0.003272492347489368,0.001090830782496456,0.0019002372461961422,-0.12043094883186302,-0.0010928847653052139,0,0,0,0,0,0,1500,1500,1500,1500,1500,1500
1747615826.0272455,-0.07,0.18,-0.52,0.004363323129985824,0.003272492347489368,0.001090830782496456,0.0019002372461961422,-0.12043094883186302,-0.0010928847653052139,0,0,0,0,0,0,1500,1500,1500,1500,1500,1500
1747615826.126045,-0.03,-0.02,-0.45,-0.007635815477475192,0.0,0.011999138607461015,0.001892837387426618,-0.12043106140595206,-0.0009701489051211987,0,0,0,0,0,0,1500,1500,1500,1500,1500,1500
1747615826.2265098,-0.03,-0.02,-0.45,-0.007635815477475192,0.0,0.011999138607461015,0.001892837387426618,-0.12043106140595206,-0.0009701489051211987,0,0,0,0,0,0,1500,1500,1500,1500,1500,1500
1747615826.3258986,-0.27,0.03,-0.41000000000000003,-0.001090830782496456,0.004363323129985824,0.004363323129985824,0.0016251658180065239,-0.12043145916774561,-0.0005871416416743994,0,0,0,0,0,0,1500,1500,1500,1500,1500,1500
1747615826.424466,-0.15,0.12,-0.45,-0.001090830782496456,-0.002181661564992912,0.004363323129985824,0.0019931967057267466,-0.1198250747484804,-0.000608725948880622,0,0,0,0,0,0,1500,1500,1500,1500,1500,1500
1747615826.5094147,-0.15,0.12,-0.45,-0.001090830782496456,-0.002181661564992912,0.004363323129985824,0.0019931967057267466,-0.1198250747484804,-0.000608725948880622,0,0,0,0,0,0,1500,1500,1500,1500,1500,1500
1747615826.607845,0.11,-0.12,-0.54,-0.003272492347489368,0.004363323129985824,0.004363323129985824,0.0019934333823315607,-0.12055410580251277,-0.000609470358687358,0,0,0,0,0,0,1500,1500,1500,1500,1500,1500
1747615826.7076385,-0.16,0.08,-0.37,0.0,0.0,-0.002181661564992912,0.0016176315462066106,-0.11982526235824172,-0.0004639062660835206,0,0,0,0,0,0,1500,1500,1500,1500,1500,1500
1747615826.7944741,-0.16,0.08,-0.37,0.0,0.0,-0.002181661564992912,0.0016176315462066106,-0.11982526235824172,-0.0004639062660835206,0,0,0,0,0,0,1500,1500,1500,1500,1500,1500
1747615826.893572,0.06,0.18,-0.51,0.006544984694978736,0.0,0.001090830782496456,0.0017476720337203122,-0.11970240138478194,-0.0005938885417085316,0,0,0,0,0,0,1500,1500,1500,1500,1500,1500
1747615826.9792151,0.06,0.18,-0.51,0.006544984694978736,0.0,0.001090830782496456,0.0017476720337203122,-0.11970240138478194,-0.0005938885417085316,0,0,0,0,0,0,1500,1500,1500,1500,1500,1500
1747615827.077077,-0.16,0.01,-0.41000000000000003,0.003272492347489368,0.009817477042468103,0.00545415391248228,0.001870695529431353,-0.12055413582271735,-0.0006020628729991943,0,0,0,0,0,0,1500,1500,1500,1500,1500,1500
1747615827.1759229,-0.16,0.01,-0.41000000000000003,0.003272492347489368,0.009817477042468103,0.00545415391248228,0.001870695529431353,-0.12055413582271735,-0.0006020628729991943,0,0,0,0,0,0,1500,1500,1500,1500,1500,1500
1747615827.2753832,-0.05,-0.05,-0.33,-0.002181661564992912,-0.003272492347489368,0.002181661564992912,0.0018704622244396735,-0.11982510476604193,-0.0006013641458947771,0,0,0,0,0,0,1500,1500,1500,1500,1500,1500
1747615827.3788347,0.05,0.0,-0.46,0.008726646259971648,0.004363323129985824,0.0,0.0017404054476762455,-0.1201860662912541,-0.0004715816028604601,0,0,0,0,0,0,1500,1500,1500,1500,1500,1500
1747615827.476235,0.05,0.0,-0.46,0.008726646259971648,0.004363323129985824,0.0,0.0017404054476762455,-0.1201860662912541,-0.0004715816028604601,0,0,0,0,0,0,1500,1500,1500,1500,1500,1500
1747615827.5754256,0.0,0.06,-0.41000000000000003,-0.002181661564992912,0.003272492347489368,0.003272492347489368,0.0017404054476762455,-0.1201860662912541,-0.0004715816028604601,0,0,0,0,0,0,1500,1500,1500,1500,1500,1500
1747615827.6755145,0.07,-0.1,-0.33,0.003272492347489368,-0.001090830782496456,0.001090830782496456,0.00186315039225539,-0.11994795254564052,-0.00047874949171868416,0,0,0,0,0,0,1500,1500,1500,1500,1500,1500
1747615827.7594469,0.07,-0.1,-0.33,0.003272492347489368,-0.001090830782496456,0.001090830782496456,0.00186315039225539,-0.11994795254564052,-0.00047874949171868416,0,0,0,0,0,0,1500,1500,1500,1500,1500,1500
1747615827.860964,-0.1,0.08,-0.53,0.01090830782496456,0.007635815477475192,0.0,0.0019784413923769452,-0.12006341010406119,-0.00036349325518903364,0,0,0,0,0,0,1500,1500,1500,1500,1500,1500
1747615827.9581084,-0.1,0.08,-0.53,0.01090830782496456,0.007635815477475192,0.0,0.0019784413923769452,-0.12006341010406119,-0.00036349325518903364,0,0,0,0,0,0,1500,1500,1500,1500,1500,1500
1747615828.0419614,-0.13,0.06,-0.47000000000000003,0.006544984694978736,0.00545415391248228,0.008726646259971648,0.0018557531971616574,-0.12018615634785909,-0.0003562340525971995,0,0,0,0,0,0,1500,1500,1500,1500,1500,1500
1747615828.1443546,-0.04,-0.13,-0.3,0.0,-0.004363323129985824,-0.002181661564992912,0.0018557531971616574,-0.12018615634785909,-0.0003562340525971995,0,0,0,0,0,0,1500,1500,1500,1500,1500,1500
1747615828.2433107,-0.04,-0.13,-0.3,0.0,-0.004363323129985824,-0.002181661564992912,0.0018557531971616574,-0.12018615634785909,-0.0003562340525971995,0,0,0,0,0,0,1500,1500,1500,1500,1500,1500
1747615828.3437576,0.09,-0.09,-0.42,-0.002181661564992912,0.004363323129985824,0.001090830782496456,0.0018557531971616574,-0.12018615634785909,-0.0003562340525971995,0,0,0,0,0,0,1500,1500,1500,1500,1500,1500
1747615828.4449613,0.09,-0.09,-0.42,-0.002181661564992912,0.004363323129985824,0.001090830782496456,0.0018557531971616574,-0.12018615634785909,-0.0003562340525971995,0,0,0,0,0,0,1500,1500,1500,1500,1500,1500
1747615828.5402722,-0.14,0.05,-0.35000000000000003,0.00545415391248228,0.004363323129985824,0.004363323129985824,0.0018557531971616574,-0.12018615634785909,-0.0003562340525971995,0,0,0,0,0,0,1500,1500,1500,1500,1500,1500
1747615828.6429899,0.0,-0.06,-0.42,-0.002181661564992912,0.0,0.001090830782496456,0.0018557531971616574,-0.12018615634785909,-0.0003562340525971995,0,0,0,0,0,0,1500,1500,1500,1500,1500,1500
1747615828.7417753,0.0,-0.06,-0.42,-0.002181661564992912,0.0,0.001090830782496456,0.0018557531971616574,-0.12018615634785909,-0.0003562340525971995,0,0,0,0,0,0,1500,1500,1500,1500,1500,1500
1747615828.8445861,-0.02,0.02,-0.47000000000000003,0.003272492347489368,0.0,0.002181661564992912,0.0018557531971616574,-0.12018615634785909,-0.0003562340525971995,0,0,0,0,0,0,1500,1500,1500,1500,1500,1500
1747615828.942668,-0.24,0.11,-0.35000000000000003,0.001090830782496456,0.004363323129985824,-0.006544984694978736,0.0018557531971616574,-0.12018615634785909,-0.0003562340525971995,0,0,0,0,0,0,1500,1500,1500,1500,1500,1500
1747615829.0248227,-0.24,0.11,-0.35000000000000003,0.001090830782496456,0.004363323129985824,-0.006544984694978736,0.0018557531971616574,-0.12018615634785909,-0.0003562340525971995,0,0,0,0,0,0,1500,1500,1500,1500,1500,1500
1747615829.1244726,0.01,0.04,-0.42,0.001090830782496456,-0.003272492347489368,0.0,0.0018557531971616574,-0.12018615634785909,-0.0003562340525971995,0,0,0,0,0,0,1500,1500,1500,1500,1500,1500
1747615829.2258718,0.01,0.04,-0.42,0.001090830782496456,-0.003272492347489368,0.0,0.0018557531971616574,-0.12018615634785909,-0.0003562340525971995,0,0,0,0,0,0,1500,1500,1500,1500,1500,1500
1747615829.3276567,-0.05,0.02,-0.45,0.002181661564992912,0.004363323129985824,0.002181661564992912,0.0018557531971616574,-0.12018615634785909,-0.0003562340525971995,0,0,0,0,0,0,1500,1500,1500,1500,1500,1500
1747615829.4356573,-0.01,-0.07,-0.43,0.001090830782496456,0.003272492347489368,0.003272492347489368,0.001848368565376444,-0.12018626891861671,-0.00023350186084057742,0,0,0,0,0,0,1500,1500,1500,1500,1500,1500
1747615829.5246806,-0.01,-0.07,-0.43,0.001090830782496456,0.003272492347489368,0.003272492347489368,0.001848368565376444,-0.12018626891861671,-0.00023350186084057742,0,0,0,0,0,0,1500,1500,1500,1500,1500,1500
1747615829.6234899,-0.09,0.01,-0.42,-0.002181661564992912,-0.002181661564992912,-0.001090830782496456,0.001848368565376444,-0.12018626891861671,-0.00023350186084057742,0,0,0,0,0,0,1500,1500,1500,1500,1500,1500
1747615829.7236147,0.09,-0.02,-0.38,0.008726646259971648,0.00545415391248228,-0.002181661564992912,0.001848368565376444,-0.12018626891861671,-0.00023350186084057742,0,0,0,0,0,0,1500,1500,1500,1500,1500,1500
1747615829.8113234,0.09,-0.02,-0.38,0.008726646259971648,0.00545415391248228,-0.002181661564992912,0.001848368565376444,-0.12018626891861671,-0.00023350186084057742,0,0,0,0,0,0,1500,1500,1500,1500,1500,1500
1747615829.9073083,0.01,-0.05,-0.35000000000000003,0.001090830782496456,0.004363323129985824,0.00545415391248228,0.001848368565376444,-0.12018626891861671,-0.00023350186084057742,0,0,0,0,0,0,1500,1500,1500,1500,1500,1500
1747615830.0105555,0.01,-0.05,-0.35000000000000003,0.001090830782496456,0.004363323129985824,0.00545415391248228,0.001848368565376444,-0.12018626891861671,-0.00023350186084057742,0,0,0,0,0,0,1500,1500,1500,1500,1500,1500
1747615830.1089654,-0.02,0.03,-0.47000000000000003,0.002181661564992912,0.002181661564992912,0.0,0.001848368565376444,-0.12018626891861671,-0.00023350186084057742,0,0,0,0,0,0,1500,1500,1500,1500,1500,1500
1747615830.211405,-0.02,0.02,-0.38,-0.003272492347489368,0.002181661564992912,0.0,0.001848368565376444,-0.12018626891861671,-0.00023350186084057742,0,0,0,0,0,0,1500,1500,1500,1500,1500,1500
1747615830.3102882,-0.02,0.02,-0.38,-0.003272492347489368,0.002181661564992912,0.0,0.001848368565376444,-0.12018626891861671,-0.00023350186084057742,0,0,0,0,0,0,1500,1500,1500,1500,1500,1500
1747615830.4099212,-0.05,0.0,-0.44,-0.002181661564992912,-0.001090830782496456,0.002181661564992912,0.001848368565376444,-0.12018626891861671,-0.00023350186084057742,0,0,0,0,0,0,1500,1500,1500,1500,1500,1500
1747615830.4978974,-0.04,-0.06,-0.39,0.0,0.002181661564992912,-0.002181661564992912,0.001848368565376444,-0.12018626891861671,-0.00023350186084057742,0,0,0,0,0,0,1500,1500,1500,1500,1500,1500
1747615830.5929549,-0.04,-0.06,-0.39,0.0,0.002181661564992912,-0.002181661564992912,0.001848368565376444,-0.12018626891861671,-0.00023350186084057742,0,0,0,0,0,0,1500,1500,1500,1500,1500,1500
1747615830.694242,-0.12,-0.04,-0.39,0.001090830782496456,0.003272492347489368,0.0,0.001848368565376444,-0.12018626891861671,-0.00023350186084057742,0,0,0,0,0,0,1500,1500,1500,1500,1500,1500
1747615830.776272,-0.12,-0.04,-0.39,0.001090830782496456,0.003272492347489368,0.0,0.001848368565376444,-0.12018626891861671,-0.00023350186084057742,0,0,0,0,0,0,1500,1500,1500,1500,1500,1500
1747615830.874427,-0.11,-0.07,-0.31,0.001090830782496456,-0.006544984694978736,0.003272492347489368,0.0018779070912996818,-0.12018581863559541,-0.0007244306470832287,0,0,0,0,0,0,1500,1500,1500,1500,1500,1500
1747615830.974573,-0.11,-0.07,-0.31,0.001090830782496456,-0.006544984694978736,0.003272492347489368,0.0018779070912996818,-0.12018581863559541,-0.0007244306470832287,0,0,0,0,0,0,1500,1500,1500,1500,1500,1500
1747615831.0576842,0.03,-0.05,-0.34,-0.002181661564992912,0.003272492347489368,-0.004363323129985824,0.0018779070912996818,-0.12018581863559541,-0.0007244306470832287,0,0,0,0,0,0,1500,1500,1500,1500,1500,1500
1747615831.1583433,-0.06,0.03,-0.43,0.00545415391248228,-0.001090830782496456,0.00545415391248228,0.0018779070912996818,-0.12018581863559541,-0.0007244306470832287,0,0,0,0,0,0,1500,1500,1500,1500,1500,1500
1747615831.2594929,-0.06,0.03,-0.43,0.00545415391248228,-0.001090830782496456,0.00545415391248228,0.0018779070912996818,-0.12018581863559541,-0.0007244306470832287,0,0,0,0,0,0,1500,1500,1500,1500,1500,1500
1747615831.3605022,-0.02,0.02,-0.49,-0.002181661564992912,0.004363323129985824,-0.007635815477475192,0.0018852917222704668,-0.12018570606484391,-0.0008471628577471127,0,0,0,0,0,0,1500,1500,1500,1500,1500,1500
1747615831.4488719,0.0,-0.03,-0.39,0.001090830782496456,0.003272492347489368,0.002181661564992912,0.0018852917222704668,-0.12018570606484391,-0.0008471628577471127,0,0,0,0,0,0,1500,1500,1500,1500,1500,1500
1747615831.5412173,0.0,-0.03,-0.39,0.001090830782496456,0.003272492347489368,0.002181661564992912,0.0018852917222704668,-0.12018570606484391,-0.0008471628577471127,0,0,0,0,0,0,1500,1500,1500,1500,1500,1500
1747615831.641334,-0.14,0.0,-0.42,0.001090830782496456,0.001090830782496456,-0.003272492347489368,0.0018852917222704668,-0.12018570606484391,-0.0008471628577471127,0,0,0,0,0,0,1500,1500,1500,1500,1500,1500
1747615831.7420955,-0.14,0.0,-0.42,0.001090830782496456,0.001090830782496456,-0.003272492347489368,0.0018852917222704668,-0.12018570606484391,-0.0008471628577471127,0,0,0,0,0,0,1500,1500,1500,1500,1500,1500
1747615831.8430576,-0.03,0.0,-0.42,0.0,-0.002181661564992912,-0.003272492347489368,0.0018852917222704668,-0.12018570606484391,-0.0008471628577471127,0,0,0,0,0,0,1500,1500,1500,1500,1500,1500
1747615831.9431021,-0.02,0.02,-0.37,0.0,0.003272492347489368,0.002181661564992912,0.0018852917222704668,-0.12018570606484391,-0.0008471628577471127,0,0,0,0,0,0,1500,1500,1500,1500,1500,1500
1747615832.0267246,-0.02,0.02,-0.37,0.0,0.003272492347489368,0.002181661564992912,0.0018852917222704668,-0.12018570606484391,-0.0008471628577471127,0,0,0,0,0,0,1500,1500,1500,1500,1500,1500
1747615832.124261,-0.06,0.0,-0.47000000000000003,0.001090830782496456,-0.004363323129985824,-0.00545415391248228,0.0018852917222704668,-0.12018570606484391,-0.0008471628577471127,0,0,0,0,0,0,1500,1500,1500,1500,1500,1500
1747615832.2267945,-0.06,0.0,-0.47000000000000003,0.001090830782496456,-0.004363323129985824,-0.00545415391248228,0.0018852917222704668,-0.12018570606484391,-0.0008471628577471127,0,0,0,0,0,0,1500,1500,1500,1500,1500,1500
1747615832.331841,0.0,0.0,-0.4,0.002181661564992912,-0.003272492347489368,0.001090830782496456,0.0018852917222704668,-0.12018570606484391,-0.0008471628577471127,0,0,0,0,0,0,1500,1500,1500,1500,1500,1500
1747615832.4299903,-0.09,0.0,-0.42,0.001090830782496456,0.001090830782496456,-0.002181661564992912,0.0018852917222704668,-0.12018570606484391,-0.0008471628577471127,0,0,0,0,0,0,1500,1500,1500,1500,1500,1500
1747615832.5409973,-0.09,0.0,-0.42,0.001090830782496456,0.001090830782496456,-0.002181661564992912,0.0018852917222704668,-0.12018570606484391,-0.0008471628577471127,0,0,0,0,0,0,1500,1500,1500,1500,1500,1500
1747615832.6544778,-0.04,0.0,-0.42,-0.001090830782496456,-0.001090830782496456,-0.002181661564992912,0.0018852917222704668,-0.12018570606484391,-0.0008471628577471127,0,0,0,0,0,0,1500,1500,1500,1500,1500,1500
1747615832.7591782,-0.03,0.0,-0.4,-0.002181661564992912,-0.001090830782496456,-0.001090830782496456,0.0018852917222704668,-0.12018570606484391,-0.0008471628577471127,0,0,0,0,0,0,1500,1500,1500,1500,1500,1500
1747615832.8579786,-0.03,0.0,-0.4,-0.002181661564992912,-0.001090830782496456,-0.001090830782496456,0.0018852917222704668,-0.12018570606484391,-0.0008471628577471127,0,0,0,0,0,0,1500,1500,1500,1500,1500,1500
1747615832.957903,-0.06,-0.01,-0.43,-0.001090830782496456,0.001090830782496456,-0.002181661564992912,0.0018852917222704668,-0.12018570606484391,-0.0008471628577471127,0,0,0,0,0,0,1500,1500,1500,1500,1500,1500
1747615833.040543,-0.03,0.0,-0.4,0.001090830782496456,0.001090830782496456,-0.001090830782496456,0.0018852917222704668,-0.12018570606484391,-0.0008471628577471127,0,0,0,0,0,0,1500,1500,1500,1500,1500,1500
1747615833.1398926,-0.03,0.0,-0.4,0.001090830782496456,0.001090830782496456,-0.001090830782496456,0.0018852917222704668,-0.12018570606484391,-0.0008471628577471127,0,0,0,0,0,0,1500,1500,1500,1500,1500,1500
1747615833.2445557,-0.04,0.0,-0.45,0.002181661564992912,-0.001090830782496456,-0.002181661564992912,0.0018852917222704668,-0.12018570606484391,-0.0008471628577471127,0,0,0,0,0,0,1500,1500,1500,1500,1500,1500
1747615833.3423705,-0.07,-0.02,-0.46,0.001090830782496456,0.001090830782496456,0.002181661564992912,0.0018852917222704668,-0.12018570606484391,-0.0008471628577471127,0,0,0,0,0,0,1500,1500,1500,1500,1500,1500
1747615833.4438024,-0.07,-0.02,-0.46,0.001090830782496456,0.001090830782496456,0.002181661564992912,0.0018852917222704668,-0.12018570606484391,-0.0008471628577471127,0,0,0,0,0,0,1500,1500,1500,1500,1500,1500
1747615833.524535,-0.03,0.0,-0.43,0.002181661564992912,0.001090830782496456,-0.002181661564992912,0.0018852917222704668,-0.12018570606484391,-0.0008471628577471127,0,0,0,0,0,0,1500,1500,1500,1500,1500,1500
1747615833.6280906,-0.03,0.0,-0.43,0.002181661564992912,0.001090830782496456,-0.002181661564992912,0.0018852917222704668,-0.12018570606484391,-0.0008471628577471127,0,0,0,0,0,0,1500,1500,1500,1500,1500,1500
1747615833.7257216,-0.05,-0.02,-0.42,-0.003272492347489368,-0.001090830782496456,0.002181661564992912,0.0018852917222704668,-0.12018570606484391,-0.0008471628577471127,0,0,0,0,0,0,1500,1500,1500,1500,1500,1500
1747615833.828128,-0.04,0.0,-0.4,0.001090830782496456,-0.002181661564992912,0.003272492347489368,0.0018852917222704668,-0.12018570606484391,-0.0008471628577471127,0,0,0,0,0,0,1500,1500,1500,1500,1500,1500
1747615833.9267952,-0.04,0.0,-0.4,0.001090830782496456,-0.002181661564992912,0.003272492347489368,0.0018852917222704668,-0.12018570606484391,-0.0008471628577471127,0,0,0,0,0,0,1500,1500,1500,1500,1500,1500
1747615834.0092566,-0.05,-0.01,-0.4,0.0,0.001090830782496456,-0.001090830782496456,0.0018852917222704668,-0.12018570606484391,-0.0008471628577471127,0,0,0,0,0,0,1500,1500,1500,1500,1500,1500
1747615834.1098588,-0.05,-0.01,-0.4,0.0,0.001090830782496456,-0.001090830782496456,0.0018852917222704668,-0.12018570606484391,-0.0008471628577471127,0,0,0,0,0,0,1500,1500,1500,1500,1500,1500
1747615834.2087307,-0.05,0.0,-0.42,-0.001090830782496456,-0.002181661564992912,0.001090830782496456,0.0018852917222704668,-0.12018570606484391,-0.0008471628577471127,0,0,0,0,0,0,1500,1500,1500,1500,1500,1500
1747615834.2910666,-0.04,0.0,-0.44,0.002181661564992912,-0.003272492347489368,0.001090830782496456,0.0018852917222704668,-0.12018570606484391,-0.0008471628577471127,0,0,0,0,0,0,1500,1500,1500,1500,1500,1500
1747615834.39213,-0.04,0.0,-0.44,0.002181661564992912,-0.003272492347489368,0.001090830782496456,0.0018852917222704668,-0.12018570606484391,-0.0008471628577471127,0,0,0,0,0,0,1500,1500,1500,1500,1500,1500
1747615834.4934368,-0.05,0.0,-0.46,0.0,-0.003272492347489368,0.001090830782496456,0.0018852917222704668,-0.12018570606484391,-0.0008471628577471127,0,0,0,0,0,0,1500,1500,1500,1500,1500,1500
1747615834.594282,-0.05,0.0,-0.46,0.0,-0.003272492347489368,0.001090830782496456,0.0018852917222704668,-0.12018570606484391,-0.0008471628577471127,0,0,0,0,0,0,1500,1500,1500,1500,1500,1500
1747615834.692752,-0.04,0.0,-0.44,0.001090830782496456,0.004363323129985824,0.001090830782496456,0.0018852917222704668,-0.12018570606484391,-0.0008471628577471127,0,0,0,0,0,0,1500,1500,1500,1500,1500,1500
1747615834.7754614,-0.05,0.0,-0.39,0.006544984694978736,0.003272492347489368,-0.001090830782496456,0.0018852917222704668,-0.12018570606484391,-0.0008471628577471127,0,0,0,0,0,0,1500,1500,1500,1500,1500,1500
1747615834.874235,-0.05,0.0,-0.39,0.006544984694978736,0.003272492347489368,-0.001090830782496456,0.0018852917222704668,-0.12018570606484391,-0.0008471628577471127,0,0,0,0,0,0,1500,1500,1500,1500,1500,1500
1747615834.975459,-0.06,0.0,-0.39,0.0,-0.004363323129985824,0.001090830782496456,0.0018852917222704668,-0.12018570606484391,-0.0008471628577471127,0,0,0,0,0,0,1500,1500,1500,1500,1500,1500
1747615835.0578108,-0.06,0.0,-0.39,0.0,-0.004363323129985824,0.001090830782496456,0.0018852917222704668,-0.12018570606484391,-0.0008471628577471127,0,0,0,0,0,0,1500,1500,1500,1500,1500,1500
1747615835.1588795,-0.04,0.0,-0.46,0.0,0.004363323129985824,0.0,0.0018852917222704668,-0.12018570606484391,-0.0008471628577471127,0,0,0,0,0,0,1500,1500,1500,1500,1500,1500
1747615835.2592978,-0.06,-0.01,-0.38,0.001090830782496456,-0.002181661564992912,0.0,0.0018852917222704668,-0.12018570606484391,-0.0008471628577471127,0,0,0,0,0,0,1500,1500,1500,1500,1500,1500
1747615835.3578312,-0.06,-0.01,-0.38,0.001090830782496456,-0.002181661564992912,0.0,0.0018852917222704668,-0.12018570606484391,-0.0008471628577471127,0,0,0,0,0,0,1500,1500,1500,1500,1500,1500
1747615835.4606261,-0.03,0.0,-0.45,-0.001090830782496456,-0.00545415391248228,0.001090830782496456,0.0018852917222704668,-0.12018570606484391,-0.0008471628577471127,0,0,0,0,0,0,1500,1500,1500,1500,1500,1500
1747615835.5590017,-0.06,-0.01,-0.41000000000000003,-0.002181661564992912,-0.001090830782496456,0.001090830782496456,0.0018852917222704668,-0.12018570606484391,-0.0008471628577471127,0,0,0,0,0,0,1500,1500,1500,1500,1500,1500
1747615835.6581426,-0.06,-0.01,-0.41000000000000003,-0.002181661564992912,-0.001090830782496456,0.001090830782496456,0.0018852917222704668,-0.12018570606484391,-0.0008471628577471127,0,0,0,0,0,0,1500,1500,1500,1500,1500,1500
1747615835.7557425,-0.04,0.0,-0.38,-0.00545415391248228,0.004363323129985824,0.0,0.0018852917222704668,-0.12018570606484391,-0.0008471628577471127,0,0,0,0,0,0,1500,1500,1500,1500,1500,1500
1747615835.8407738,-0.04,0.0,-0.38,-0.00545415391248228,0.004363323129985824,0.0,0.0018852917222704668,-0.12018570606484391,-0.0008471628577471127,0,0,0,0,0,0,1500,1500,1500,1500,1500,1500
1747615835.9416094,-0.05,-0.01,-0.45,0.0,0.001090830782496456,0.0,0.0018852917222704668,-0.12018570606484391,-0.0008471628577471127,0,0,0,0,0,0,1500,1500,1500,1500,1500,1500
1747615836.030048,-0.05,-0.01,-0.42,-0.003272492347489368,0.0,-0.001090830782496456,0.0018852917222704668,-0.12018570606484391,-0.0008471628577471127,0,0,0,0,0,0,1500,1500,1500,1500,1500,1500
1747615836.1276693,-0.05,-0.01,-0.42,-0.003272492347489368,0.0,-0.001090830782496456,0.0018852917222704668,-0.12018570606484391,-0.0008471628577471127,0,0,0,0,0,0,1500,1500,1500,1500,1500,1500
1747615836.2467592,-0.04,-0.01,-0.4,-0.006544984694978736,-0.003272492347489368,0.0,0.0018852917222704668,-0.12018570606484391,-0.0008471628577471127,0,0,0,0,0,0,1500,1500,1500,1500,1500,1500
1747615836.3395689,-0.04,-0.02,-0.47000000000000003,0.002181661564992912,-0.002181661564992912,0.002181661564992912,0.0018852917222704668,-0.12018570606484391,-0.0008471628577471127,0,0,0,0,0,0,1500,1500,1500,1500,1500,1500
1747615836.4435427,-0.04,-0.02,-0.47000000000000003,0.002181661564992912,-0.002181661564992912,0.002181661564992912,0.0018852917222704668,-0.12018570606484391,-0.0008471628577471127,0,0,0,0,0,0,1500,1500,1500,1500,1500,1500
1747615836.540536,-0.05,0.0,-0.4,-0.001090830782496456,-0.002181661564992912,0.001090830782496456,0.0018852917222704668,-0.12018570606484391,-0.0008471628577471127,0,0,0,0,0,0,1500,1500,1500,1500,1500,1500
1747615836.6434305,-0.05,0.0,-0.4,-0.001090830782496456,-0.002181661564992912,0.001090830782496456,0.0018852917222704668,-0.12018570606484391,-0.0008471628577471127,0,0,0,0,0,0,1500,1500,1500,1500,1500,1500
1747615836.729044,-0.03,0.0,-0.44,0.003272492347489368,0.001090830782496456,-0.001090830782496456,0.0018852917222704668,-0.12018570606484391,-0.0008471628577471127,0,0,0,0,0,0,1500,1500,1500,1500,1500,1500
1747615836.8287096,-0.05,-0.01,-0.41000000000000003,-0.002181661564992912,-0.003272492347489368,-0.002181661564992912,0.0018852917222704668,-0.12018570606484391,-0.0008471628577471127,0,0,0,0,0,0,1500,1500,1500,1500,1500,1500
1747615836.929498,-0.05,-0.01,-0.41000000000000003,-0.002181661564992912,-0.003272492347489368,-0.002181661564992912,0.0018852917222704668,-0.12018570606484391,-0.0008471628577471127,0,0,0,0,0,0,1500,1500,1500,1500,1500,1500
1747615837.0281217,-0.05,0.0,-0.41000000000000003,0.001090830782496456,-0.001090830782496456,0.0,0.0018852917222704668,-0.12018570606484391,-0.0008471628577471127,0,0,0,0,0,0,1500,1500,1500,1500,1500,1500
1747615837.127317,-0.06,-0.02,-0.43,0.003272492347489368,0.002181661564992912,0.0,0.0018852917222704668,-0.12018570606484391,-0.0008471628577471127,0,0,0,0,0,0,1500,1500,1500,1500,1500,1500
1747615837.2278335,-0.06,-0.02,-0.43,0.003272492347489368,0.002181661564992912,0.0,0.0018852917222704668,-0.12018570606484391,-0.0008471628577471127,0,0,0,0,0,0,1500,1500,1500,1500,1500,1500
1747615837.3227532,-0.05,0.0,-0.38,0.0,0.001090830782496456,0.001090830782496456,0.0018852917222704668,-0.12018570606484391,-0.0008471628577471127,0,0,0,0,0,0,1500,1500,1500,1500,1500,1500
1747615837.4232497,-0.05,0.0,-0.38,0.0,0.001090830782496456,0.001090830782496456,0.0018852917222704668,-0.12018570606484391,-0.0008471628577471127,0,0,0,0,0,0,1500,1500,1500,1500,1500,1500
1747615837.5233128,-0.05,0.0,-0.43,-0.003272492347489368,0.002181661564992912,0.0,0.0018852917222704668,-0.12018570606484391,-0.0008471628577471127,0,0,0,0,0,0,1500,1500,1500,1500,1500,1500
1747615837.6243029,-0.05,0.0,-0.44,0.002181661564992912,-0.001090830782496456,0.003272492347489368,0.0018852917222704668,-0.12018570606484391,-0.0008471628577471127,0,0,0,0,0,0,1500,1500,1500,1500,1500,1500
1747615837.7228236,-0.05,0.0,-0.44,0.002181661564992912,-0.001090830782496456,0.003272492347489368,0.0018852917222704668,-0.12018570606484391,-0.0008471628577471127,0,0,0,0,0,0,1500,1500,1500,1500,1500,1500
1747615837.8072565,-0.05,0.0,-0.4,0.0,-0.001090830782496456,0.0,0.0018852917222704668,-0.12018570606484391,-0.0008471628577471127,0,0,0,0,0,0,1500,1500,1500,1500,1500,1500
1747615837.907161,-0.05,0.0,-0.4,0.0,-0.001090830782496456,0.0,0.0018852917222704668,-0.12018570606484391,-0.0008471628577471127,0,0,0,0,0,0,1500,1500,1500,1500,1500,1500
1747615838.0066175,-0.05,-0.01,-0.46,-0.001090830782496456,0.001090830782496456,0.0,0.0018852917222704668,-0.12018570606484391,-0.0008471628577471127,0,0,0,0,0,0,1500,1500,1500,1500,1500,1500
1747615838.0903752,-0.05,1.28,-0.41000000000000003,-0.001090830782496456,0.001090830782496456,0.0,0.0018852917222704668,-0.12018570606484391,-0.0008471628577471127,0,0,0,0,0,0,1500,1500,1500,1500,1500,1500
1747615838.192063,-0.05,1.28,-0.41000000000000003,-0.001090830782496456,0.001090830782496456,0.0,0.0018852917222704668,-0.12018570606484391,-0.0008471628577471127,0,0,0,0,0,0,1500,1500,1500,1500,1500,1500
1747615838.2905574,-0.05,0.0,-0.37,0.001090830782496456,0.001090830782496456,0.0,0.0018852917222704668,-0.12018570606484391,-0.0008471628577471127,0,0,0,0,0,0,1500,1500,1500,1500,1500,1500
1747615838.386814,-0.05,0.0,-0.45,-0.001090830782496456,0.003272492347489368,0.001090830782496456,0.0018852917222704668,-0.12018570606484391,-0.0008471628577471127,0,0,0,0,0,0,1500,1500,1500,1500,1500,1500
1747615838.491106,-0.05,0.0,-0.45,-0.001090830782496456,0.003272492347489368,0.001090830782496456,0.0018852917222704668,-0.12018570606484391,-0.0008471628577471127,0,0,0,0,0,0,1500,1500,1500,1500,1500,1500
1747615838.5722077,-0.07,-0.01,-0.4,0.0,0.003272492347489368,-0.002181661564992912,0.0018852917222704668,-0.12018570606484391,-0.0008471628577471127,0,0,0,0,0,0,1500,1500,1500,1500,1500,1500
1747615838.673793,-0.07,-0.01,-0.4,0.0,0.003272492347489368,-0.002181661564992912,0.0018852917222704668,-0.12018570606484391,-0.0008471628577471127,0,0,0,0,0,0,1500,1500,1500,1500,1500,1500
1747615838.7749853,-0.07,0.0,-0.43,0.001090830782496456,0.002181661564992912,-0.001090830782496456,0.0018852917222704668,-0.12018570606484391,-0.0008471628577471127,0,-2.780225,0,0,0,-0.008217,1460,1460,1460,1500,1500,1500
1747615838.8744652,-0.05,-0.02,-0.45,-0.001090830782496456,0.003272492347489368,0.0,0.0018852917222704668,-0.12018570606484391,-0.0008471628577471127,0,-12.5,0,0,0,-0.092892,1420,1420,1420,1500,1500,1500
1747615838.9684231,-0.05,-0.02,-0.45,-0.001090830782496456,0.003272492347489368,0.0,0.0018852917222704668,-0.12018570606484391,-0.0008471628577471127,0,-12.5,0,0,0,-0.139769,1380,1380,1380,1500,1500,1500
1747615839.0573804,-0.17,-0.16,-0.35000000000000003,0.0,-0.003272492347489368,0.009817477042468103,0.0018852917222704668,-0.12018570606484391,-0.0008471628577471127,0,0,0,0,0,0,1420,1420,1420,1500,1500,1500
1747615839.1637032,-0.17,-0.16,-0.35000000000000003,0.0,-0.003272492347489368,0.009817477042468103,0.0018852917222704668,-0.12018570606484391,-0.0008471628577471127,0,0,0,0,0,0,1460,1460,1460,1500,1500,1500
1747615839.2729938,0.08,-0.17,-0.31,-0.006544984694978736,0.0,0.0,0.0018852917222704668,-0.12018570606484391,-0.0008471628577471127,0,0,0,0,0,0,1500,1500,1500,1500,1500,1500
1747615839.3744378,0.06,0.12,-0.5,0.003272492347489368,0.003272492347489368,0.001090830782496456,0.0018852917222704668,-0.12018570606484391,-0.0008471628577471127,0,0,0,0,0,0,1500,1500,1500,1500,1500,1500
1747615839.465707,0.06,0.12,-0.5,0.003272492347489368,0.003272492347489368,0.001090830782496456,0.0018852917222704668,-0.12018570606484391,-0.0008471628577471127,0,0,0,0,0,0,1500,1500,1500,1500,1500,1500
1747615839.5569212,-0.05,0.02,-0.4,-0.001090830782496456,-0.001090830782496456,0.0,0.0018852917222704668,-0.12018570606484391,-0.0008471628577471127,0,0,0,0,0,0,1500,1500,1500,1500,1500,1500
1747615839.6504858,-0.05,0.0,-0.43,0.002181661564992912,0.0,-0.001090830782496456,0.0018852917222704668,-0.12018570606484391,-0.0008471628577471127,0,0,0,0,0,0,1500,1500,1500,1500,1500,1500
1747615839.758385,-0.05,0.0,-0.43,0.002181661564992912,0.0,-0.001090830782496456,0.0018852917222704668,-0.12018570606484391,-0.0008471628577471127,0,0,0,0,0,0,1500,1500,1500,1500,1500,1500
1747615839.8615437,-0.05,0.0,-0.41000000000000003,-0.001090830782496456,0.001090830782496456,0.001090830782496456,0.0018852917222704668,-0.12018570606484391,-0.0008471628577471127,0,0,0,0,0,0,1500,1500,1500,1500,1500,1500
1747615839.9571817,-0.05,0.0,-0.41000000000000003,-0.001090830782496456,0.001090830782496456,0.001090830782496456,0.0018852917222704668,-0.12018570606484391,-0.0008471628577471127,0,0,0,0,0,0,1500,1500,1500,1500,1500,1500
1747615840.0410924,-0.03,0.01,-0.39,-0.002181661564992912,0.006544984694978736,-0.001090830782496456,0.0018852917222704668,-0.12018570606484391,-0.0008471628577471127,0,0,0,0,0,0,1500,1500,1500,1500,1500,1500
1747615840.1415324,-0.05,-0.01,-0.45,0.0,0.001090830782496456,0.001090830782496456,0.0018852917222704668,-0.12018570606484391,-0.0008471628577471127,0,0,0,0,0,0,1500,1500,1500,1500,1500,1500
