time,ay,ax,az,gy,gx,gz,roll,pitch,yaw,cmd_fx,cmd_fy,cmd_fz,cmd_tx,cmd_ty,cmd_tz,pwm_1,pwm_2,pwm_3,pwm_4,pwm_5,pwm_6
1747546589.0447474,0.0,0.0,0.0,0.0,0.0,0.0,0.0,0.0,0.0,0,0,0,0,0,0,1536,1536,1536,1536,1536,1536
1747546589.1390412,-0.36,0.02,0.07,0.003272492347489368,0.002181661564992912,-0.001090830782496456,-2.7784001799386497,-1.4743908451663423,2.742374241538831,0,0,0,0,0,0,1536,1536,1536,1536,1536,1536
1747546589.239842,-0.36,0.02,0.07,0.003272492347489368,0.002181661564992912,-0.001090830782496456,-2.7784001799386497,-1.4743908451663423,2.742374241538831,0,0,0,0,0,0,1536,1536,1536,1536,1536,1536
1747546589.3224752,-0.38,0.02,0.0,0.001090830782496456,0.001090830782496456,0.001090830782496456,-2.7784001799386497,-1.4743908451663423,2.742374241538831,0,0,0,0,0,0,1536,1536,1536,1536,1536,1536
1747546589.4219728,-0.38,0.02,0.0,0.001090830782496456,0.001090830782496456,0.001090830782496456,-2.7784001799386497,-1.4743908451663423,2.742374241538831,0,0,0,0,0,0,1536,1536,1536,1536,1536,1536
1747546589.5219867,-0.37,0.03,0.08,-0.00545415391248228,0.0,0.0,-2.77917401305956,-1.4743908451663423,2.7432333849120774,0,0,0,0,0,0,1536,1536,1536,1536,1536,1536
1747546589.6057694,,,,0.0,-0.004363323129985824,0.0,-2.77917401305956,-1.4743908451663423,2.7432333849120774,0,0,0,0,0,0,1536,1536,1536,1536,1536,1536
1747546589.7062254,,,,0.0,-0.004363323129985824,0.0,-2.77917401305956,-1.4743908451663423,2.7432333849120774,0,0,0,0,0,0,1536,1536,1536,1536,1536,1536
1747546589.805976,-0.37,0.03,0.04,0.0,0.0,0.0,-2.77917401305956,-1.4743908451663423,2.7432333849120774,0,0,0,0,0,0,1536,1536,1536,1536,1536,1536
1747546589.9065845,-0.35000000000000003,0.0,0.06,0.002181661564992912,-0.004363323129985824,0.002181661564992912,-2.77917401305956,-1.4743908451663423,2.7432333849120774,0,0,0,0,0,0,1536,1536,1536,1536,1536,1536
1747546590.0061157,-0.35000000000000003,0.0,0.06,0.002181661564992912,-0.004363323129985824,0.002181661564992912,-2.77917401305956,-1.4743908451663423,2.7432333849120774,0,0,0,0,0,0,1536,1536,1536,1536,1536,1536
1747546590.0889373,-0.36,0.02,0.02,0.0,0.001090830782496456,0.0,-2.77917401305956,-1.4743908451663423,2.7432333849120774,0,0,0,0,0,0,1536,1536,1536,1536,1536,1536
1747546590.1894062,-0.36,0.02,0.02,0.0,0.001090830782496456,0.0,-2.77917401305956,-1.4743908451663423,2.7432333849120774,0,0,0,0,0,0,1536,1536,1536,1536,1536,1536
1747546590.289656,-0.37,0.03,0.02,0.001090830782496456,0.002181661564992912,0.0,-2.77917401305956,-1.4743908451663423,2.7432333849120774,0,0,0,0,0,0,1536,1536,1536,1536,1536,1536
1747546590.389036,-0.37,0.01,0.04,0.001090830782496456,0.002181661564992912,0.001090830782496456,-2.77917401305956,-1.4743908451663423,2.7432333849120774,0,0,0,0,0,0,1536,1536,1536,1536,1536,1536
1747546590.4891827,-0.37,0.01,0.04,0.001090830782496456,0.002181661564992912,0.001090830782496456,-2.77917401305956,-1.4743908451663423,2.7432333849120774,0,0,0,0,0,0,1536,1536,1536,1536,1536,1536
1747546590.5724657,-0.34,0.01,0.02,-0.001090830782496456,-0.001090830782496456,0.002181661564992912,-2.77917401305956,-1.4743908451663423,2.7432333849120774,0,0,0,0,0,0,1536,1536,1536,1536,1536,1536
1747546590.6725335,-0.34,0.01,0.02,-0.001090830782496456,-0.001090830782496456,0.002181661564992912,-2.77917401305956,-1.4743908451663423,2.7432333849120774,0,0,0,0,0,0,1536,1536,1536,1536,1536,1536
1747546590.7741833,-0.37,0.02,0.03,0.002181661564992912,-0.002181661564992912,-0.001090830782496456,-2.77917401305956,-1.4743908451663423,2.7432333849120774,0,0,0,0,0,0,1536,1536,1536,1536,1536,1536
1747546590.872736,-0.36,0.02,0.06,0.0,-0.001090830782496456,-0.001090830782496456,-2.77917401305956,-1.4743908451663423,2.7432333849120774,0,0,0,0,0,0,1536,1536,1536,1536,1536,1536
1747546590.9720237,-0.36,0.02,0.06,0.0,-0.001090830782496456,-0.001090830782496456,-2.77917401305956,-1.4743908451663423,2.7432333849120774,0,0,0,0,0,0,1536,1536,1536,1536,1536,1536
1747546591.0559845,-0.35000000000000003,0.0,0.03,0.0,0.002181661564992912,0.003272492347489368,-2.77917401305956,-1.4743908451663423,2.7432333849120774,0,0,0,0,0,0,1536,1536,1536,1536,1536,1536
1747546591.1559076,-0.35000000000000003,0.0,0.03,0.0,0.002181661564992912,0.003272492347489368,-2.77917401305956,-1.4743908451663423,2.7432333849120774,0,0,0,0,0,0,1536,1536,1536,1536,1536,1536
1747546591.2554371,-0.35000000000000003,0.0,0.05,0.0,0.0,0.0,-2.77917401305956,-1.4743908451663423,2.7432333849120774,0,0,0,0,0,0,1536,1536,1536,1536,1536,1536
1747546591.3391795,-0.38,0.0,0.03,0.0,-0.001090830782496456,-0.002181661564992912,-2.77917401305956,-1.4743908451663423,2.7432333849120774,0,0,0,0,0,0,1536,1536,1536,1536,1536,1536
1747546591.4391704,-0.38,0.0,0.03,0.0,-0.001090830782496456,-0.002181661564992912,-2.77917401305956,-1.4743908451663423,2.7432333849120774,0,0,0,0,0,0,1536,1536,1536,1536,1536,1536
1747546591.5383513,-0.35000000000000003,0.02,0.02,-0.002181661564992912,-0.001090830782496456,0.001090830782496456,-2.77917401305956,-1.4743908451663423,2.7432333849120774,0,0,0,0,0,0,1536,1536,1536,1536,1536,1536
1747546591.6394525,-0.35000000000000003,0.02,0.02,-0.002181661564992912,-0.001090830782496456,0.001090830782496456,-2.77917401305956,-1.4743908451663423,2.7432333849120774,0,0,0,0,0,0,1536,1536,1536,1536,1536,1536
1747546591.7393205,-0.37,0.01,0.02,-0.003272492347489368,-0.004363323129985824,0.002181661564992912,-2.77917401305956,-1.4743908451663423,2.7432333849120774,0,0,0,0,0,0,1536,1536,1536,1536,1536,1536
1747546591.8227963,-0.35000000000000003,0.0,0.07,0.0,-0.002181661564992912,0.001090830782496456,-2.77917401305956,-1.4743908451663423,2.7432333849120774,0,0,0,0,0,0,1536,1536,1536,1536,1536,1536
1747546591.9222546,-0.35000000000000003,0.0,0.07,0.0,-0.002181661564992912,0.001090830782496456,-2.77917401305956,-1.4743908451663423,2.7432333849120774,0,0,0,0,0,0,1536,1536,1536,1536,1536,1536
1747546592.022252,-0.37,0.01,0.05,0.003272492347489368,-0.00545415391248228,-0.001090830782496456,-2.77917401305956,-1.4743908451663423,2.7432333849120774,0,0,0,0,0,0,1536,1536,1536,1536,1536,1536
1747546592.1051052,-0.37,0.01,0.05,0.003272492347489368,-0.00545415391248228,-0.001090830782496456,-2.77917401305956,-1.4743908451663423,2.7432333849120774,0,0,0,0,0,0,1536,1536,1536,1536,1536,1536
1747546592.2058897,-0.33,0.01,0.08,0.0,0.003272492347489368,0.0,-2.77917401305956,-1.4743908451663423,2.7432333849120774,0,0,0,0,0,0,1536,1536,1536,1536,1536,1536
1747546592.3063326,-0.37,0.0,0.02,0.001090830782496456,-0.00545415391248228,0.0,-2.77917401305956,-1.4743908451663423,2.7432333849120774,0,0,0,0,0,0,1536,1536,1536,1536,1536,1536
1747546592.4070024,-0.37,0.0,0.02,0.001090830782496456,-0.00545415391248228,0.0,-2.77917401305956,-1.4743908451663423,2.7432333849120774,0,0,0,0,0,0,1536,1536,1536,1536,1536,1536
1747546592.5059338,-0.38,0.01,0.08,0.001090830782496456,0.0,0.001090830782496456,-2.77917401305956,-1.4743908451663423,2.7432333849120774,0,0,0,0,0,0,1536,1536,1536,1536,1536,1536
1747546592.58901,-0.34,0.03,0.0,0.003272492347489368,0.003272492347489368,0.001090830782496456,-2.77917401305956,-1.4743908451663423,2.7432333849120774,0,0,0,0,0,0,1536,1536,1536,1536,1536,1536
1747546592.6889577,-0.34,0.03,0.0,0.003272492347489368,0.003272492347489368,0.001090830782496456,-2.77917401305956,-1.4743908451663423,2.7432333849120774,0,0,0,0,0,0,1536,1536,1536,1536,1536,1536
1747546592.7890658,-0.35000000000000003,0.02,0.09,0.001090830782496456,0.002181661564992912,-0.001090830782496456,-2.77917401305956,-1.4743908451663423,2.7432333849120774,0,0,0,0,0,0,1536,1536,1536,1536,1536,1536
1747546592.8899522,-0.35000000000000003,0.02,0.09,0.001090830782496456,0.002181661564992912,-0.001090830782496456,-2.77917401305956,-1.4743908451663423,2.7432333849120774,0,0,0,0,0,0,1536,1536,1536,1536,1536,1536
1747546592.9892068,-0.36,0.01,0.01,0.001090830782496456,0.001090830782496456,0.001090830782496456,-2.77917401305956,-1.4743908451663423,2.7432333849120774,0,0,0,0,0,0,1536,1536,1536,1536,1536,1536
1747546593.0730417,-0.34,0.02,0.03,0.002181661564992912,-0.001090830782496456,-0.001090830782496456,-2.77917401305956,-1.4743908451663423,2.7432333849120774,0,0,0,0,0,0,1536,1536,1536,1536,1536,1536
1747546593.1727011,-0.34,0.02,0.03,0.002181661564992912,-0.001090830782496456,-0.001090830782496456,-2.77917401305956,-1.4743908451663423,2.7432333849120774,0,0,0,0,0,0,1536,1536,1536,1536,1536,1536
1747546593.2718968,-0.35000000000000003,0.03,0.03,0.001090830782496456,0.0,0.0,-2.77917401305956,-1.4743908451663423,2.7432333849120774,0,0,0,0,0,0,1536,1536,1536,1536,1536,1536
1747546593.3552926,-0.35000000000000003,0.03,0.03,0.001090830782496456,0.0,0.0,-2.77917401305956,-1.4743908451663423,2.7432333849120774,0,0,0,0,0,0,1536,1536,1536,1536,1536,1536
1747546593.455963,-0.35000000000000003,1.3,0.03,0.002181661564992912,-0.003272492347489368,0.002181661564992912,-2.77917401305956,-1.4743908451663423,2.7432333849120774,0,-0.014485,0,0,0,0,1496,1496,1496,1536,1536,1536
1747546593.5557394,-0.36,0.02,0.06,0.002181661564992912,0.0,0.0,-2.77917401305956,-1.4743908451663423,2.7432333849120774,0,-0.056222,0,0,0,0,1463,1463,1463,1536,1536,1536
1747546593.6557107,-0.36,0.02,0.06,0.002181661564992912,0.0,0.0,-2.77917401305956,-1.4743908451663423,2.7432333849120774,0,-0.125224,0,0,0,0,1463,1463,1463,1536,1536,1536
1747546593.7551863,-0.36,0.01,0.02,0.001090830782496456,0.004363323129985824,0.0,-2.77917401305956,-1.4743908451663423,2.7432333849120774,0,-0.194868,0,0,0,0,1463,1463,1463,1536,1536,1536
1747546593.8390481,-0.36,0.01,0.02,0.001090830782496456,0.004363323129985824,0.0,-2.77917401305956,-1.4743908451663423,2.7432333849120774,0,-0.49582,0,0,0,0,1463,1463,1463,1536,1536,1536
1747546593.9389944,-0.37,0.01,0.04,0.00545415391248228,-0.003272492347489368,0.0,-2.77917401305956,-1.4743908451663423,2.7432333849120774,0,-0.773137,0,0,0,0,1463,1463,1463,1536,1536,1536
1747546594.0394588,-0.4,0.03,0.04,0.0,0.004363323129985824,-0.002181661564992912,-2.77917401305956,-1.4743908451663423,2.7432333849120774,0,-1.304137,0,0,0,0,1462,1462,1462,1536,1536,1536
1747546594.1385748,-0.4,0.03,0.04,0.0,0.004363323129985824,-0.002181661564992912,-2.77917401305956,-1.4743908451663423,2.7432333849120774,0,-1.734821,0,0,0,0,1461,1461,1462,1536,1536,1536
1747546594.253715,-0.36,0.02,0.04,0.002181661564992912,0.002181661564992912,0.003272492347489368,-2.77917401305956,-1.4743908451663423,2.7432333849120774,0,-0.537779,0,0,0,0,1463,1463,1463,1536,1536,1536
1747546594.339104,-0.35000000000000003,0.03,0.02,0.001090830782496456,-0.003272492347489368,0.001090830782496456,-2.77917401305956,-1.4743908451663423,2.7432333849120774,0,0,0,0,0,0,1503,1503,1503,1536,1536,1536
1747546594.4386656,-0.35000000000000003,0.03,0.02,0.001090830782496456,-0.003272492347489368,0.001090830782496456,-2.77917401305956,-1.4743908451663423,2.7432333849120774,0,0,0,0,0,0,1536,1536,1536,1536,1536,1536
1747546594.5386274,-0.34,0.01,0.05,0.002181661564992912,0.002181661564992912,-0.001090830782496456,-2.77917401305956,-1.4743908451663423,2.7432333849120774,0,0,0,0,0,0,1536,1536,1536,1536,1536,1536
1747546594.6385443,-0.34,0.01,0.05,0.002181661564992912,0.002181661564992912,-0.001090830782496456,-2.77917401305956,-1.4743908451663423,2.7432333849120774,0,0,0,0,0,0,1536,1536,1536,1536,1536,1536
1747546594.7394207,-0.34,0.01,0.0,0.001090830782496456,0.001090830782496456,0.0,-2.77917401305956,-1.4743908451663423,2.7432333849120774,0,0,0,0,0,0,1536,1536,1536,1536,1536,1536
1747546594.8298082,-0.36,0.0,0.08,-0.001090830782496456,0.001090830782496456,-0.001090830782496456,-2.77917401305956,-1.4743908451663423,2.7432333849120774,0,0,0,0,0,0,1536,1536,1536,1536,1536,1536
1747546594.922664,-0.36,0.0,0.08,-0.001090830782496456,0.001090830782496456,-0.001090830782496456,-2.77917401305956,-1.4743908451663423,2.7432333849120774,0,0,0,0,0,0,1536,1536,1536,1536,1536,1536
1747546595.0216162,-0.38,0.0,0.01,-0.002181661564992912,0.003272492347489368,0.001090830782496456,-2.77917401305956,-1.4743908451663423,2.7432333849120774,0,0,0,0,0,0,1536,1536,1536,1536,1536,1536
1747546595.1053696,-0.38,0.0,0.01,-0.002181661564992912,0.003272492347489368,0.001090830782496456,-2.77917401305956,-1.4743908451663423,2.7432333849120774,0,0,0,0,0,0,1536,1536,1536,1536,1536,1536
1747546595.205579,-0.37,0.04,0.06,0.002181661564992912,-0.002181661564992912,0.001090830782496456,-2.77917401305956,-1.4743908451663423,2.7432333849120774,0,0,0,0,0,0,1536,1536,1536,1536,1536,1536
1747546595.3056698,-0.36,0.0,0.0,0.003272492347489368,-0.00545415391248228,0.002181661564992912,-2.77917401305956,-1.4743908451663423,2.7432333849120774,0,0,0,0,0,0,1536,1536,1536,1536,1536,1536
1747546595.4050064,-0.36,0.0,0.0,0.003272492347489368,-0.00545415391248228,0.002181661564992912,-2.77917401305956,-1.4743908451663423,2.7432333849120774,0,0,0,0,0,0,1536,1536,1536,1536,1536,1536
1747546595.5063276,,,,0.004363323129985824,0.0,-0.002181661564992912,-2.77917401305956,-1.4743908451663423,2.7432333849120774,0,0,0,0,0,0,1536,1536,1536,1536,1536,1536
1747546595.588376,-0.36,0.02,0.0,0.001090830782496456,-0.003272492347489368,0.0,-2.77917401305956,-1.4743908451663423,2.7432333849120774,0,0,0,0,0,0,1536,1536,1536,1536,1536,1536
1747546595.6894026,-0.36,0.02,0.0,0.001090830782496456,-0.003272492347489368,0.0,-2.77917401305956,-1.4743908451663423,2.7432333849120774,0,0,0,0,0,0,1536,1536,1536,1536,1536,1536
1747546595.7892196,-0.36,0.03,0.04,0.0,0.003272492347489368,-0.001090830782496456,-2.77917401305956,-1.4743908451663423,2.7432333849120774,0,0,0,0,0,0,1536,1536,1536,1536,1536,1536
1747546595.8889523,-0.36,0.03,0.04,0.0,0.003272492347489368,-0.001090830782496456,-2.77917401305956,-1.4743908451663423,2.7432333849120774,0,0,0,0,0,0,1536,1536,1536,1536,1536,1536
1747546595.9881554,,,,0.0,0.0,0.001090830782496456,-2.77917401305956,-1.4743908451663423,2.7432333849120774,0,0,0,0,0,0,1536,1536,1536,1536,1536,1536
1747546596.0725973,-0.36,0.02,0.02,0.001090830782496456,0.001090830782496456,-0.001090830782496456,-2.77917401305956,-1.4743908451663423,2.7432333849120774,0,0,0,0,0,0,1536,1536,1536,1536,1536,1536
1747546596.1721818,-0.36,0.02,0.02,0.001090830782496456,0.001090830782496456,-0.001090830782496456,-2.77917401305956,-1.4743908451663423,2.7432333849120774,0,0,0,0,0,0,1536,1536,1536,1536,1536,1536
1747546596.2723138,-0.37,0.0,0.03,0.001090830782496456,0.001090830782496456,-0.001090830782496456,-2.77917401305956,-1.4743908451663423,2.7432333849120774,0,0,0,0,0,0,1536,1536,1536,1536,1536,1536
1747546596.3552287,-0.37,0.0,0.03,0.001090830782496456,0.001090830782496456,-0.001090830782496456,-2.77917401305956,-1.4743908451663423,2.7432333849120774,0,0,0,0,0,0,1536,1536,1536,1536,1536,1536
1747546596.455661,-0.34,0.02,0.02,0.0,0.002181661564992912,-0.001090830782496456,-2.77917401305956,-1.4743908451663423,2.7432333849120774,0,0,0,0,0,0,1536,1536,1536,1536,1536,1536
1747546596.5553684,-0.34,0.03,0.06,0.0,-0.003272492347489368,0.0,-2.77917401305956,-1.4743908451663423,2.7432333849120774,0,0,0,0,0,0,1536,1536,1536,1536,1536,1536
1747546596.6555488,-0.34,0.03,0.06,0.0,-0.003272492347489368,0.0,-2.77917401305956,-1.4743908451663423,2.7432333849120774,0,0,0,0,0,0,1536,1536,1536,1536,1536,1536
1747546596.7673078,-0.37,0.04,0.0,-0.002181661564992912,-0.001090830782496456,-0.002181661564992912,-2.77917401305956,-1.4743908451663423,2.7432333849120774,0,0,0,0,0,0,1536,1536,1536,1536,1536,1536
1747546596.8564346,-0.37,0.01,0.06,0.0,0.001090830782496456,-0.001090830782496456,-2.77917401305956,-1.4743908451663423,2.7432333849120774,0,0,0,0,0,0,1536,1536,1536,1536,1536,1536
1747546596.9549787,-0.37,0.01,0.06,0.0,0.001090830782496456,-0.001090830782496456,-2.77917401305956,-1.4743908451663423,2.7432333849120774,0,0,0,0,0,0,1536,1536,1536,1536,1536,1536
1747546597.0563135,-0.37,0.0,0.04,-0.001090830782496456,-0.001090830782496456,-0.001090830782496456,-2.77917401305956,-1.4743908451663423,2.7432333849120774,0,0,0,0,0,0,1536,1536,1536,1536,1536,1536
1747546597.1555374,-0.37,0.0,0.04,-0.001090830782496456,-0.001090830782496456,-0.001090830782496456,-2.77917401305956,-1.4743908451663423,2.7432333849120774,0,0,0,0,0,0,1536,1536,1536,1536,1536,1536
1747546597.2554326,-0.37,0.0,0.06,0.003272492347489368,-0.001090830782496456,0.002181661564992912,-2.77917401305956,-1.4743908451663423,2.7432333849120774,0,0,0,0,0,0,1536,1536,1536,1536,1536,1536
1747546597.3388045,-0.39,0.01,0.05,0.002181661564992912,-0.004363323129985824,0.001090830782496456,-2.77917401305956,-1.4743908451663423,2.7432333849120774,0,0,0,0,0,0,1536,1536,1536,1536,1536,1536
1747546597.4393585,-0.39,0.01,0.05,0.002181661564992912,-0.004363323129985824,0.001090830782496456,-2.77917401305956,-1.4743908451663423,2.7432333849120774,0,-0.070916,0,0,0,0,1496,1496,1496,1536,1536,1536
1747546597.5384302,-0.36,0.0,0.09,0.001090830782496456,0.0,0.0,-2.77917401305956,-1.4743908451663423,2.7432333849120774,0,-0.105417,0,0,0,0,1463,1463,1463,1536,1536,1536
1747546597.6396818,-0.4,0.01,0.02,-0.001090830782496456,0.003272492347489368,0.0,-2.77917401305956,-1.4743908451663423,2.7432333849120774,0,-0.879209,0,0,0,0,1462,1462,1463,1536,1536,1536
1747546597.7388878,-0.4,0.01,0.02,-0.001090830782496456,0.003272492347489368,0.0,-2.77917401305956,-1.4743908451663423,2.7432333849120774,0,-1.238321,0,0,0,0,1462,1462,1462,1536,1536,1536
1747546597.822436,-0.34,0.02,0.06,-0.002181661564992912,0.001090830782496456,0.001090830782496456,-2.77917401305956,-1.4743908451663423,2.7432333849120774,0,-0.581443,0,0,0,0,1463,1463,1463,1536,1536,1536
1747546597.9221833,-0.34,0.02,0.06,-0.002181661564992912,0.001090830782496456,0.001090830782496456,-2.77917401305956,-1.4743908451663423,2.7432333849120774,0,0,0,0,0,0,1503,1503,1503,1536,1536,1536
1747546598.0224867,-0.4,-0.01,0.03,-0.002181661564992912,-0.003272492347489368,-0.001090830782496456,-2.77917401305956,-1.4743908451663423,2.7432333849120774,0,0,0,0,0,0,1536,1536,1536,1536,1536,1536
1747546598.105281,-0.36,0.01,0.09,0.001090830782496456,-0.003272492347489368,0.002181661564992912,-2.77917401305956,-1.4743908451663423,2.7432333849120774,0,0,0,0,0,0,1536,1536,1536,1536,1536,1536
1747546598.2053578,-0.36,0.01,0.09,0.001090830782496456,-0.003272492347489368,0.002181661564992912,-2.77917401305956,-1.4743908451663423,2.7432333849120774,0,0,0,0,0,0,1536,1536,1536,1536,1536,1536
1747546598.3062344,-0.37,-0.02,0.04,-0.001090830782496456,0.0,0.001090830782496456,-2.77917401305956,-1.4743908451663423,2.7432333849120774,0,0,0,0,0,0,1536,1536,1536,1536,1536,1536
1747546598.405804,-0.37,-0.02,0.04,-0.001090830782496456,0.0,0.001090830782496456,-2.77917401305956,-1.4743908451663423,2.7432333849120774,0,0,0,0,0,0,1536,1536,1536,1536,1536,1536
1747546598.505514,-0.34,0.01,0.05,0.002181661564992912,-0.003272492347489368,0.001090830782496456,-2.77917401305956,-1.4743908451663423,2.7432333849120774,0,0,0,0,0,0,1536,1536,1536,1536,1536,1536
1747546598.5888298,-0.4,0.0,0.06,0.0,0.006544984694978736,0.002181661564992912,-2.77917401305956,-1.4743908451663423,2.7432333849120774,0,0,0,0,0,0,1536,1536,1536,1536,1536,1536
1747546598.6894116,-0.4,0.0,0.06,0.0,0.006544984694978736,0.002181661564992912,-2.77917401305956,-1.4743908451663423,2.7432333849120774,0,0,0,0,0,0,1536,1536,1536,1536,1536,1536
1747546598.7892375,-0.41000000000000003,0.0,0.05,-0.002181661564992912,-0.001090830782496456,0.001090830782496456,-2.77917401305956,-1.4743908451663423,2.7432333849120774,0,0,0,0,0,0,1536,1536,1536,1536,1536,1536
1747546598.888134,-0.41000000000000003,0.0,0.05,-0.002181661564992912,-0.001090830782496456,0.001090830782496456,-2.77917401305956,-1.4743908451663423,2.7432333849120774,0,0,0,0,0,0,1536,1536,1536,1536,1536,1536
1747546598.9890423,-0.28,0.04,0.04,0.003272492347489368,-0.004363323129985824,-0.002181661564992912,-2.77917401305956,-1.4743908451663423,2.7432333849120774,0,0,0,0,0,0,1536,1536,1536,1536,1536,1536
1747546599.0713441,-0.36,0.05,0.07,-0.001090830782496456,-0.002181661564992912,0.0,-2.77917401305956,-1.4743908451663423,2.7432333849120774,0,0,0,0,0,0,1536,1536,1536,1536,1536,1536
1747546599.1722326,-0.36,0.05,0.07,-0.001090830782496456,-0.002181661564992912,0.0,-2.77917401305956,-1.4743908451663423,2.7432333849120774,0,0,0,0,0,0,1536,1536,1536,1536,1536,1536
1747546599.2718759,-0.37,0.04,0.05,0.001090830782496456,0.001090830782496456,0.004363323129985824,-2.77917401305956,-1.4743908451663423,2.7432333849120774,0,-0.003841,0,0,0,0,1496,1496,1496,1536,1536,1536
1747546599.3560188,-0.37,0.04,0.05,0.001090830782496456,0.001090830782496456,0.004363323129985824,-2.77917401305956,-1.4743908451663423,2.7432333849120774,0,-0.537779,0,0,0,0,1463,1463,1463,1536,1536,1536
1747546599.455292,-0.34,0.0,0.0,-0.002181661564992912,0.0,0.001090830782496456,-2.77917401305956,-1.4743908451663423,2.7432333849120774,0,-0.673882,0,0,0,0,1463,1463,1463,1536,1536,1536
1747546599.556041,-0.28,0.08,0.03,0.0,-0.003272492347489368,0.0,-2.77917401305956,-1.4743908451663423,2.7432333849120774,0,-1.051097,0,0,0,0,1462,1462,1463,1536,1536,1536
1747546599.6551366,-0.28,0.08,0.03,0.0,-0.003272492347489368,0.0,-2.77917401305956,-1.4743908451663423,2.7432333849120774,0,-2.58895,0,0,0,0,1460,1460,1461,1536,1536,1536
1747546599.7559443,-0.38,0.03,0.04,-0.001090830782496456,0.004363323129985824,0.001090830782496456,-2.77917401305956,-1.4743908451663423,2.7432333849120774,0,-4.808429,0,0,0,0,1460,1460,1461,1536,1536,1536
1747546599.8383741,-0.38,0.03,0.04,-0.001090830782496456,0.004363323129985824,0.001090830782496456,-2.77917401305956,-1.4743908451663423,2.7432333849120774,0,-6.173778,0,0,0,0,1460,1460,1461,1536,1536,1536
1747546599.939398,-0.41000000000000003,0.05,0.06,-0.001090830782496456,-0.002181661564992912,0.0,-2.77917401305956,-1.4743908451663423,2.7432333849120774,0,-8.541315,0,0,0,0,1460,1460,1461,1536,1536,1536
1747546600.0391757,-0.38,-0.02,0.02,0.0,0.003272492347489368,0.001090830782496456,-2.77917401305956,-1.4743908451663423,2.7432333849120774,0,-11.292264,0,0,0,0,1460,1460,1461,1536,1536,1536
1747546600.1383922,-0.38,-0.02,0.02,0.0,0.003272492347489368,0.001090830782496456,-2.77917401305956,-1.4743908451663423,2.7432333849120774,0,-12.5,0,0,0,0,1460,1460,1461,1536,1536,1536
1747546600.2385805,-0.26,0.03,0.03,0.001090830782496456,-0.001090830782496456,0.002181661564992912,-2.77917401305956,-1.4743908451663423,2.7432333849120774,0,-12.5,0,0,0,0,1460,1460,1461,1536,1536,1536
1747546600.3217056,-0.44,0.01,0.05,-0.002181661564992912,-0.001090830782496456,0.001090830782496456,-2.77917401305956,-1.4743908451663423,2.7432333849120774,0,0,0,0,0,0,1500,1500,1501,1536,1536,1536
1747546600.4220922,-0.44,0.01,0.05,-0.002181661564992912,-0.001090830782496456,0.001090830782496456,-2.77917401305956,-1.4743908451663423,2.7432333849120774,0,0,0,0,0,0,1536,1536,1536,1536,1536,1536
1747546600.5216928,-0.32,0.02,0.07,0.002181661564992912,-0.001090830782496456,0.0,-2.77917401305956,-1.4743908451663423,2.7432333849120774,0,0,0,0,0,0,1536,1536,1536,1536,1536,1536
1747546600.6061633,-0.32,0.02,0.07,0.002181661564992912,-0.001090830782496456,0.0,-2.77917401305956,-1.4743908451663423,2.7432333849120774,0,0,0,0,0,0,1536,1536,1536,1536,1536,1536
1747546600.7049663,-0.24,0.01,0.03,0.003272492347489368,0.001090830782496456,-0.001090830782496456,-2.77917401305956,-1.4743908451663423,2.7432333849120774,0,0,0,0,0,0,1536,1536,1536,1536,1536,1536
1747546600.7910573,-0.32,0.02,0.07,0.0,-0.003272492347489368,0.0,-2.77917401305956,-1.4743908451663423,2.7432333849120774,0,0,0,0,0,0,1536,1536,1536,1536,1536,1536
1747546600.889352,-0.32,0.02,0.07,0.0,-0.003272492347489368,0.0,-2.77917401305956,-1.4743908451663423,2.7432333849120774,0,0,0,0,0,0,1536,1536,1536,1536,1536,1536
1747546600.9891002,-0.35000000000000003,0.02,0.01,0.004363323129985824,0.002181661564992912,0.0,-2.77917401305956,-1.4743908451663423,2.7432333849120774,0,0,0,0,0,0,1536,1536,1536,1536,1536,1536
1747546601.0719924,-0.35000000000000003,0.02,0.01,0.004363323129985824,0.002181661564992912,0.0,-2.77917401305956,-1.4743908451663423,2.7432333849120774,0,0,0,0,0,0,1536,1536,1536,1536,1536,1536
1747546601.1735752,-0.33,0.0,0.07,0.003272492347489368,0.004363323129985824,0.0,-2.77917401305956,-1.4743908451663423,2.7432333849120774,0,0,0,0,0,0,1536,1536,1536,1536,1536,1536
1747546601.2635295,-0.43,0.05,0.06,-0.001090830782496456,0.004363323129985824,0.001090830782496456,-2.77917401305956,-1.4743908451663423,2.7432333849120774,0,0,0,0,0,0,1536,1536,1536,1536,1536,1536
1747546601.3549335,-0.43,0.05,0.06,-0.001090830782496456,0.004363323129985824,0.001090830782496456,-2.77917401305956,-1.4743908451663423,2.7432333849120774,0,0,0,0,0,0,1536,1536,1536,1536,1536,1536
1747546601.4547863,-0.28,0.08,0.02,0.002181661564992912,-0.001090830782496456,-0.002181661564992912,-2.77917401305956,-1.4743908451663423,2.7432333849120774,0,0,0,0,0,0,1536,1536,1536,1536,1536,1536
1747546601.555186,-0.28,0.08,0.02,0.002181661564992912,-0.001090830782496456,-0.002181661564992912,-2.77917401305956,-1.4743908451663423,2.7432333849120774,0,0,0,0,0,0,1536,1536,1536,1536,1536,1536
1747546601.655538,-0.28,0.05,0.05,0.002181661564992912,0.0,0.001090830782496456,-2.77917401305956,-1.4743908451663423,2.7432333849120774,0,0,0,0,0,0,1536,1536,1536,1536,1536,1536
1747546601.745326,-0.52,-0.06,0.1,-0.003272492347489368,0.001090830782496456,0.004363323129985824,-2.77917401305956,-1.4743908451663423,2.7432333849120774,0,0,0,0,0,0,1536,1536,1536,1536,1536,1536
1747546601.8386407,-0.52,-0.06,0.1,-0.003272492347489368,0.001090830782496456,0.004363323129985824,-2.77917401305956,-1.4743908451663423,2.7432333849120774,0,0,0,0,0,0,1536,1536,1536,1536,1536,1536
1747546601.9384062,-0.4,-0.01,0.0,0.001090830782496456,0.0,0.002181661564992912,-2.77917401305956,-1.4743908451663423,2.7432333849120774,0,0,0,0,0,0,1536,1536,1536,1536,1536,1536
1747546602.0390277,-0.4,-0.01,0.0,0.001090830782496456,0.0,0.002181661564992912,-2.77917401305956,-1.4743908451663423,2.7432333849120774,0,0,0,0,0,0,1536,1536,1536,1536,1536,1536
1747546602.1379344,-0.39,0.06,0.06,0.002181661564992912,0.001090830782496456,-0.001090830782496456,-2.77917401305956,-1.4743908451663423,2.7432333849120774,0,0,0,0,0,0,1536,1536,1536,1536,1536,1536
1747546602.239337,-0.42,0.05,0.09,0.001090830782496456,0.0,-0.002181661564992912,-2.77917401305956,-1.4743908451663423,2.7432333849120774,0,0,0,0,0,0,1536,1536,1536,1536,1536,1536
1747546602.321841,-0.42,0.05,0.09,0.001090830782496456,0.0,-0.002181661564992912,-2.77917401305956,-1.4743908451663423,2.7432333849120774,0,0,0,0,0,0,1536,1536,1536,1536,1536,1536
1747546602.4221635,-0.48,0.0,0.04,0.001090830782496456,-0.001090830782496456,0.0,-2.77917401305956,-1.4743908451663423,2.7432333849120774,0,0,0,0,0,0,1536,1536,1536,1536,1536,1536
1747546602.5223198,-0.48,0.0,0.04,0.001090830782496456,-0.001090830782496456,0.0,-2.77917401305956,-1.4743908451663423,2.7432333849120774,0,0,0,0,0,0,1536,1536,1536,1536,1536,1536
1747546602.604583,-0.4,0.0,0.05,0.0,-0.001090830782496456,-0.001090830782496456,-2.77917401305956,-1.4743908451663423,2.7432333849120774,0,0,0,0,0,0,1536,1536,1536,1536,1536,1536
1747546602.7054107,-0.33,0.1,-0.01,-0.002181661564992912,-0.004363323129985824,0.0,-2.77917401305956,-1.4743908451663423,2.7432333849120774,0,-12.5,0,0,0,-0.015672,1496,1496,1496,1536,1536,1536
1747546602.805792,-0.33,0.1,-0.01,-0.002181661564992912,-0.004363323129985824,0.0,-2.77917401305956,-1.4743908451663423,2.7432333849120774,0,-12.5,0,0,0,-0.017449,1460,1460,1461,1536,1536,1536
1747546602.9051673,-0.44,-0.03,0.1,0.0,0.003272492347489368,0.002181661564992912,-2.77917401305956,-1.4743908451663423,2.7432333849120774,0,-12.5,0,0,0,-0.017449,1460,1460,1461,1536,1536,1536
1747546603.0055287,-0.38,0.05,0.06,-0.003272492347489368,-0.002181661564992912,0.0,-2.77917401305956,-1.4743908451663423,2.7432333849120774,0,-12.5,0,0,0,-0.017449,1460,1460,1461,1536,1536,1536
1747546603.0884883,-0.38,0.05,0.06,-0.003272492347489368,-0.002181661564992912,0.0,-2.77917401305956,-1.4743908451663423,2.7432333849120774,0,-12.5,0,0,0,0,1460,1460,1461,1536,1536,1536
1747546603.1887133,-0.52,-0.04,0.13,0.003272492347489368,0.002181661564992912,0.0,-2.77917401305956,-1.4743908451663423,2.7432333849120774,0,-0.043231,0,0,0,0,1463,1463,1463,1536,1536,1536
1747546603.2878814,-0.52,-0.04,0.13,0.003272492347489368,0.002181661564992912,0.0,-2.77917401305956,-1.4743908451663423,2.7432333849120774,0,0,0,0,0,0,1503,1503,1503,1536,1536,1536
1747546603.3723357,-0.45,-0.09,0.13,0.0,-0.001090830782496456,0.002181661564992912,-2.77917401305956,-1.4743908451663423,2.7432333849120774,0,0,0,0,0,0,1536,1536,1536,1536,1536,1536
1747546603.4721742,-0.45,-0.09,0.13,0.0,-0.001090830782496456,0.002181661564992912,-2.77917401305956,-1.4743908451663423,2.7432333849120774,0,0,6.354489,0,0,0,1536,1536,1496,1536,1496,1538
1747546603.5717366,-0.45,0.03,0.07,0.0,-0.001090830782496456,0.0,-2.77917401305956,-1.4743908451663423,2.7432333849120774,0,0,7.5,0,0,0,1536,1536,1463,1536,1460,1538
1747546603.671838,-0.65,0.02,0.17,0.001090830782496456,-0.001090830782496456,0.003272492347489368,-2.77917401305956,-1.4743908451663423,2.7432333849120774,0,0,7.5,0,0,0,1536,1536,1463,1536,1460,1538
1747546603.775363,-0.65,0.02,0.17,0.001090830782496456,-0.001090830782496456,0.003272492347489368,-2.77917401305956,-1.4743908451663423,2.7432333849120774,0,0,7.5,0,0,0,1536,1536,1463,1536,1460,1538
1747546603.8732188,-0.4,0.04,0.06,-0.002181661564992912,-0.001090830782496456,0.002181661564992912,-2.77917401305956,-1.4743908451663423,2.7432333849120774,0,0,7.5,0,0,0,1536,1536,1463,1536,1460,1538
1747546603.9724467,-0.36,0.01,0.06,0.001090830782496456,-0.001090830782496456,0.001090830782496456,-2.77917401305956,-1.4743908451663423,2.7432333849120774,0,0,0.193498,0,0,0,1536,1536,1463,1536,1463,1536
1747546604.0553834,-0.36,0.01,0.06,0.001090830782496456,-0.001090830782496456,0.001090830782496456,-2.77917401305956,-1.4743908451663423,2.7432333849120774,0,0,0,0,0,0,1536,1536,1503,1536,1503,1536
1747546604.154883,-0.43,0.01,0.15,-0.003272492347489368,0.0,0.0,-2.77917401305956,-1.4743908451663423,2.7432333849120774,0,0,0,0,0,0,1536,1536,1536,1536,1536,1536
1747546604.2550256,-0.43,0.01,0.15,-0.003272492347489368,0.0,0.0,-2.77917401305956,-1.4743908451663423,2.7432333849120774,0,0,0,0,0,0,1536,1536,1536,1536,1536,1536
1747546604.3388994,-0.34,0.06,0.05,-0.002181661564992912,0.004363323129985824,0.002181661564992912,-2.77917401305956,-1.4743908451663423,2.7432333849120774,0,0,0,0,0,0,1536,1536,1536,1536,1536,1536
1747546604.4391844,-0.32,0.03,0.07,0.001090830782496456,0.0,0.0,-2.77917401305956,-1.4743908451663423,2.7432333849120774,0,0,0,0,0,0,1536,1536,1536,1536,1536,1536
1747546604.5394883,-0.32,0.03,0.07,0.001090830782496456,0.0,0.0,-2.77917401305956,-1.4743908451663423,2.7432333849120774,0,0,0,0,0,0,1536,1536,1536,1536,1536,1536
1747546604.6382964,-0.38,0.0,0.04,0.002181661564992912,0.001090830782496456,0.002181661564992912,-2.77917401305956,-1.4743908451663423,2.7432333849120774,0,0,0,0,0,0,1536,1536,1536,1536,1536,1536
1747546604.7379074,-0.38,0.0,0.04,0.002181661564992912,0.001090830782496456,0.002181661564992912,-2.77917401305956,-1.4743908451663423,2.7432333849120774,0,0,6.973685,0,0,0,1536,1536,1496,1536,1496,1538
1747546604.82156,-0.32,0.02,0.0,-0.002181661564992912,0.001090830782496456,0.001090830782496456,-2.77917401305956,-1.4743908451663423,2.7432333849120774,0,0,7.5,0,0,0,1536,1536,1463,1536,1460,1538
1747546604.9216108,-0.34,0.1,0.0,0.0,0.003272492347489368,0.0,-2.77917401305956,-1.4743908451663423,2.7432333849120774,0,0,7.5,0,0,0,1536,1536,1463,1536,1460,1538
1747546605.021633,-0.34,0.1,0.0,0.0,0.003272492347489368,0.0,-2.77917401305956,-1.4743908451663423,2.7432333849120774,0,0,7.5,0,0,0,1536,1536,1463,1536,1460,1538
1747546605.1057677,-0.33,0.04,0.01,-0.002181661564992912,0.001090830782496456,-0.002181661564992912,-2.77917401305956,-1.4743908451663423,2.7432333849120774,0,0,7.5,0,0,0,1536,1536,1463,1536,1460,1538
1747546605.2055063,-0.33,0.04,0.01,-0.002181661564992912,0.001090830782496456,-0.002181661564992912,-2.77917401305956,-1.4743908451663423,2.7432333849120774,0,0,7.5,0,0,0,1536,1536,1463,1536,1460,1538
1747546605.3062017,-0.34,-0.05,0.0,0.001090830782496456,-0.004363323129985824,0.0,-2.77917401305956,-1.4743908451663423,2.7432333849120774,0,0,6.633127,0,0,0,1536,1536,1463,1536,1460,1538
1747546605.4048164,-0.39,0.02,0.02,-0.001090830782496456,-0.002181661564992912,0.001090830782496456,-2.77917401305956,-1.4743908451663423,2.7432333849120774,0,0,0,0,0,0,1536,1536,1503,1536,1500,1536
1747546605.5052989,-0.39,0.02,0.02,-0.001090830782496456,-0.002181661564992912,0.001090830782496456,-2.77917401305956,-1.4743908451663423,2.7432333849120774,0,0,0,0,0,0,1536,1536,1536,1536,1536,1536
1747546605.588504,-0.43,-0.01,0.09,0.00545415391248228,0.003272492347489368,-0.002181661564992912,-2.77917401305956,-1.4743908451663423,2.7432333849120774,0,0,0,0,0,0,1536,1536,1536,1536,1536,1536
1747546605.6878664,-0.5700000000000001,-0.06,0.09,0.001090830782496456,0.003272492347489368,0.001090830782496456,-2.77917401305956,-1.4743908451663423,2.7432333849120774,0,0,-0.534056,0,0,0,1496,1496,1536,1536,1536,1496
1747546605.7890558,-0.5700000000000001,-0.06,0.09,0.001090830782496456,0.003272492347489368,0.001090830782496456,-2.77917401305956,-1.4743908451663423,2.7432333849120774,0,0,-7.5,0,0,0,1463,1463,1536,1536,1538,1460
1747546605.888926,-0.44,0.34,0.05,-0.002181661564992912,0.003272492347489368,-0.004363323129985824,-2.77917401305956,-1.4743908451663423,2.7432333849120774,0,0,-7.5,0,0,0,1463,1463,1536,1536,1538,1460
1747546605.9884818,-0.44,0.34,0.05,-0.002181661564992912,0.003272492347489368,-0.004363323129985824,-2.77917401305956,-1.4743908451663423,2.7432333849120774,0,0,-7.5,0,0,0,1463,1463,1536,1536,1538,1460
1747546606.0723596,-0.39,0.0,0.06,-0.003272492347489368,0.0,0.002181661564992912,-2.77917401305956,-1.4743908451663423,2.7432333849120774,0,0,-7.5,0,0,0,1463,1463,1536,1536,1538,1460
1747546606.1724513,-0.45,0.0,0.09,-0.003272492347489368,0.007635815477475192,-0.001090830782496456,-2.77917401305956,-1.4743908451663423,2.7432333849120774,0,0,-1.122291,0,0,0,1463,1463,1536,1536,1537,1462
1747546606.2721465,-0.45,0.0,0.09,-0.003272492347489368,0.007635815477475192,-0.001090830782496456,-2.77917401305956,-1.4743908451663423,2.7432333849120774,0,0,0,0,0,0,1503,1503,1536,1536,1536,1502
1747546606.3558247,-0.44,-0.09,0.06,-0.002181661564992912,0.001090830782496456,0.0,-2.77917401305956,-1.4743908451663423,2.7432333849120774,0,0,0,0,0,0,1536,1536,1536,1536,1536,1536
1747546606.4553723,-0.44,-0.09,0.06,-0.002181661564992912,0.001090830782496456,0.0,-2.77917401305956,-1.4743908451663423,2.7432333849120774,0,0,0,0,0,0,1536,1536,1536,1536,1536,1536
1747546606.5553126,-0.45,0.0,0.02,-0.003272492347489368,0.001090830782496456,0.0,-2.77917401305956,-1.4743908451663423,2.7432333849120774,0,0,0,0,0,0,1536,1536,1536,1536,1536,1536
1747546606.655501,-0.32,-0.02,0.01,0.0,0.003272492347489368,-0.001090830782496456,-2.77917401305956,-1.4743908451663423,2.7432333849120774,0,0,0,0,0,0,1536,1536,1536,1536,1536,1536
1747546606.7555664,-0.32,-0.02,0.01,0.0,0.003272492347489368,-0.001090830782496456,-2.77917401305956,-1.4743908451663423,2.7432333849120774,0,0,0,0,0,0,1536,1536,1536,1536,1536,1536
1747546606.8380988,-0.35000000000000003,-0.03,0.01,0.0,-0.003272492347489368,0.003272492347489368,-2.77917401305956,-1.4743908451663423,2.7432333849120774,0,0,0,0,0,0,1536,1536,1536,1536,1536,1536
1747546606.9384813,-0.35000000000000003,-0.03,0.01,0.0,-0.003272492347489368,0.003272492347489368,-2.77917401305956,-1.4743908451663423,2.7432333849120774,0,0,0,0,0,0,1536,1536,1536,1536,1536,1536
1747546607.0382764,-0.38,0.1,-0.01,-0.003272492347489368,0.004363323129985824,-0.001090830782496456,-2.77917401305956,-1.4743908451663423,2.7432333849120774,0,0,0,0,0,0,1536,1536,1536,1536,1536,1536
1747546607.1212773,-0.38,-0.02,0.02,0.002181661564992912,0.003272492347489368,-0.001090830782496456,-2.77917401305956,-1.4743908451663423,2.7432333849120774,0,0,0,0,0,0,1536,1536,1536,1536,1536,1536
1747546607.2222977,-0.38,-0.02,0.02,0.002181661564992912,0.003272492347489368,-0.001090830782496456,-2.77917401305956,-1.4743908451663423,2.7432333849120774,0,0,0,0,0,0,1536,1536,1536,1536,1536,1536
1747546607.322058,-0.35000000000000003,-0.01,0.02,0.0,0.003272492347489368,0.001090830782496456,-2.77917401305956,-1.4743908451663423,2.7432333849120774,0,0,0,0,0,0,1536,1536,1536,1536,1536,1536
1747546607.4226627,-0.35000000000000003,-0.01,0.02,0.0,0.003272492347489368,0.001090830782496456,-2.77917401305956,-1.4743908451663423,2.7432333849120774,0,0,0,0,0,0,1536,1536,1536,1536,1536,1536
1747546607.5224128,-0.38,-0.05,0.06,0.003272492347489368,-0.002181661564992912,0.001090830782496456,-2.77917401305956,-1.4743908451663423,2.7432333849120774,0,0,0,0,0,0,1536,1536,1536,1536,1536,1536
1747546607.6053889,-0.4,0.09,-0.07,-0.004363323129985824,0.0,-0.001090830782496456,-2.77917401305956,-1.4743908451663423,2.7432333849120774,0,0,0,0,0,0,1536,1536,1536,1536,1536,1536
1747546607.7050622,-0.4,0.09,-0.07,-0.004363323129985824,0.0,-0.001090830782496456,-2.77917401305956,-1.4743908451663423,2.7432333849120774,0,0,0,0,0,0,1536,1536,1536,1536,1536,1536
1747546607.8050618,-0.37,0.13,0.06,0.001090830782496456,0.0,0.0,-2.77917401305956,-1.4743908451663423,2.7432333849120774,0,0,0,0,0,0,1536,1536,1536,1536,1536,1536
1747546607.904512,-0.43,0.03,-0.03,-0.001090830782496456,-0.003272492347489368,-0.001090830782496456,-2.77917401305956,-1.4743908451663423,2.7432333849120774,0,0,5.456657,0,0,0,1536,1536,1496,1536,1496,1538
1747546608.0047183,-0.43,0.03,-0.03,-0.001090830782496456,-0.003272492347489368,-0.001090830782496456,-2.77917401305956,-1.4743908451663423,2.7432333849120774,0,0,7.5,0,0,0,1536,1536,1463,1536,1460,1538
1747546608.0883052,-0.39,0.11,0.07,0.002181661564992912,-0.002181661564992912,0.002181661564992912,-2.77917401305956,-1.4743908451663423,2.7432333849120774,0,0,7.5,0,0,0,1536,1536,1463,1536,1460,1538
1747546608.1886158,-0.39,0.11,0.07,0.002181661564992912,-0.002181661564992912,0.002181661564992912,-2.77917401305956,-1.4743908451663423,2.7432333849120774,0,0,7.5,0,0,0,1536,1536,1463,1536,1460,1538
1747546608.288918,-0.36,0.08,0.05,-0.002181661564992912,0.001090830782496456,0.002181661564992912,-2.77917401305956,-1.4743908451663423,2.7432333849120774,0,0,7.5,0,0,0,1536,1536,1463,1536,1460,1538
1747546608.3878162,-0.29,-0.01,0.04,-0.003272492347489368,0.001090830782496456,0.003272492347489368,-2.77917401305956,-1.4743908451663423,2.7432333849120774,0,0,7.5,0,0,0,1536,1536,1463,1536,1460,1538
1747546608.4881458,-0.29,-0.01,0.04,-0.003272492347489368,0.001090830782496456,0.003272492347489368,-2.77917401305956,-1.4743908451663423,2.7432333849120774,0,0,7.5,0,0,0,1536,1536,1463,1536,1460,1538
1747546608.5720873,-0.37,0.03,0.05,0.0,-0.004363323129985824,0.002181661564992912,-2.77917401305956,-1.4743908451663423,2.7432333849120774,0,0,0.0387,0,0,0,1536,1536,1463,1536,1463,1536
1747546608.6725893,-0.37,0.03,0.05,0.0,-0.004363323129985824,0.002181661564992912,-2.77917401305956,-1.4743908451663423,2.7432333849120774,0,0,0,0,0,0,1536,1536,1503,1536,1503,1536
1747546608.7712266,-0.3,-0.02,0.09,-0.002181661564992912,-0.002181661564992912,-0.001090830782496456,-2.77917401305956,-1.4743908451663423,2.7432333849120774,-1,0,0,0,0,0,1536,1496,1536,1496,1463,1496
1747546608.8578012,-0.39,0.03,0.05,-0.003272492347489368,0.001090830782496456,0.002181661564992912,-2.77917401305956,-1.4743908451663423,2.7432333849120774,-1,0,0,0,0,0,1536,1463,1536,1460,1462,1462
1747546608.9571967,-0.39,0.03,0.05,-0.003272492347489368,0.001090830782496456,0.002181661564992912,-2.77917401305956,-1.4743908451663423,2.7432333849120774,-1,0,0,0,0,0,1536,1463,1536,1460,1462,1462
1747546609.0523071,-0.35000000000000003,0.13,0.0,-0.001090830782496456,-0.004363323129985824,-0.001090830782496456,-2.77917401305956,-1.4743908451663423,2.7432333849120774,-1,0,0,0,0,0,1536,1463,1536,1460,1462,1462
1747546609.1382506,-0.35000000000000003,0.13,0.0,-0.001090830782496456,-0.004363323129985824,-0.001090830782496456,-2.77917401305956,-1.4743908451663423,2.7432333849120774,-1,0,0,0,0,0,1536,1463,1536,1460,1462,1462
1747546609.2383661,-0.33,0.12,0.04,-0.002181661564992912,0.001090830782496456,0.0,-2.77917401305956,-1.4743908451663423,2.7432333849120774,0,0,0,0,0,0,1536,1503,1536,1500,1502,1502
1747546609.3211827,-0.33,0.12,0.04,-0.002181661564992912,0.001090830782496456,0.0,-2.77917401305956,-1.4743908451663423,2.7432333849120774,0,0,0,0,0,0,1536,1536,1536,1536,1536,1536
1747546609.422113,-0.23,0.08,0.0,0.00545415391248228,-0.00545415391248228,-0.001090830782496456,-2.77917401305956,-1.4743908451663423,2.7432333849120774,0,0,0,0,0,0,1536,1536,1536,1536,1536,1536
1747546609.5216756,-0.38,-0.04,0.09,-0.00545415391248228,0.001090830782496456,0.004363323129985824,-2.77917401305956,-1.4743908451663423,2.7432333849120774,0,0,0,0,0,0,1536,1536,1536,1536,1536,1536
1747546609.6211581,-0.38,-0.04,0.09,-0.00545415391248228,0.001090830782496456,0.004363323129985824,-2.77917401305956,-1.4743908451663423,2.7432333849120774,0,0,0,0,0,0,1536,1536,1536,1536,1536,1536
1747546609.722243,-0.31,0.01,0.02,-0.002181661564992912,0.0,-0.003272492347489368,-2.77917401305956,-1.4743908451663423,2.7432333849120774,0,0,0,0,0,0,1536,1536,1536,1536,1536,1536
1747546609.8050544,-0.34,0.0,-0.03,0.002181661564992912,0.003272492347489368,0.001090830782496456,-2.77917401305956,-1.4743908451663423,2.7432333849120774,0,0,0,0,0,0,1536,1536,1536,1536,1536,1536
1747546609.905026,-0.34,0.0,-0.03,0.002181661564992912,0.003272492347489368,0.001090830782496456,-2.77917401305956,-1.4743908451663423,2.7432333849120774,0,0,0,0,0,0,1536,1536,1536,1536,1536,1536
1747546610.0050507,-0.36,0.0,0.03,-0.004363323129985824,0.004363323129985824,-0.003272492347489368,-2.77917401305956,-1.4743908451663423,2.7432333849120774,0,0,0,0,0,0,1536,1536,1536,1536,1536,1536
1747546610.0876148,-0.36,0.0,0.03,-0.004363323129985824,0.004363323129985824,-0.003272492347489368,-2.77917401305956,-1.4743908451663423,2.7432333849120774,0,0,0,0,0,0,1536,1536,1536,1536,1536,1536
1747546610.1886249,-0.33,0.0,0.07,-0.004363323129985824,0.001090830782496456,0.002181661564992912,-2.77917401305956,-1.4743908451663423,2.7432333849120774,0,0,0,0,0,0,1536,1536,1536,1536,1536,1536
1747546610.2778933,-0.27,-0.07,0.0,-0.004363323129985824,-0.002181661564992912,0.001090830782496456,-2.77917401305956,-1.4743908451663423,2.7432333849120774,0,0,0,0,0,0,1536,1536,1536,1536,1536,1536
1747546610.3717072,-0.27,-0.07,0.0,-0.004363323129985824,-0.002181661564992912,0.001090830782496456,-2.77917401305956,-1.4743908451663423,2.7432333849120774,0,0,0,0,0,0,1536,1536,1536,1536,1536,1536
1747546610.4716554,-0.33,0.02,0.08,-0.003272492347489368,-0.002181661564992912,0.001090830782496456,-2.77917401305956,-1.4743908451663423,2.7432333849120774,0,0,0,0,0,0,1536,1536,1536,1536,1536,1536
1747546610.555094,-0.33,0.02,0.08,-0.003272492347489368,-0.002181661564992912,0.001090830782496456,-2.77917401305956,-1.4743908451663423,2.7432333849120774,0,0,0,0,0,0,1536,1536,1536,1536,1536,1536
1747546610.655144,-0.36,-0.08,0.0,0.001090830782496456,-0.001090830782496456,0.0,-2.77917401305956,-1.4743908451663423,2.7432333849120774,0,0,0,0,0,0,1536,1536,1536,1536,1536,1536
1747546610.742385,-0.27,0.02,0.04,-0.001090830782496456,-0.003272492347489368,0.001090830782496456,-2.77917401305956,-1.4743908451663423,2.7432333849120774,0,0,0,0,0,0,1536,1536,1536,1536,1536,1536
1747546610.8390088,-0.27,0.02,0.04,-0.001090830782496456,-0.003272492347489368,0.001090830782496456,-2.77917401305956,-1.4743908451663423,2.7432333849120774,0,0,0,0,0,0,1536,1536,1536,1536,1536,1536
1747546610.9381213,-0.36,0.13,0.03,0.001090830782496456,0.0,0.0,-2.77917401305956,-1.4743908451663423,2.7432333849120774,1,0,0,0,0,0,1496,1536,1496,1538,1537,1537
1747546611.0380979,-0.36,0.13,0.03,0.001090830782496456,0.0,0.0,-2.77917401305956,-1.4743908451663423,2.7432333849120774,1,0,0,0,0,0,1463,1536,1464,1538,1537,1537
1747546611.1219428,-0.32,0.06,0.05,0.0,0.001090830782496456,-0.003272492347489368,-2.77917401305956,-1.4743908451663423,2.7432333849120774,1,0,0,0,0,0,1463,1536,1464,1538,1537,1537
1747546611.221202,-0.32,0.06,0.05,0.0,0.001090830782496456,-0.003272492347489368,-2.77917401305956,-1.4743908451663423,2.7432333849120774,1,0,0,0,0,0,1463,1536,1464,1538,1537,1537
1747546611.3054085,-0.38,0.04,0.02,-0.003272492347489368,-0.004363323129985824,0.001090830782496456,-2.77917401305956,-1.4743908451663423,2.7432333849120774,1,0,0,0,0,0,1463,1536,1464,1538,1537,1537
1747546611.4050975,-0.27,0.04,0.02,0.002181661564992912,0.001090830782496456,-0.001090830782496456,-2.77917401305956,-1.4743908451663423,2.7432333849120774,1,0,0,0,0,0,1463,1536,1464,1538,1537,1537
1747546611.5047982,-0.27,0.04,0.02,0.002181661564992912,0.001090830782496456,-0.001090830782496456,-2.77917401305956,-1.4743908451663423,2.7432333849120774,1,0,0,0,0,0,1463,1536,1464,1538,1537,1537
1747546611.5882149,-0.34,-0.14,0.04,0.0,-0.001090830782496456,-0.002181661564992912,-2.77917401305956,-1.4743908451663423,2.7432333849120774,1,0,0,0,0,0,1463,1536,1464,1538,1537,1537
1747546611.688311,-0.34,-0.14,0.04,0.0,-0.001090830782496456,-0.002181661564992912,-2.77917401305956,-1.4743908451663423,2.7432333849120774,1,0,0,0,0,0,1463,1536,1464,1538,1537,1537
1747546611.7881424,-0.42,-0.05,0.0,-0.002181661564992912,0.001090830782496456,0.002181661564992912,-2.77917401305956,-1.4743908451663423,2.7432333849120774,1,0,0,0,0,0,1463,1536,1464,1538,1537,1537
1747546611.8723307,-0.29,-0.12,0.02,0.003272492347489368,0.004363323129985824,0.0,-2.77917401305956,-1.4743908451663423,2.7432333849120774,1,0,0,0,0,0,1463,1536,1464,1538,1537,1537
1747546611.9717689,-0.29,-0.12,0.02,0.003272492347489368,0.004363323129985824,0.0,-2.77917401305956,-1.4743908451663423,2.7432333849120774,0,0,0,0,0,0,1503,1536,1504,1536,1536,1536
1747546612.0718012,-0.36,0.01,0.06,-0.001090830782496456,-0.00545415391248228,0.002181661564992912,-2.77917401305956,-1.4743908451663423,2.7432333849120774,0,0,0,0,0,0,1536,1536,1536,1536,1536,1536
1747546612.1725166,-0.36,0.01,0.06,-0.001090830782496456,-0.00545415391248228,0.002181661564992912,-2.77917401305956,-1.4743908451663423,2.7432333849120774,0,0,0,0,0,0,1536,1536,1536,1536,1536,1536
1747546612.2715912,-0.42,-0.02,0.09,0.0,-0.003272492347489368,0.001090830782496456,-2.77917401305956,-1.4743908451663423,2.7432333849120774,0,0,0,0,0,0,1536,1536,1536,1536,1536,1536
1747546612.3547623,-0.37,0.0,0.06,-0.001090830782496456,-0.001090830782496456,0.003272492347489368,-2.77917401305956,-1.4743908451663423,2.7432333849120774,0,0,0,0,0,0,1536,1536,1536,1536,1536,1536
1747546612.4551349,-0.37,0.0,0.06,-0.001090830782496456,-0.001090830782496456,0.003272492347489368,-2.77917401305956,-1.4743908451663423,2.7432333849120774,0,0,0,0,0,0,1536,1536,1536,1536,1536,1536
1747546612.5549405,-0.37,-0.27,-0.12,0.001090830782496456,0.001090830782496456,0.003272492347489368,-2.77917401305956,-1.4743908451663423,2.7432333849120774,0,0,0,0,0,0,1536,1536,1536,1536,1536,1536
1747546612.654782,-0.33,0.04,0.08,0.0,-0.001090830782496456,-0.002181661564992912,-2.77917401305956,-1.4743908451663423,2.7432333849120774,0,0,0,0,0,0,1536,1536,1536,1536,1536,1536
1747546612.7550504,-0.33,0.04,0.08,0.0,-0.001090830782496456,-0.002181661564992912,-2.77917401305956,-1.4743908451663423,2.7432333849120774,0,0,0,0,0,0,1536,1536,1536,1536,1536,1536
1747546612.8380685,-0.27,0.04,0.0,0.001090830782496456,0.002181661564992912,-0.001090830782496456,-2.77917401305956,-1.4743908451663423,2.7432333849120774,0,0,0,0,0,0,1536,1536,1536,1536,1536,1536
1747546612.938433,-0.27,0.04,0.0,0.001090830782496456,0.002181661564992912,-0.001090830782496456,-2.77917401305956,-1.4743908451663423,2.7432333849120774,0,0,0,0,0,0,1536,1536,1536,1536,1536,1536
1747546613.038396,-0.34,0.0,0.05,-0.001090830782496456,0.0,-0.001090830782496456,-2.77917401305956,-1.4743908451663423,2.7432333849120774,0,0.001082,0,0,0,0,1536,1536,1536,1536,1536,1536
1747546613.1379924,-0.38,0.02,0.04,0.003272492347489368,0.0,0.004363323129985824,-2.77917401305956,-1.4743908451663423,2.7432333849120774,0,10.332742,0,0,0,0.184152,1538,1538,1537,1536,1536,1536
1747546613.2381253,-0.38,0.02,0.04,0.003272492347489368,0.0,0.004363323129985824,-2.77917401305956,-1.4743908451663423,2.7432333849120774,0,10.332742,0,0,0,0.255136,1538,1537,1537,1536,1536,1536
1747546613.3206441,-0.29,-0.05,0.04,-0.002181661564992912,-0.001090830782496456,0.002181661564992912,-2.77917401305956,-1.4743908451663423,2.7432333849120774,0,10.332742,0,0,0,0.255136,1538,1537,1537,1536,1536,1536
1747546613.420937,-0.29,-0.05,0.04,-0.002181661564992912,-0.001090830782496456,0.002181661564992912,-2.77917401305956,-1.4743908451663423,2.7432333849120774,0,10.332742,0,0,0,0.255136,1538,1537,1537,1536,1536,1536
1747546613.5212765,-0.27,0.0,0.02,0.0,-0.002181661564992912,0.0,-2.77917401305956,-1.4743908451663423,2.7432333849120774,0,10.332742,0,0,0,0.255136,1538,1537,1537,1536,1536,1536
1747546613.6050591,-0.38,0.0,0.05,-0.001090830782496456,0.004363323129985824,0.001090830782496456,-2.77917401305956,-1.4743908451663423,2.7432333849120774,0,10.332742,0,0,0,0.255136,1538,1537,1537,1536,1536,1536
1747546613.7051587,-0.38,0.0,0.05,-0.001090830782496456,0.004363323129985824,0.001090830782496456,-2.77917401305956,-1.4743908451663423,2.7432333849120774,0,10.332742,0,0,0,0.255136,1538,1537,1537,1536,1536,1536
1747546613.8050058,-0.35000000000000003,0.05,0.0,-0.002181661564992912,-0.002181661564992912,0.001090830782496456,-2.77917401305956,-1.4743908451663423,2.7432333849120774,0,10.332742,0,0,0,0.255136,1538,1537,1537,1536,1536,1536
1747546613.9039872,-0.35000000000000003,0.05,0.0,-0.002181661564992912,-0.002181661564992912,0.001090830782496456,-2.77917401305956,-1.4743908451663423,2.7432333849120774,0,8.712887,0,0,0,0.155703,1538,1538,1537,1536,1536,1536
1747546614.0052724,-0.43,0.0,0.06,0.002181661564992912,0.002181661564992912,-0.001090830782496456,-2.77917401305956,-1.4743908451663423,2.7432333849120774,0,0,0,0,0,0,1536,1536,1536,1536,1536,1536
1747546614.0878599,-0.35000000000000003,0.13,0.0,0.003272492347489368,0.001090830782496456,-0.002181661564992912,-2.77917401305956,-1.4743908451663423,2.7432333849120774,0,0,0,0,0,0,1536,1536,1536,1536,1536,1536
1747546614.1878517,-0.35000000000000003,0.13,0.0,0.003272492347489368,0.001090830782496456,-0.002181661564992912,-2.77917401305956,-1.4743908451663423,2.7432333849120774,0,0,0,0,-0.029213,0,1536,1536,1536,1536,1536,1536
1747546614.287423,-0.35000000000000003,0.0,0.02,0.0,-0.002181661564992912,-0.001090830782496456,-2.77917401305956,-1.4743908451663423,2.7432333849120774,0,0,0,0,-0.28,0,1536,1536,1496,1536,1496,1496
1747546614.3708205,-0.35000000000000003,0.0,0.02,0.0,-0.002181661564992912,-0.001090830782496456,-2.77917401305956,-1.4743908451663423,2.7432333849120774,0,0,0,0,-0.28,0,1536,1536,1464,1536,1460,1460
1747546614.4706078,-0.29,0.03,0.01,0.001090830782496456,0.0,-0.001090830782496456,-2.77917401305956,-1.4743908451663423,2.7432333849120774,0,0,0,0,-0.28,0,1536,1536,1464,1536,1460,1460
1747546614.5547175,-0.24,-0.02,0.12,-0.003272492347489368,-0.001090830782496456,-0.001090830782496456,-2.77917401305956,-1.4743908451663423,2.7432333849120774,0,0,0,0,-0.28,0,1536,1536,1464,1536,1460,1460
1747546614.6548064,-0.24,-0.02,0.12,-0.003272492347489368,-0.001090830782496456,-0.001090830782496456,-2.77917401305956,-1.4743908451663423,2.7432333849120774,0,0,0,0,-0.28,0,1536,1536,1464,1536,1460,1460
1747546614.7540953,-0.43,-0.14,0.12,0.001090830782496456,0.002181661564992912,-0.001090830782496456,-2.77917401305956,-1.4743908451663423,2.7432333849120774,0,0,0,0,-0.28,0,1536,1536,1464,1536,1460,1460
1747546614.837722,-0.43,-0.14,0.12,0.001090830782496456,0.002181661564992912,-0.001090830782496456,-2.77917401305956,-1.4743908451663423,2.7432333849120774,0,0,0,0,-0.28,0,1536,1536,1464,1536,1460,1460
1747546614.9367468,-0.33,0.04,0.01,0.001090830782496456,-0.002181661564992912,-0.002181661564992912,-2.77917401305956,-1.4743908451663423,2.7432333849120774,0,0,0,0,-0.28,0,1536,1536,1464,1536,1460,1460
1747546615.038126,-0.33,-0.01,0.06,0.0,0.0,0.0,-2.77917401305956,-1.4743908451663423,2.7432333849120774,0,0,0,0,0,0,1536,1536,1504,1536,1500,1500
1747546615.1216471,-0.33,-0.01,0.06,0.0,0.0,0.0,-2.77917401305956,-1.4743908451663423,2.7432333849120774,0,0,0,0,0,0,1536,1536,1536,1536,1536,1536
1747546615.2222118,-0.31,0.1,0.05,-0.00545415391248228,0.002181661564992912,0.002181661564992912,-2.77917401305956,-1.4743908451663423,2.7432333849120774,0,0,0,0,0,0,1536,1536,1536,1536,1536,1536
1747546615.3215299,-0.31,0.1,0.05,-0.00545415391248228,0.002181661564992912,0.002181661564992912,-2.77917401305956,-1.4743908451663423,2.7432333849120774,0,0,0,0,0,0,1536,1536,1536,1536,1536,1536
1747546615.4214027,-0.33,-0.06,0.07,-0.003272492347489368,-0.004363323129985824,0.001090830782496456,-2.77917401305956,-1.4743908451663423,2.7432333849120774,0,0,0,0,0,0,1536,1536,1536,1536,1536,1536
1747546615.5207782,-0.53,-0.19,0.1,-0.00545415391248228,-0.002181661564992912,0.002181661564992912,-2.77917401305956,-1.4743908451663423,2.7432333849120774,0,0,0,0,0,0,1536,1536,1536,1536,1536,1536
1747546615.6049309,-0.53,-0.19,0.1,-0.00545415391248228,-0.002181661564992912,0.002181661564992912,-2.77917401305956,-1.4743908451663423,2.7432333849120774,0,0,0,0,0,0,1536,1536,1536,1536,1536,1536
1747546615.704658,-0.35000000000000003,-0.02,0.05,-0.004363323129985824,0.002181661564992912,0.001090830782496456,-2.77917401305956,-1.4743908451663423,2.7432333849120774,0,0,0,0,0,0,1536,1536,1536,1536,1536,1536
1747546615.804333,-0.35000000000000003,-0.02,0.05,-0.004363323129985824,0.002181661564992912,0.001090830782496456,-2.77917401305956,-1.4743908451663423,2.7432333849120774,0,0,0,0,0,0,1536,1536,1536,1536,1536,1536
1747546615.906106,-0.24,-0.04,-0.02,0.001090830782496456,0.001090830782496456,0.001090830782496456,-2.77917401305956,-1.4743908451663423,2.7432333849120774,0,0,0,0,0,0,1536,1536,1536,1536,1536,1536
1747546616.0049708,-0.32,0.03,0.01,0.001090830782496456,0.003272492347489368,0.001090830782496456,-2.77917401305956,-1.4743908451663423,2.7432333849120774,0,0,0,0,0,0,1536,1536,1536,1536,1536,1536
1747546616.08818,-0.32,0.03,0.01,0.001090830782496456,0.003272492347489368,0.001090830782496456,-2.77917401305956,-1.4743908451663423,2.7432333849120774,0,0,0,0,0,0,1536,1536,1536,1536,1536,1536
1747546616.1883109,-0.38,0.03,0.03,-0.001090830782496456,-0.002181661564992912,-0.001090830782496456,-2.77917401305956,-1.4743908451663423,2.7432333849120774,0,0,0,0,0,0,1536,1536,1536,1536,1536,1536
1747546616.2843735,-0.34,0.02,0.12,-0.001090830782496456,0.002181661564992912,0.004363323129985824,-2.77917401305956,-1.4743908451663423,2.7432333849120774,0,0,0,0,0,0,1536,1536,1536,1536,1536,1536
1747546616.3707848,-0.34,0.02,0.12,-0.001090830782496456,0.002181661564992912,0.004363323129985824,-2.77917401305956,-1.4743908451663423,2.7432333849120774,0,0,0,0,0,0,1536,1536,1536,1536,1536,1536
1747546616.4713316,-0.31,0.08,0.05,0.002181661564992912,-0.002181661564992912,0.0,-2.77917401305956,-1.4743908451663423,2.7432333849120774,0,0,0,0,0,0,1536,1536,1536,1536,1536,1536
1747546616.5545883,-0.31,0.08,0.05,0.002181661564992912,-0.002181661564992912,0.0,-2.77917401305956,-1.4743908451663423,2.7432333849120774,0,0,0,0,0,0,1536,1536,1536,1536,1536,1536
1747546616.6554034,-0.38,0.0,0.03,0.001090830782496456,-0.001090830782496456,0.003272492347489368,-2.77917401305956,-1.4743908451663423,2.7432333849120774,0,0,0,0,0,0,1536,1536,1536,1536,1536,1536
1747546616.7547035,-0.38,0.0,0.03,0.001090830782496456,-0.001090830782496456,0.003272492347489368,-2.77917401305956,-1.4743908451663423,2.7432333849120774,0,0,0,0,0,0,1536,1536,1536,1536,1536,1536
1747546616.8385763,-0.29,-0.07,0.0,-0.002181661564992912,-0.003272492347489368,-0.002181661564992912,-2.77917401305956,-1.4743908451663423,2.7432333849120774,0,0,0,0,0,0,1536,1536,1536,1536,1536,1536
1747546616.9380763,-0.36,0.0,0.09,0.0,0.002181661564992912,0.001090830782496456,-2.77917401305956,-1.4743908451663423,2.7432333849120774,0,0,0,0,0,0,1536,1536,1536,1536,1536,1536
1747546617.0382879,-0.36,0.0,0.09,0.0,0.002181661564992912,0.001090830782496456,-2.77917401305956,-1.4743908451663423,2.7432333849120774,0,0,0,0,0,0,1536,1536,1536,1536,1536,1536
1747546617.1238184,-0.34,0.05,0.01,0.0,-0.002181661564992912,0.0,-2.77917401305956,-1.4743908451663423,2.7432333849120774,0,0,0,0,0,0,1536,1536,1536,1536,1536,1536
1747546617.2222104,-0.34,0.05,0.01,0.0,-0.002181661564992912,0.0,-2.77917401305956,-1.4743908451663423,2.7432333849120774,0,0,0,0,0,0,1536,1536,1536,1536,1536,1536
1747546617.3220172,-0.4,-0.06,0.12,-0.003272492347489368,0.0,0.0,-2.77917401305956,-1.4743908451663423,2.7432333849120774,0,0,0,0,0,0,1536,1536,1536,1536,1536,1536
1747546617.4226027,-0.36,-0.07,0.0,0.0,0.0,-0.001090830782496456,-2.77917401305956,-1.4743908451663423,2.7432333849120774,0,0,0,0,0,0,1536,1536,1536,1536,1536,1536
1747546617.524019,-0.36,-0.07,0.0,0.0,0.0,-0.001090830782496456,-2.77917401305956,-1.4743908451663423,2.7432333849120774,0,0,0,0,0,0,1536,1536,1536,1536,1536,1536
1747546617.6215527,-0.29,0.03,0.01,-0.001090830782496456,-0.001090830782496456,0.002181661564992912,-2.77917401305956,-1.4743908451663423,2.7432333849120774,0,0,0,0,0,0,1536,1536,1536,1536,1536,1536
1747546617.7218583,-0.44,-0.09,0.03,-0.001090830782496456,0.002181661564992912,-0.003272492347489368,-2.77917401305956,-1.4743908451663423,2.7432333849120774,0,0,0,0,0,0,1536,1536,1536,1536,1536,1536
1747546617.8212752,-0.44,-0.09,0.03,-0.001090830782496456,0.002181661564992912,-0.003272492347489368,-2.77917401305956,-1.4743908451663423,2.7432333849120774,0,0,0,0,0,0,1536,1536,1536,1536,1536,1536
1747546617.921782,-0.35000000000000003,0.01,0.0,0.004363323129985824,0.0,0.0,-2.77917401305956,-1.4743908451663423,2.7432333849120774,0,0,0,0,0,0,1536,1536,1536,1536,1536,1536
1747546618.0204098,-0.38,-0.03,-0.04,0.004363323129985824,-0.001090830782496456,-0.001090830782496456,-2.77917401305956,-1.4743908451663423,2.7432333849120774,0,0,0,0,0,0,1536,1536,1536,1536,1536,1536
1747546618.104763,-0.38,-0.03,-0.04,0.004363323129985824,-0.001090830782496456,-0.001090830782496456,-2.77917401305956,-1.4743908451663423,2.7432333849120774,0,0,0,0,0,0,1536,1536,1536,1536,1536,1536
1747546618.2052357,-0.37,0.07,0.0,0.001090830782496456,-0.001090830782496456,0.0,-2.77917401305956,-1.4743908451663423,2.7432333849120774,0,0,0,0,0,0,1536,1536,1536,1536,1536,1536
1747546618.3044398,-0.37,0.07,0.0,0.001090830782496456,-0.001090830782496456,0.0,-2.77917401305956,-1.4743908451663423,2.7432333849120774,0,0,0,0,0,0,1536,1536,1536,1536,1536,1536
1747546618.4046822,-0.39,-0.01,0.01,-0.001090830782496456,-0.002181661564992912,0.001090830782496456,-2.77917401305956,-1.4743908451663423,2.7432333849120774,0,0,0,0,0,0,1536,1536,1536,1536,1536,1536
1747546618.492714,-0.35000000000000003,-0.04,0.08,0.002181661564992912,0.0,0.002181661564992912,-2.77917401305956,-1.4743908451663423,2.7432333849120774,0,0,0,0,0,0,1536,1536,1536,1536,1536,1536
1747546618.5884237,-0.35000000000000003,-0.04,0.08,0.002181661564992912,0.0,0.002181661564992912,-2.77917401305956,-1.4743908451663423,2.7432333849120774,0,0,0,0,0,0,1536,1536,1536,1536,1536,1536
1747546618.687679,-0.47000000000000003,0.04,0.06,0.0,-0.004363323129985824,0.001090830782496456,-2.77917401305956,-1.4743908451663423,2.7432333849120774,0,0,0,0,0,0,1536,1536,1536,1536,1536,1536
1747546618.788117,-0.47000000000000003,0.04,0.06,0.0,-0.004363323129985824,0.001090830782496456,-2.77917401305956,-1.4743908451663423,2.7432333849120774,0,0,0,0,0,0,1536,1536,1536,1536,1536,1536
1747546618.8719268,-0.38,-0.03,0.01,0.002181661564992912,-0.001090830782496456,0.0,-2.77917401305956,-1.4743908451663423,2.7432333849120774,0,0,0,0,0,0,1536,1536,1536,1536,1536,1536
1747546618.9714198,-0.38,-0.03,0.01,0.002181661564992912,-0.001090830782496456,0.0,-2.77917401305956,-1.4743908451663423,2.7432333849120774,0,0,0,0,0,0,1536,1536,1536,1536,1536,1536
