time,ay,ax,az,gy,gx,gz,roll,pitch,yaw,cmd_fx,cmd_fy,cmd_fz,cmd_tx,cmd_ty,cmd_tz,pwm_1,pwm_2,pwm_3,pwm_4,pwm_5,pwm_6
1747536083.1200233,0.0,0.0,0.0,0.0,0.0,0.0,0.0,0.0,0.0,0,0,0,0,0,0,1500,1500,1500,1500,1500,1500
1747536083.2165706,0.03,0.02,-0.32,-0.001090830782496456,0.002181661564992912,-0.001090830782496456,-0.008326789529115973,0.09109590527602149,-0.00037952669144112645,0,0,0,0,0,0,1500,1500,1500,1500,1500,1500
1747536083.3174443,0.03,0.02,-0.32,-0.001090830782496456,0.002181661564992912,-0.001090830782496456,-0.008326789529115973,0.09109590527602149,-0.00037952669144112645,0,0,0,0,0,0,1500,1500,1500,1500,1500,1500
1747536083.4001148,0.02,0.02,-0.37,0.0,0.001090830782496456,-0.001090830782496456,-0.008326789529115973,0.09109590527602149,-0.00037952669144112645,0,0,0,0,0,0,1500,1500,1500,1500,1500,1500
1747536083.4999287,0.02,0.02,-0.37,0.0,0.001090830782496456,-0.001090830782496456,-0.008326789529115973,0.09109590527602149,-0.00037952669144112645,0,0,0,0,0,0,1500,1500,1500,1500,1500,1500
1747536083.6011627,0.01,0.0,-0.36,-0.003272492347489368,0.0,-0.002181661564992912,-0.008326789529115973,0.09109590527602149,-0.00037952669144112645,0,0,0,0,0,0,1500,1500,1500,1500,1500,1500
1747536083.6996891,0.0,0.0,-0.31,-0.003272492347489368,-0.004363323129985824,-0.001090830782496456,-0.008326789529115973,0.09109590527602149,-0.00037952669144112645,0,0,0,0,0,0,1500,1500,1500,1500,1500,1500
1747536083.8003063,0.0,0.0,-0.31,-0.003272492347489368,-0.004363323129985824,-0.001090830782496456,-0.008326789529115973,0.09109590527602149,-0.00037952669144112645,0,0,0,0,0,0,1500,1500,1500,1500,1500,1500
1747536083.883438,0.02,0.0,-0.27,0.001090830782496456,-0.001090830782496456,0.001090830782496456,-0.008326789529115973,0.09109590527602149,-0.00037952669144112645,0,0,0,0,0,0,1500,1500,1500,1500,1500,1500
1747536083.9797866,0.02,-0.01,-0.34,0.002181661564992912,-0.001090830782496456,0.0,-0.008326789529115973,0.09109590527602149,-0.00037952669144112645,0,0,0,0,0,0,1500,1500,1500,1500,1500,1500
1747536084.0843902,0.02,-0.01,-0.34,0.002181661564992912,-0.001090830782496456,0.0,-0.008326789529115973,0.09109590527602149,-0.00037952669144112645,0,0,0,0,0,0,1500,1500,1500,1500,1500,1500
1747536084.166954,0.02,-0.01,-0.32,-0.001090830782496456,-0.003272492347489368,0.0,-0.008326789529115973,0.09109590527602149,-0.00037952669144112645,0,0,0,0,0,0,1500,1500,1500,1500,1500,1500
1747536084.266406,0.02,-0.01,-0.32,-0.001090830782496456,-0.003272492347489368,0.0,-0.008326789529115973,0.09109590527602149,-0.00037952669144112645,0,0,0,0,0,0,1500,1500,1500,1500,1500,1500
1747536084.3671944,0.02,0.0,-0.35000000000000003,-0.001090830782496456,0.004363323129985824,-0.001090830782496456,-0.008326789529115973,0.09109590527602149,-0.00037952669144112645,0,0,0,0,0,0,1500,1500,1500,1500,1500,1500
1747536084.4665523,0.02,-0.02,-0.38,0.0,0.001090830782496456,-0.002181661564992912,-0.008326789529115973,0.09109590527602149,-0.00037952669144112645,0,0,0,0,0,0,1500,1500,1500,1500,1500,1500
1747536084.5670595,0.02,-0.02,-0.38,0.0,0.001090830782496456,-0.002181661564992912,-0.008326789529115973,0.09109590527602149,-0.00037952669144112645,0,0,0,0,0,0,1500,1500,1500,1500,1500,1500
1747536084.6506624,0.02,0.0,-0.33,-0.003272492347489368,-0.003272492347489368,0.003272492347489368,-0.008326789529115973,0.09109590527602149,-0.00037952669144112645,0,0,0,0,0,0,1500,1500,1500,1500,1500,1500
1747536084.749886,0.02,0.0,-0.33,-0.003272492347489368,-0.003272492347489368,0.003272492347489368,-0.008326789529115973,0.09109590527602149,-0.00037952669144112645,0,0,0,0,0,0,1500,1500,1500,1500,1500,1500
1747536084.8506103,0.03,0.0,-0.33,-0.001090830782496456,0.0,0.0,-0.008326789529115973,0.09109590527602149,-0.00037952669144112645,0,0,0,0,0,0,1500,1500,1500,1500,1500,1500
1747536084.9315593,0.03,0.0,-0.35000000000000003,-0.001090830782496456,-0.001090830782496456,0.0,-0.008326789529115973,0.09109590527602149,-0.00037952669144112645,0,0,0,0,0,0,1500,1500,1500,1500,1500,1500
1747536085.0333893,0.03,0.0,-0.35000000000000003,-0.001090830782496456,-0.001090830782496456,0.0,-0.008326789529115973,0.09109590527602149,-0.00037952669144112645,0,0,0,0,0,0,1500,1500,1500,1500,1500,1500
1747536085.133162,0.01,0.0,-0.36,0.001090830782496456,-0.001090830782496456,-0.002181661564992912,-0.008326789529115973,0.09109590527602149,-0.00037952669144112645,0,0,0,0,0,0,1500,1500,1500,1500,1500,1500
1747536085.233528,0.01,0.0,-0.36,0.001090830782496456,-0.001090830782496456,-0.002181661564992912,-0.008326789529115973,0.09109590527602149,-0.00037952669144112645,0,0,0,0,0,0,1500,1500,1500,1500,1500,1500
1747536085.3336356,0.03,0.01,-0.31,0.001090830782496456,-0.001090830782496456,0.001090830782496456,-0.008326789529115973,0.09109590527602149,-0.00037952669144112645,0,0,0,0,0,0,1500,1500,1500,1500,1500,1500
1747536085.4170806,0.11,-0.11,-0.28,0.013089969389957472,-0.003272492347489368,0.008726646259971648,-0.007965004378580203,0.09109541897189982,-0.0004852342308177766,0,0,0,0,0,0,1500,1500,1500,1500,1500,1500
1747536085.517615,0.11,-0.11,-0.28,0.013089969389957472,-0.003272492347489368,0.008726646259971648,-0.007965004378580203,0.09109541897189982,-0.0004852342308177766,0,0,0,0,0,0,1500,1500,1500,1500,1500,1500
1747536085.6170661,-0.03,0.41000000000000003,-0.41000000000000003,-0.001090830782496456,-0.002181661564992912,0.003272492347489368,0.007970375997644072,-0.09128615658860087,-0.0002400771259172203,0,0,0,0,0,0,1500,1500,1500,1500,1500,1500
1747536085.7167678,-0.03,0.41000000000000003,-0.41000000000000003,-0.001090830782496456,-0.002181661564992912,0.003272492347489368,0.007970375997644072,-0.09128615658860087,-0.0002400771259172203,0,0,0,0,0,0,1500,1500,1500,1500,1500,1500
1747536085.8168535,0.04,0.02,-0.32,-0.004363323129985824,0.001090830782496456,0.0,-0.007842549207524706,0.09109542645350154,-0.00047965295693297525,0,0,0,0,0,0,1500,1500,1500,1500,1500,1500
1747536085.9002383,0.02,-0.09,-0.29,-0.002181661564992912,0.0,0.001090830782496456,-0.007842549207524706,0.09109542645350154,-0.00047965295693297525,0,0,0,0,0,0,1500,1500,1500,1500,1500,1500
1747536086.0005393,0.02,-0.09,-0.29,-0.002181661564992912,0.0,0.001090830782496456,-0.007842549207524706,0.09109542645350154,-0.00047965295693297525,0,0,0,0,0,0,1500,1500,1500,1500,1500,1500
1747536086.0997612,0.02,-0.08,-0.34,-0.002181661564992912,-0.004363323129985824,0.0,-0.007842549207524706,0.09109542645350154,-0.00047965295693297525,0,0,0,0,0,0,1500,1500,1500,1500,1500,1500
1747536086.1837595,0.02,-0.08,-0.34,-0.002181661564992912,-0.004363323129985824,0.0,-0.007842549207524706,0.09109542645350154,-0.00047965295693297525,0,0,0,0,0,0,1500,1500,1500,1500,1500,1500
1747536086.2834437,0.01,0.0,-0.37,0.001090830782496456,0.0,0.002181661564992912,-0.007842549207524706,0.09109542645350154,-0.00047965295693297525,0,0,0,0,0,0,1500,1500,1500,1500,1500,1500
1747536086.3835194,0.01,0.0,-0.35000000000000003,0.002181661564992912,-0.001090830782496456,0.0,-0.007842549207524706,0.09109542645350154,-0.00047965295693297525,0,0,0,0,0,0,1500,1500,1500,1500,1500,1500
1747536086.4834652,0.01,0.0,-0.35000000000000003,0.002181661564992912,-0.001090830782496456,0.0,-0.007842549207524706,0.09109542645350154,-0.00047965295693297525,0,0,0,0,0,0,1500,1500,1500,1500,1500,1500
1747536086.583544,0.03,0.0,-0.33,-0.001090830782496456,0.002181661564992912,-0.001090830782496456,-0.007842549207524706,0.09109542645350154,-0.00047965295693297525,0,0,0,0,0,0,1500,1500,1500,1500,1500,1500
1747536086.6664333,0.03,0.0,-0.33,-0.001090830782496456,0.002181661564992912,-0.001090830782496456,-0.007842549207524706,0.09109542645350154,-0.00047965295693297525,0,0,0,0,0,0,1500,1500,1500,1500,1500,1500
1747536086.7671046,0.01,0.0,-0.37,-0.004363323129985824,-0.002181661564992912,0.001090830782496456,-0.007842549207524706,0.09109542645350154,-0.00047965295693297525,0,0,0,0,0,0,1500,1500,1500,1500,1500,1500
1747536086.8664062,0.03,0.0,-0.32,0.0,-0.002181661564992912,-0.002181661564992912,-0.007842549207524706,0.09109542645350154,-0.00047965295693297525,0,0,0,0,0,0,1500,1500,1500,1500,1500,1500
1747536086.9499967,0.03,0.0,-0.32,0.0,-0.002181661564992912,-0.002181661564992912,-0.007842549207524706,0.09109542645350154,-0.00047965295693297525,0,0,0,0,0,0,1500,1500,1500,1500,1500,1500
1747536087.0505729,0.01,-0.02,-0.34,-0.001090830782496456,-0.003272492347489368,0.0,-0.007842549207524706,0.09109542645350154,-0.00047965295693297525,0,0,0,0,0,0,1500,1500,1500,1500,1500,1500
1747536087.148573,0.03,-0.02,-0.32,0.003272492347489368,0.0,-0.001090830782496456,-0.007842549207524706,0.09109542645350154,-0.00047965295693297525,0,0,0,0,0,0,1500,1500,1500,1500,1500,1500
1747536087.2496696,0.03,-0.02,-0.32,0.003272492347489368,0.0,-0.001090830782496456,-0.007842549207524706,0.09109542645350154,-0.00047965295693297525,0,0,0,0,0,0,1500,1500,1500,1500,1500,1500
1747536087.350165,0.02,-0.01,-0.34,0.001090830782496456,0.0,0.0,-0.007842549207524706,0.09109542645350154,-0.00047965295693297525,0,0,0,0,0,0,1500,1500,1500,1500,1500,1500
1747536087.4332147,0.02,-0.01,-0.34,0.001090830782496456,0.0,0.0,-0.007842549207524706,0.09109542645350154,-0.00047965295693297525,0,0,0,0,0,0,1500,1500,1500,1500,1500,1500
1747536087.5334249,0.0,0.01,-0.35000000000000003,-0.003272492347489368,0.003272492347489368,0.003272492347489368,-0.007842549207524706,0.09109542645350154,-0.00047965295693297525,0,0,0,0,0,0,1500,1500,1500,1500,1500,1500
1747536087.6241708,0.04,-0.01,-0.35000000000000003,-0.002181661564992912,0.003272492347489368,0.0,-0.007842549207524706,0.09109542645350154,-0.00047965295693297525,0,0,0,0,0,0,1500,1500,1500,1500,1500,1500
1747536087.7170856,0.04,-0.01,-0.35000000000000003,-0.002181661564992912,0.003272492347489368,0.0,-0.007842549207524706,0.09109542645350154,-0.00047965295693297525,0,0,0,0,0,0,1500,1500,1500,1500,1500,1500
1747536087.8172731,0.02,-0.02,-0.3,0.001090830782496456,0.0,-0.001090830782496456,-0.007842549207524706,0.09109542645350154,-0.00047965295693297525,0,0,0,0,0,0,1500,1500,1500,1500,1500,1500
1747536087.9312248,0.02,-0.02,-0.3,0.001090830782496456,0.0,-0.001090830782496456,-0.007842549207524706,0.09109542645350154,-0.00047965295693297525,0,0,0,0,0,0,1500,1500,1500,1500,1500,1500
1747536088.032098,0.04,0.0,-0.31,0.003272492347489368,0.0,-0.001090830782496456,-0.007842549207524706,0.09109542645350154,-0.00047965295693297525,0,0,0,0,0,0,1500,1500,1500,1500,1500,1500
1747536088.1332343,0.03,-0.01,-0.35000000000000003,0.001090830782496456,-0.001090830782496456,-0.001090830782496456,-0.007842549207524706,0.09109542645350154,-0.00047965295693297525,0,0,0,0,0,0,1500,1500,1500,1500,1500,1500
1747536088.2319217,0.03,-0.01,-0.35000000000000003,0.001090830782496456,-0.001090830782496456,-0.001090830782496456,-0.007842549207524706,0.09109542645350154,-0.00047965295693297525,0,0,0,0,0,0,1500,1500,1500,1500,1500,1500
1747536088.3334975,0.01,-0.03,-0.3,0.0,0.003272492347489368,0.0,-0.007842549207524706,0.09109542645350154,-0.00047965295693297525,0,0,0,0,0,0,1500,1500,1500,1500,1500,1500
1747536088.417298,0.01,-0.03,-0.3,0.0,0.003272492347489368,0.0,-0.007842549207524706,0.09109542645350154,-0.00047965295693297525,0,0,0,0,0,0,1500,1500,1500,1500,1500,1500
1747536088.5166402,0.01,0.0,-0.29,0.002181661564992912,0.001090830782496456,-0.003272492347489368,-0.007842549207524706,0.09109542645350154,-0.00047965295693297525,0,0,0,0,0,0,1500,1500,1500,1500,1500,1500
1747536088.616852,0.0,0.0,-0.35000000000000003,0.0,-0.003272492347489368,0.001090830782496456,-0.007842549207524706,0.09109542645350154,-0.00047965295693297525,0,0,0,0,0,0,1500,1500,1500,1500,1500,1500
1747536088.7168634,0.0,0.0,-0.35000000000000003,0.0,-0.003272492347489368,0.001090830782496456,-0.007842549207524706,0.09109542645350154,-0.00047965295693297525,0,0,0,0,0,0,1500,1500,1500,1500,1500,1500
1747536088.81628,0.02,-0.03,-0.29,0.0,-0.002181661564992912,-0.001090830782496456,-0.007842549207524706,0.09109542645350154,-0.00047965295693297525,0,0,0,0,0,0,1500,1500,1500,1500,1500,1500
1747536088.8999577,0.05,0.03,-0.29,0.0,-0.001090830782496456,-0.001090830782496456,-0.007842549207524706,0.09109542645350154,-0.00047965295693297525,0,0,0,0,0,0,1500,1500,1500,1500,1500,1500
1747536089.000358,0.05,0.03,-0.29,0.0,-0.001090830782496456,-0.001090830782496456,-0.007842549207524706,0.09109542645350154,-0.00047965295693297525,0,0,0,0,0,0,1500,1500,1500,1500,1500,1500
1747536089.1002624,0.02,0.16,-0.38,0.0,0.001090830782496456,0.002181661564992912,-0.007842549207524706,0.09109542645350154,-0.00047965295693297525,0,0,0,0,0,0,1500,1500,1500,1500,1500,1500
1747536089.183734,0.02,0.16,-0.38,0.0,0.001090830782496456,0.002181661564992912,-0.007842549207524706,0.09109542645350154,-0.00047965295693297525,0,0,0,0,0,0,1500,1500,1500,1500,1500,1500
1747536089.2839606,-0.06,0.17,-0.36,-0.020725784867432664,-0.004363323129985824,0.009817477042468103,-0.008449245190906382,0.09109590527602149,-0.0003851079657674271,0,0,0,0,0,0,1500,1500,1500,1500,1500,1500
1747536089.3710945,-0.06,-0.15,-0.26,0.002181661564992912,-0.00545415391248228,0.001090830782496456,-0.007107820567743255,0.0910954713431119,-0.0004461653130087951,0,0,0,0,0,0,1500,1500,1500,1500,1500,1500
1747536089.4663637,-0.06,-0.15,-0.26,0.002181661564992912,-0.00545415391248228,0.001090830782496456,-0.007107820567743255,0.0910954713431119,-0.0004461653130087951,0,0,0,0,0,0,1500,1500,1500,1500,1500,1500
1747536089.570719,0.73,0.26,-0.24,1.53588974175501,-0.38942658935123475,-0.13526301702956053,0.07766600966651538,0.07189012395030618,-0.0011173740574272745,0,0,0,0,0,0,1500,1500,1500,1500,1500,1500
1747536089.6673348,0.73,0.26,-0.24,1.53588974175501,-0.38942658935123475,-0.13526301702956053,0.07766600966651538,0.07189012395030618,-0.0011173740574272745,0,0,0,0,0,0,1500,1500,1500,1500,1500,1500
1747536089.7669528,-0.08,1.79,0.45,-0.09926560120717749,-0.9152070265145266,-0.5737769915931359,0.2520701809528995,-0.020610279141611718,-0.08027759053557953,0,0,0,0,0,0,1500,1500,1500,1500,1500,1500
1747536089.8666816,0.03,-0.21,1.76,-0.5639595145506677,-0.7723081940074908,-0.6610434541928523,0.16072200433190958,-0.13711861924431257,-0.19976870613440326,0,0,0,0,0,0,1500,1500,1500,1500,1500,1500
1747536089.9672642,0.03,-0.21,1.76,-0.5639595145506677,-0.7723081940074908,-0.6610434541928523,0.16072200433190958,-0.13711861924431257,-0.19976870613440326,0,0,0,0,0,0,1500,1500,1500,1500,1500,1500
1747536090.066248,-0.59,-0.48,0.79,-0.35779249665883756,0.0916297857297023,-0.5279620987282847,0.12142509566724549,-0.16941964031836435,-0.2968992219434587,0,0,0,0,0,0,1500,1500,1500,1500,1500,1500
1747536090.1498876,-0.59,-0.48,0.79,-0.35779249665883756,0.0916297857297023,-0.5279620987282847,0.12142509566724549,-0.16941964031836435,-0.2968992219434587,0,0,0,0,0,0,1500,1500,1500,1500,1500,1500
1747536090.2501442,-0.17,1.6,0.35000000000000003,-0.519235452468313,0.12980886311707826,0.5214171140333059,0.06006857176728882,-0.14898297302799413,-0.27807044184848434,0,0,0,0,0,0,1500,1500,1500,1500,1500,1500
1747536090.3495975,-0.21,0.77,-1.51,-0.6468626540203984,0.6272276999354622,0.11235557059713497,-0.04708000583737797,-0.093399450642592,-0.2400584467337786,0,0,0,0,0,0,1500,1500,1500,1500,1500,1500
1747536090.433339,-0.21,0.77,-1.51,-0.6468626540203984,0.6272276999354622,0.11235557059713497,-0.04708000583737797,-0.093399450642592,-0.2400584467337786,0,0,0,0,0,0,1500,1500,1500,1500,1500,1500
1747536090.5333736,0.12,-1.0,-2.64,0.8726646259971648,1.299179461953279,-0.433059820651093,-0.02232021605950083,0.056166537038148175,-0.262474491531275,0,0,0,0,0,0,1500,1500,1500,1500,1500,1500
1747536090.6280227,-0.17,-0.84,-3.22,0.543233729683235,-0.007635815477475192,-0.5486878835957173,0.1131623037112858,0.1873089526216783,-0.35638796161367153,0,0,0,0,0,0,1500,1500,1500,1500,1500,1500
1747536090.7163036,-0.17,-0.84,-3.22,0.543233729683235,-0.007635815477475192,-0.5486878835957173,0.1131623037112858,0.1873089526216783,-0.35638796161367153,0,0,0,0,0,0,1500,1500,1500,1500,1500,1500
1747536090.815897,-0.2,-0.1,-2.5,-0.9457502884244273,-0.9075712110370514,-0.7199483164476609,0.04393348795096511,0.11224727633460825,-0.4518261140140753,0,0,0,0,0,0,1500,1500,1500,1500,1500,1500
1747536090.9017098,-0.2,-0.1,-2.5,-0.9457502884244273,-0.9075712110370514,-0.7199483164476609,0.04393348795096511,0.11224727633460825,-0.4518261140140753,0,0,0,0,0,0,1500,1500,1500,1500,1500,1500
1747536091.000662,0.19,1.52,-1.32,-1.2849986617808251,-0.6403176693254197,-0.9293878266869805,-0.15788565141573596,-0.023929227152657856,-0.567373568766022,0,0,0,0,0,0,1500,1500,1500,1500,1500,1500
1747536091.090408,1.07,0.43,0.16,0.9981101659842572,0.1832595714594046,-1.2686362000433782,-0.180828226357482,-0.08615460917368765,-0.7089229307836936,0,0,0,0,0,0,1500,1500,1500,1500,1500,1500
1747536091.1842666,1.07,0.43,0.16,0.9981101659842572,0.1832595714594046,-1.2686362000433782,-0.180828226357482,-0.08615460917368765,-0.7089229307836936,0,0,0,0,0,0,1500,1500,1500,1500,1500,1500
1747536091.2832694,0.8200000000000001,0.5700000000000001,-0.23,0.9348419805994628,-0.001090830782496456,-1.1682797680537043,0.04603300195781944,-0.0678688921668287,-0.9138468401081283,0,0,0,0,0,0,1500,1500,1500,1500,1500,1500
1747536091.3840837,0.8200000000000001,0.5700000000000001,-0.23,0.9348419805994628,-0.001090830782496456,-1.1682797680537043,0.04603300195781944,-0.0678688921668287,-0.9138468401081283,0,0,0,0,0,0,1500,1500,1500,1500,1500,1500
1747536091.4842172,0.58,0.43,-0.23,-0.26725354171163174,-0.8912087492996045,-0.4461497900410505,0.07919163533220744,-0.12076132286655587,-1.0398942461293004,0,0,0,0,0,0,1500,1500,1500,1500,1500,1500
1747536091.5822718,1.16,0.64,0.65,-0.3534291735288517,-0.8890270877346116,-0.05672320068981571,0.035460105843575035,-0.2783630935529783,-1.0954810895496394,0,0,0,0,0,0,1500,1500,1500,1500,1500,1500
1747536091.583274,1.16,0.64,0.65,-0.3534291735288517,-0.8890270877346116,-0.05672320068981571,0.035460105843575035,-0.2783630935529783,-1.0954810895496394,0,0,0,0,0,0,1500,1500,1500,1500,1500,1500
1747536091.6665354,-0.02,-2.12,0.52,0.19525871006686563,-0.3327033886614191,0.2825251726665821,0.021197762590232105,-0.3284784423737216,-1.0890339042144301,0,0,0,0,0,0,1500,1500,1500,1500,1500,1500
1747536091.6675386,-0.02,-2.12,0.52,0.19525871006686563,-0.3327033886614191,0.2825251726665821,0.021197762590232105,-0.3284784423737216,-1.0890339042144301,0,0,0,0,0,0,1500,1500,1500,1500,1500,1500
1747536091.7671173,-0.13,-2.13,0.17,1.1355548445788106,0.1930770485018727,0.4374231437810788,0.06894348503736296,-0.3335055152923285,-1.0565573307695495,0,0,0,0,0,0,1500,1500,1500,1500,1500,1500
1747536091.7671173,-0.13,-2.13,0.17,1.1355548445788106,0.1930770485018727,0.4374231437810788,0.06894348503736296,-0.3335055152923285,-1.0565573307695495,0,0,0,0,0,0,1500,1500,1500,1500,1500,1500
1747536091.86635,0.25,0.96,0.45,0.2781618495365963,0.5465062220307244,0.5465062220307244,0.10995530714203634,-0.3023075652134219,-1.0124083382373072,0,0,0,0,0,0,1500,1500,1500,1500,1500,1500
1747536091.867359,0.25,0.96,0.45,0.2781618495365963,0.5465062220307244,0.5465062220307244,0.10995530714203634,-0.3023075652134219,-1.0124083382373072,0,0,0,0,0,0,1500,1500,1500,1500,1500,1500
1747536091.9668672,-1.18,-0.31,-0.91,-0.08726646259971647,0.04799655442984406,0.27052603405912107,0.10282426730114341,-0.27153373701534583,-0.9500069332713886,0,0,0,0,0,0,1500,1500,1500,1500,1500,1500
1747536091.967882,-1.18,-0.31,-0.91,-0.08726646259971647,0.04799655442984406,0.27052603405912107,0.10282426730114341,-0.27153373701534583,-0.9500069332713886,0,0,0,0,0,0,1500,1500,1500,1500,1500,1500
1747536092.0664499,-0.65,0.17,-0.09,0.08072147790473774,-0.19198621771937624,0.27598018797160334,0.09447180518612214,-0.27898961411872536,-0.9269225129453801,0,0,0,0,0,0,1500,1500,1500,1500,1500,1500
1747536092.0679178,-0.65,0.17,-0.09,0.08072147790473774,-0.19198621771937624,0.27598018797160334,0.09447180518612214,-0.27898961411872536,-0.9269225129453801,0,0,0,0,0,0,1500,1500,1500,1500,1500,1500
1747536092.150383,-0.7000000000000001,-0.35000000000000003,-0.5700000000000001,0.039269908169872414,-0.20289452554434081,0.007635815477475192,0.09851242619875669,-0.2975205782639569,-0.9169108087331064,0,0,0,0,0,0,1500,1500,1500,1500,1500,1500
1747536092.1513946,-0.7000000000000001,-0.35000000000000003,-0.5700000000000001,0.039269908169872414,-0.20289452554434081,0.007635815477475192,0.09851242619875669,-0.2975205782639569,-0.9169108087331064,0,0,0,0,0,0,1500,1500,1500,1500,1500,1500
1747536092.2496014,-0.85,-0.47000000000000003,-0.32,0.11780972450961724,-0.10035643198967395,0.02181661564992912,0.10166048778448805,-0.3046328243212041,-0.9193258495764647,0,0,0,0,0,0,1500,1500,1500,1500,1500,1500
1747536092.2506185,-0.85,-0.47000000000000003,-0.32,0.11780972450961724,-0.10035643198967395,0.02181661564992912,0.10166048778448805,-0.3046328243212041,-0.9193258495764647,0,0,0,0,0,0,1500,1500,1500,1500,1500,1500
1747536092.3475575,0.67,0.46,-0.44,0.3327033886614191,0.08508480103472356,-0.12980886311707826,0.12989921381770175,-0.290548433145393,-0.9170045728737984,0,0,0,0,0,0,1500,1500,1500,1500,1500,1500
1747536092.3485599,0.67,0.46,-0.44,0.3327033886614191,0.08508480103472356,-0.12980886311707826,0.12989921381770175,-0.290548433145393,-0.9170045728737984,0,0,0,0,0,0,1500,1500,1500,1500,1500,1500
1747536092.4324841,-0.9,-0.37,-0.24,-0.003272492347489368,-0.07526732399225546,-0.1636246173744684,0.14885985676315122,-0.28822588595586013,-0.9334101305100717,0,0,0,0,0,0,1500,1500,1500,1500,1500,1500
1747536092.4339871,-0.9,-0.37,-0.24,-0.003272492347489368,-0.07526732399225546,-0.1636246173744684,0.14885985676315122,-0.28822588595586013,-0.9334101305100717,0,0,0,0,0,0,1500,1500,1500,1500,1500,1500
1747536092.5342827,1.08,0.46,0.34,-0.05235987755982989,-0.06435901616729091,-0.1832595714594046,0.15034299278140262,-0.2944501375824023,-0.9420475249891954,0,0,0,0,0,0,1500,1500,1500,1500,1500,1500
1747536092.5342827,1.08,0.46,0.34,-0.05235987755982989,-0.06435901616729091,-0.1832595714594046,0.15034299278140262,-0.2944501375824023,-0.9420475249891954,0,0,0,0,0,0,1500,1500,1500,1500,1500,1500
1747536092.6342602,1.05,0.1,-0.78,0.16689710972195776,0.015271630954950384,-0.11017390903214205,0.16201354766581338,-0.2935461281466031,-0.959590703337312,0,0,0,0,0,0,1500,1500,1500,1500,1500,1500
1747536092.6342602,1.05,0.1,-0.78,0.16689710972195776,0.015271630954950384,-0.11017390903214205,0.16201354766581338,-0.2935461281466031,-0.959590703337312,0,0,0,0,0,0,1500,1500,1500,1500,1500,1500
1747536092.7338066,0.0,-0.44,0.13,0.13853550937704992,0.018544123302439753,0.3076142806640006,0.16910089894974964,-0.29294848480958063,-0.9511473729077347,0,0,0,0,0,0,1500,1500,1500,1500,1500,1500
1747536092.7343094,0.0,-0.44,0.13,0.13853550937704992,0.018544123302439753,0.3076142806640006,0.16910089894974964,-0.29294848480958063,-0.9511473729077347,0,0,0,0,0,0,1500,1500,1500,1500,1500,1500
1747536092.824646,-0.22,1.48,-0.64,0.08617563181722002,0.7690357016600015,0.753764070705051,0.15826323162695166,-0.2347522342144284,-0.8404680796920041,0,0,0,0,0,0,1500,1500,1500,1500,1500,1500
1747536092.8256507,-0.22,1.48,-0.64,0.08617563181722002,0.7690357016600015,0.753764070705051,0.15826323162695166,-0.2347522342144284,-0.8404680796920041,0,0,0,0,0,0,1500,1500,1500,1500,1500,1500
1747536092.9172652,-0.23,0.91,-0.97,0.04254240051736178,0.7810348402674625,0.5290529295107811,0.15073244621846127,-0.18233357690435864,-0.7808387573179062,0,0,0,0,0,0,1500,1500,1500,1500,1500,1500
1747536092.9172652,-0.23,0.91,-0.97,0.04254240051736178,0.7810348402674625,0.5290529295107811,0.15073244621846127,-0.18233357690435864,-0.7808387573179062,0,0,0,0,0,0,1500,1500,1500,1500,1500,1500
1747536093.0178149,-1.28,0.68,-0.32,-0.22907446432425577,0.09708393964218458,0.37960911230876665,0.13567989603683195,-0.15433905030179937,-0.742132578759082,0,0,0,0,0,0,1500,1500,1500,1500,1500,1500
1747536093.018825,-1.28,0.68,-0.32,-0.22907446432425577,0.09708393964218458,0.37960911230876665,0.13567989603683195,-0.15433905030179937,-0.742132578759082,0,0,0,0,0,0,1500,1500,1500,1500,1500,1500
1747536093.116526,-0.02,0.75,0.5700000000000001,-0.5050546522958591,-0.29561514205653955,0.11235557059713497,0.09920328809397874,-0.17198631389800215,-0.7241964046332138,0,0,0,0,0,0,1500,1500,1500,1500,1500,1500
1747536093.1175292,-0.02,0.75,0.5700000000000001,-0.5050546522958591,-0.29561514205653955,0.11235557059713497,0.09920328809397874,-0.17198631389800215,-0.7241964046332138,0,0,0,0,0,0,1500,1500,1500,1500,1500,1500
1747536093.2164013,-0.37,-0.8300000000000001,0.42,-0.3436116964863836,0.272707695624114,-0.055632369907319255,0.07030797632374955,-0.1752120174509394,-0.7280028915788977,0,0,0,0,0,0,1500,1500,1500,1500,1500,1500
1747536093.2174067,-0.37,-0.8300000000000001,0.42,-0.3436116964863836,0.272707695624114,-0.055632369907319255,0.07030797632374955,-0.1752120174509394,-0.7280028915788977,0,0,0,0,0,0,1500,1500,1500,1500,1500,1500
1747536093.3171153,0.28,0.31,-0.22,-0.878118779909647,1.141008998491293,0.3861540970037454,-0.02861706063388886,-0.04736124112437844,-0.70582739274345,0,0,0,0,0,0,1500,1500,1500,1500,1500,1500
1747536093.3181188,0.28,0.31,-0.22,-0.878118779909647,1.141008998491293,0.3861540970037454,-0.02861706063388886,-0.04736124112437844,-0.70582739274345,0,0,0,0,0,0,1500,1500,1500,1500,1500,1500
1747536093.4005353,0.73,0.18,-0.11,-0.6381360077604268,1.1988230299636051,0.6250460383704692,-0.09757272652164704,0.06136574137589951,-0.6677518890282661,0,0,0,0,0,0,1500,1500,1500,1500,1500,1500
1747536093.4015608,0.73,0.18,-0.11,-0.6381360077604268,1.1988230299636051,0.6250460383704692,-0.09757272652164704,0.06136574137589951,-0.6677518890282661,0,0,0,0,0,0,1500,1500,1500,1500,1500,1500
1747536093.5005615,-0.1,0.46,-1.11,-0.3076142806640006,0.928296995904484,0.49960049838337683,-0.11808246816911516,0.12586446171218146,-0.643602665762789,0,0,0,0,0,0,1500,1500,1500,1500,1500,1500
1747536093.5016627,-0.1,0.46,-1.11,-0.3076142806640006,0.928296995904484,0.49960049838337683,-0.11808246816911516,0.12586446171218146,-0.643602665762789,0,0,0,0,0,0,1500,1500,1500,1500,1500,1500
1747536093.6003878,0.0,-0.47000000000000003,-2.0,0.3741549583962844,0.4341506514335895,-0.1189005552921137,-0.12815620550382512,0.18333246571623454,-0.6272860434891229,0,0,0,0,0,0,1500,1500,1500,1500,1500,1500
1747536093.6013951,0.0,-0.47000000000000003,-2.0,0.3741549583962844,0.4341506514335895,-0.1189005552921137,-0.12815620550382512,0.18333246571623454,-0.6272860434891229,0,0,0,0,0,0,1500,1500,1500,1500,1500,1500
1747536093.6842847,0.23,1.43,-1.75,0.5235987755982988,0.1189005552921137,-0.30870511144649704,-0.09600541124243549,0.20071709750183647,-0.6452776239625784,0,0,0,0,0,0,1500,1500,1500,1500,1500,1500
1747536093.7002866,-1.97,1.21,-0.56,-0.025089107997418487,0.05345070834232634,-0.04254240051736178,-0.09505051582287713,0.2010018236811379,-0.6661460091519834,0,0,0,0,0,0,1500,1500,1500,1500,1500,1500
1747536093.7836378,1.04,0.32,1.87,-0.19853120241435498,-0.5312345910757741,1.249001245958442,-0.09118145565959536,0.18820239229566912,-0.6174417193078756,0,0,0,0,0,0,1500,1500,1500,1500,1500,1500
1747536093.8004067,1.04,0.32,1.87,-0.19853120241435498,-0.5312345910757741,1.249001245958442,-0.09118145565959536,0.18820239229566912,-0.6174417193078756,0,0,0,0,0,0,1500,1500,1500,1500,1500,1500
1747536093.8831387,1.29,0.35000000000000003,2.7800000000000002,-0.38942658935123475,-0.7406741013150936,1.3929909092479742,-0.10666772386961877,0.14272699698594737,-0.4932883551003762,0,0,0,0,0,0,1500,1500,1500,1500,1500,1500
1747536093.884183,1.29,0.35000000000000003,2.7800000000000002,-0.38942658935123475,-0.7406741013150936,1.3929909092479742,-0.10666772386961877,0.14272699698594737,-0.4932883551003762,0,0,0,0,0,0,1500,1500,1500,1500,1500,1500
1747536093.983387,-1.12,-0.44,-0.48,-0.0719948316447661,-0.5366887449882564,1.3929909092479742,-0.11315878729206995,0.10771230962819539,-0.3842546087268284,0,0,0,0,0,0,1500,1500,1500,1500,1500,1500
1747536093.9844046,-1.12,-0.44,-0.48,-0.0719948316447661,-0.5366887449882564,1.3929909092479742,-0.11315878729206995,0.10771230962819539,-0.3842546087268284,0,0,0,0,0,0,1500,1500,1500,1500,1500,1500
1747536094.0813913,-0.85,-0.16,-0.88,0.1265363707695889,-0.055632369907319255,2.3736477827122884,-0.033421985040334876,0.07057630938409577,-2.2000379541578834,0,0,0,0,0,0,1500,1500,1500,1500,1500,1500
1747536094.083395,-0.85,-0.16,-0.88,0.1265363707695889,-0.055632369907319255,2.3736477827122884,-0.033421985040334876,0.07057630938409577,-2.2000379541578834,0,0,0,0,0,0,1500,1500,1500,1500,1500,1500
1747536094.16631,-0.52,0.25,-1.34,-0.8093964406123704,0.12980886311707826,2.5230915999143027,-0.0506464710304304,0.08085343131508364,-2.0027114621290947,0,0,0,0,0,0,1500,1500,1500,1500,1500,1500
1747536094.1673148,-0.52,0.25,-1.34,-0.8093964406123704,0.12980886311707826,2.5230915999143027,-0.0506464710304304,0.08085343131508364,-2.0027114621290947,0,0,0,0,0,0,1500,1500,1500,1500,1500,1500
1747536094.2666786,0.19,-1.09,-1.01,-1.2162763224835484,-0.3937899124812206,1.6329736813971947,-0.11094807364352248,0.0837520875812168,-1.8593303835415145,0,0,0,0,0,0,1500,1500,1500,1500,1500,1500
1747536094.2677493,0.19,-1.09,-1.01,-1.2162763224835484,-0.3937899124812206,1.6329736813971947,-0.11094807364352248,0.0837520875812168,-1.8593303835415145,0,0,0,0,0,0,1500,1500,1500,1500,1500,1500
1747536094.3663187,0.5,-0.88,-0.2,-0.770126532442498,-0.3959715740462135,1.0242901047641721,-0.19411185287615687,0.06469786704946455,-1.7401507654092867,0,0,0,0,0,0,1500,1500,1500,1500,1500,1500
1747536094.3673375,0.5,-0.88,-0.2,-0.770126532442498,-0.3959715740462135,1.0242901047641721,-0.19411185287615687,0.06469786704946455,-1.7401507654092867,0,0,0,0,0,0,1500,1500,1500,1500,1500,1500
1747536094.4497695,0.65,-0.24,-0.07,-0.050178215994836975,-0.3337942194439155,0.4177881896961426,-0.22436934667143554,0.039677039887323136,-1.6920014494041173,0,0,0,0,0,0,1500,1500,1500,1500,1500,1500
1747536094.4666665,0.65,-0.24,-0.07,-0.050178215994836975,-0.3337942194439155,0.4177881896961426,-0.22436934667143554,0.039677039887323136,-1.6920014494041173,0,0,0,0,0,0,1500,1500,1500,1500,1500,1500
1747536094.5465171,-0.05,0.16,-0.2,0.07417649320975901,0.18216874067690814,0.6086835766330224,-0.2092704265827848,0.05081776736969766,-1.632645371996364,0,0,0,0,0,0,1500,1500,1500,1500,1500,1500
1747536094.566691,-0.05,0.16,-0.2,0.07417649320975901,0.18216874067690814,0.6086835766330224,-0.2092704265827848,0.05081776736969766,-1.632645371996364,0,0,0,0,0,0,1500,1500,1500,1500,1500,1500
1747536094.636362,-0.43,0.6,-0.31,-0.03381575425739013,-0.12871803233458182,0.5475970528132209,-0.20565305711103646,0.06814328311151402,-1.5782771198756167,0,0,0,0,0,0,1500,1500,1500,1500,1500,1500
1747536094.650408,-0.43,0.6,-0.31,-0.03381575425739013,-0.12871803233458182,0.5475970528132209,-0.20565305711103646,0.06814328311151402,-1.5782771198756167,0,0,0,0,0,0,1500,1500,1500,1500,1500,1500
1747536094.7332876,0.14,0.01,-0.24,-0.03490658503988659,-0.35124751196385884,0.2977968036215325,-0.2058247529269166,0.05976539498624831,-1.5476923499800028,0,0,0,0,0,0,1500,1500,1500,1500,1500,1500
1747536094.7498078,0.14,0.01,-0.24,-0.03490658503988659,-0.35124751196385884,0.2977968036215325,-0.2058247529269166,0.05976539498624831,-1.5476923499800028,0,0,0,0,0,0,1500,1500,1500,1500,1500,1500
1747536094.8333342,0.09,-0.27,-0.62,0.4286964975211072,-0.2530727415391778,0.2977968036215325,-0.18907303211064294,0.03609420227300803,-1.5185083429909152,0,0,0,0,0,0,1500,1500,1500,1500,1500,1500
1747536094.8508217,0.09,-0.27,-0.62,0.4286964975211072,-0.2530727415391778,0.2977968036215325,-0.18907303211064294,0.03609420227300803,-1.5185083429909152,0,0,0,0,0,0,1500,1500,1500,1500,1500,1500
1747536094.9169288,0.05,-0.3,-0.64,0.7504915783575618,-0.13744467859455345,0.5901394533305827,-0.15017217700555288,0.02944231699684646,-1.4846660444749522,0,0,0,0,0,0,1500,1500,1500,1500,1500,1500
1747536094.933371,0.05,-0.3,-0.64,0.7504915783575618,-0.13744467859455345,0.5901394533305827,-0.15017217700555288,0.02944231699684646,-1.4846660444749522,0,0,0,0,0,0,1500,1500,1500,1500,1500,1500
1747536095.0172403,0.03,-0.15,-0.39,0.6457718232379019,-0.16689710972195776,0.47451139038595835,-0.09214436584827712,0.025047477405053174,-1.4372528000325713,0,0,0,0,0,0,1500,1500,1500,1500,1500,1500
1747536095.0273724,0.45,-0.07,0.03,0.21271200258680892,-0.2792526803190927,0.08290313946973066,-0.060194997138257926,0.006496527294838745,-1.4157294826403335,0,0,0,0,0,0,1500,1500,1500,1500,1500,1500
1747536095.1045885,-0.17,0.13,0.04,-0.016362461737446838,0.017453292519943295,-0.05781403147231216,-0.05569740741737344,-0.0025215697187967305,-1.4159864591418803,0,0,0,0,0,0,1500,1500,1500,1500,1500,1500
1747536095.134344,-0.17,0.13,0.04,-0.016362461737446838,0.017453292519943295,-0.05781403147231216,-0.05569740741737344,-0.0025215697187967305,-1.4159864591418803,0,0,0,0,0,0,1500,1500,1500,1500,1500,1500
1747536095.2014332,-0.26,-0.29,-0.11,-0.06544984694978735,0.21925698728178766,-0.03599741582238305,-0.06303975601950111,0.010109783071001641,-1.418034038300433,0,0,0,0,0,0,1500,1500,1500,1500,1500,1500
1747536095.2333202,-0.26,-0.29,-0.11,-0.06544984694978735,0.21925698728178766,-0.03599741582238305,-0.06303975601950111,0.010109783071001641,-1.418034038300433,0,0,0,0,0,0,1500,1500,1500,1500,1500,1500
1747536095.3001251,-0.16,-0.2,-0.24,0.16144295580947549,0.23889194136672387,-0.0818123086872342,-0.0587779668838339,0.029297489756858478,-1.4228140922030177,0,0,0,0,0,0,1500,1500,1500,1500,1500,1500
1747536095.3336914,-0.16,-0.2,-0.24,0.16144295580947549,0.23889194136672387,-0.0818123086872342,-0.0587779668838339,0.029297489756858478,-1.4228140922030177,0,0,0,0,0,0,1500,1500,1500,1500,1500,1500
1747536095.3842373,0.06,-0.09,-0.49,0.05890486225480862,0.14508049407202864,-0.050178215994836975,-0.0517886083148553,0.04189763283276113,-1.4274169166149766,0,0,0,0,0,0,1500,1500,1500,1500,1500,1500
1747536095.4172146,0.06,-0.09,-0.49,0.05890486225480862,0.14508049407202864,-0.050178215994836975,-0.0517886083148553,0.04189763283276113,-1.4274169166149766,0,0,0,0,0,0,1500,1500,1500,1500,1500,1500
1747536095.4844832,0.09,0.01,-0.59,0.039269908169872414,0.13199052468207118,-0.04690572364734761,-0.047509318651668284,0.053686484061225094,-1.43180704231804,0,0,0,0,0,0,1500,1500,1500,1500,1500,1500
1747536095.516562,0.13,-0.27,-0.38,-0.06654067773228381,0.13526301702956053,0.09272061651219876,-0.05053948562758131,0.06076702921554159,-1.4306827344185358,0,0,0,0,0,0,1500,1500,1500,1500,1500,1500
1747536095.5792565,-0.01,-0.21,-0.31,0.0719948316447661,0.10253809355466686,0.009817477042468103,-0.051742872503555214,0.0708712403036694,-1.4254768961309514,0,0,0,0,0,0,1500,1500,1500,1500,1500,1500
1747536095.6159399,-0.01,-0.21,-0.31,0.0719948316447661,0.10253809355466686,0.009817477042468103,-0.051742872503555214,0.0708712403036694,-1.4254768961309514,0,0,0,0,0,0,1500,1500,1500,1500,1500,1500
1747536095.6701047,0.19,-0.18,-0.31,0.09599310885968812,0.038179077387375956,-0.09490227807719166,-0.045583285111793756,0.07495573788462899,-1.431009099756787,0,0,0,0,0,0,1500,1500,1500,1500,1500,1500
1747536095.7169712,0.19,-0.18,-0.31,0.09599310885968812,0.038179077387375956,-0.09490227807719166,-0.045583285111793756,0.07495573788462899,-1.431009099756787,0,0,0,0,0,0,1500,1500,1500,1500,1500,1500
1747536095.767648,0.01,-0.13,-0.45,0.05126904677733343,0.06435901616729091,-0.06872233929727672,-0.043080903068236524,0.07787855593518517,-1.4389711416802506,0,0,0,0,0,0,1500,1500,1500,1500,1500,1500
1747536095.808407,-0.04,-0.27,-0.51,0.001090830782496456,0.013089969389957472,-0.04908738521234052,-0.04341161974787587,0.08026866090760683,-1.4448124385509367,0,0,0,0,0,0,1500,1500,1500,1500,1500,1500
1747536095.8663542,-0.04,-0.27,-0.51,0.001090830782496456,0.013089969389957472,-0.04908738521234052,-0.04341161974787587,0.08026866090760683,-1.4448124385509367,0,0,0,0,0,0,1500,1500,1500,1500,1500,1500
1747536095.900295,-0.1,-0.18,-0.46,0.031634092692397225,-0.015271630954950384,-0.04036073895236887,-0.04593075822853825,0.08069499222373851,-1.4479164755193423,0,0,0,0,0,0,1500,1500,1500,1500,1500,1500
1747536095.9506316,-0.1,-0.18,-0.46,0.031634092692397225,-0.015271630954950384,-0.04036073895236887,-0.04593075822853825,0.08069499222373851,-1.4479164755193423,0,0,0,0,0,0,1500,1500,1500,1500,1500,1500
1747536096.0005271,0.03,-0.1,-0.28,-0.013089969389957472,-0.05235987755982989,-0.03490658503988659,-0.0452298441684504,0.07858134305348527,-1.4511813183436877,0,0,0,0,0,0,1500,1500,1500,1500,1500,1500
1747536096.0485923,0.03,-0.12,-0.27,-0.04145156973486533,-0.006544984694978736,0.028361600344907856,-0.04989723943212871,0.07541993158386394,-1.4506267546038,0,0,0,0,0,0,1500,1500,1500,1500,1500,1500
1747536096.1007297,0.03,-0.12,-0.27,-0.04145156973486533,-0.006544984694978736,0.028361600344907856,-0.04989723943212871,0.07541993158386394,-1.4506267546038,0,0,0,0,0,0,1500,1500,1500,1500,1500,1500
1747536096.1334991,0.02,-0.09,-0.22,0.014180800172453928,-0.00545415391248228,0.008726646259971648,-0.05090480204298336,0.07549613690577726,-1.4498654957578747,0,0,0,0,0,0,1500,1500,1500,1500,1500,1500
1747536096.1832745,0.02,-0.09,-0.22,0.014180800172453928,-0.00545415391248228,0.008726646259971648,-0.05090480204298336,0.07549613690577726,-1.4498654957578747,0,0,0,0,0,0,1500,1500,1500,1500,1500,1500
1747536096.2331758,0.07,-0.04,-0.37,0.032724923474893676,-0.006544984694978736,0.022907446432425576,-0.04896104941549161,0.07508045374412312,-1.448099128757594,0,0,0,0,0,0,1500,1500,1500,1500,1500,1500
1747536096.2834976,0.1,-0.03,-0.46,-0.01090830782496456,-0.026179938779914945,-0.039269908169872414,-0.0475890136412349,0.07401884458665857,-1.449102969477166,0,0,0,0,0,0,1500,1500,1500,1500,1500,1500
1747536096.3331513,0.1,-0.03,-0.46,-0.01090830782496456,-0.026179938779914945,-0.039269908169872414,-0.0475890136412349,0.07401884458665857,-1.449102969477166,0,0,0,0,0,0,1500,1500,1500,1500,1500,1500
1747536096.3835244,0.11,-0.08,-0.5,-0.05235987755982989,-0.011999138607461015,-0.01090830782496456,-0.05179448687779269,0.07259104008287783,-1.4505692158467982,0,0,0,0,0,0,1500,1500,1500,1500,1500,1500
1747536096.416497,0.11,-0.08,-0.5,-0.05235987755982989,-0.011999138607461015,-0.01090830782496456,-0.05179448687779269,0.07259104008287783,-1.4505692158467982,0,0,0,0,0,0,1500,1500,1500,1500,1500,1500
1747536096.4832003,-0.08,-0.07,-0.36,-0.04254240051736178,-0.04799655442984406,0.016362461737446838,-0.055772304210263794,0.0711939937981416,-1.4505686172384922,0,-0.087315,0,0,0,0,1460,1460,1461,1500,1500,1500
1747536096.5175202,-0.08,-0.07,-0.36,-0.04254240051736178,-0.04799655442984406,0.016362461737446838,-0.055772304210263794,0.0711939937981416,-1.4505686172384922,0,-4.681267,0,0,0,0,1420,1420,1421,1500,1500,1500
1747536096.5840094,-0.04,-0.17,-0.3,-0.009817477042468103,-0.09053895494720585,0.028361600344907856,-0.058851069550815545,0.06617620142717415,-1.4481705898827502,0,-12.5,0,0,0,0,1380,1380,1383,1500,1500,1500
1747536096.617577,0.16,-0.09,-0.22,-0.001090830782496456,-0.055632369907319255,0.03490658503988659,-0.059250673391127384,0.0596283582187547,-1.4452106084381897,0,-12.5,0,0,0,0,1354,1359,1383,1500,1500,1500
1747536096.6670232,0.16,-0.09,-0.22,-0.001090830782496456,-0.055632369907319255,0.03490658503988659,-0.059250673391127384,0.0596283582187547,-1.4452106084381897,0,-12.5,0,0,0,0,1354,1359,1383,1500,1500,1500
1747536096.7172468,0.07,-0.01,-0.21,-0.03381575425739013,0.019634954084936207,0.0272707695624114,-0.06004271831669299,0.05959421862343946,-1.442490853036266,0,-12.5,0,0,0,0,1354,1359,1383,1500,1500,1500
1747536096.7666032,-0.25,0.09,0.04,-0.04036073895236887,0.018544123302439753,-0.018544123302439753,-0.06319784951489342,0.06186608838586324,-1.442800739923709,0,-12.5,0,0,0,0,1354,1359,1383,1500,1500,1500
1747536096.81724,-0.25,0.09,0.04,-0.04036073895236887,0.018544123302439753,-0.018544123302439753,-0.06319784951489342,0.06186608838586324,-1.442800739923709,0,-12.5,0,0,0,0,1354,1359,1383,1500,1500,1500
1747536096.8664203,-0.18,-0.33,-0.44,0.018544123302439753,0.016362461737446838,0.007635815477475192,-0.0642577119268397,0.06305397100595483,-1.4431029817463579,0,-12.5,0,0,0,0,1354,1359,1383,1500,1500,1500
1747536096.8999643,-0.18,-0.33,-0.44,0.018544123302439753,0.016362461737446838,0.007635815477475192,-0.0642577119268397,0.06305397100595483,-1.4431029817463579,0,-12.5,0,0,0,0,1354,1359,1383,1500,1500,1500
1747536096.950317,-0.11,-0.21,-0.45,0.0,0.00545415391248228,0.011999138607461015,-0.0639951938578042,0.06409578935776361,-1.4423257187254217,0,-12.5,0,0,0,0,1354,1359,1383,1500,1500,1500
1747536097.0007265,0.13,-0.02,-0.05,0.001090830782496456,-0.001090830782496456,0.025089107997418487,-0.06302383963962621,0.06430377610555828,-1.4421259399763968,0,-12.5,0,0,0,0,1354,1359,1383,1500,1500,1500
1747536097.050484,0.13,-0.02,-0.05,0.001090830782496456,-0.001090830782496456,0.025089107997418487,-0.06302383963962621,0.06430377610555828,-1.4421259399763968,0,-12.5,0,0,0,0,1354,1359,1383,1500,1500,1500
1747536097.100436,0.0,-0.03,-0.39,-0.003272492347489368,-0.031634092692397225,0.04145156973486533,-0.0645242165041026,0.06348497029123075,-1.4384222296691884,0,-12.5,0,0,0,0,1354,1359,1383,1500,1500,1500
1747536097.1467957,0.01,-1.31,-0.45,0.028361600344907856,-0.04908738521234052,0.015271630954950384,-0.06401207586042006,0.06070021588355473,-1.4353096899344278,0,-12.5,0,0,0,0,1354,1359,1383,1500,1500,1500
1747536097.1837237,0.01,-1.31,-0.45,0.028361600344907856,-0.04908738521234052,0.015271630954950384,-0.06401207586042006,0.06070021588355473,-1.4353096899344278,0,-12.5,0,0,0,0,1354,1359,1383,1500,1500,1500
1747536097.2316148,0.02,-0.01,-0.41000000000000003,-0.044724062082354694,-0.030543261909900768,0.08072147790473774,-0.06579159328289245,0.05707474304763488,-1.4311618375880568,0,-12.5,0,0,0,0,1354,1359,1383,1500,1500,1500
1747536097.2833889,0.02,-0.01,-0.41000000000000003,-0.044724062082354694,-0.030543261909900768,0.08072147790473774,-0.06579159328289245,0.05707474304763488,-1.4311618375880568,0,-12.5,0,0,0,0,1354,1359,1383,1500,1500,1500
1747536097.3342414,0.01,-0.17,-0.21,-0.009817477042468103,-0.055632369907319255,0.039269908169872414,-0.06870738287305274,0.05427519239825767,-1.4256706975453228,0,-12.5,0,0,0,0,1354,1359,1383,1500,1500,1500
1747536097.383351,0.01,-0.17,-0.21,-0.009817477042468103,-0.055632369907319255,0.039269908169872414,-0.06870738287305274,0.05427519239825767,-1.4256706975453228,0,-12.5,0,0,0,0,1354,1359,1383,1500,1500,1500
1747536097.4163454,-0.01,0.16,-0.32,-0.001090830782496456,-0.02399827721492203,0.04690572364734761,-0.0686327214091329,0.051322770501305265,-1.4208132487137213,0,-12.5,0,0,0,0,1354,1359,1383,1500,1500,1500
1747536097.483834,0.08,-0.12,-0.26,-0.015271630954950384,-0.004363323129985824,0.013089969389957472,-0.0697796618727807,0.05036710115367863,-1.4185707010220134,0,-12.5,0,0,0,0,1354,1359,1383,1500,1500,1500
1747536097.5164025,0.08,-0.12,-0.26,-0.015271630954950384,-0.004363323129985824,0.013089969389957472,-0.0697796618727807,0.05036710115367863,-1.4185707010220134,0,-12.5,0,0,0,0,1354,1359,1383,1500,1500,1500
1747536097.5836449,-0.53,0.11,-0.54,-0.025089107997418487,-0.07417649320975901,0.008726646259971648,-0.07081855472202918,0.048551454007140116,-1.4161258751692762,0,-12.5,0,0,0,0,1354,1359,1383,1500,1500,1500
1747536097.6164422,-0.53,0.11,-0.54,-0.025089107997418487,-0.07417649320975901,0.008726646259971648,-0.07081855472202918,0.048551454007140116,-1.4161258751692762,0,-12.5,0,0,0,0,1354,1359,1383,1500,1500,1500
1747536097.666592,-1.6600000000000001,0.02,-0.47000000000000003,-0.022907446432425576,-0.16035212502697901,0.06326818538479445,-0.07216814026094631,0.04052241417131764,-1.4135042947837069,0,-12.5,0,0,0,0,1354,1359,1383,1500,1500,1500
1747536097.6985035,-2.4,0.24,-0.31,-0.025089107997418487,-0.3665191429188092,0.06654067773228381,-0.07425494370891436,0.02081025835779636,-1.4052434066994848,0,-12.5,0,0,0,0,1354,1359,1383,1500,1500,1500
1747536097.7670934,-2.4,0.24,-0.31,-0.025089107997418487,-0.3665191429188092,0.06654067773228381,-0.07425494370891436,0.02081025835779636,-1.4052434066994848,0,-12.5,0,0,0,0,1354,1359,1383,1500,1500,1500
1747536097.8003297,-1.82,0.07,-0.09,-0.17453292519943295,-0.4788747135159442,0.17780541754692233,-0.08230266389493443,-0.006260435944240422,-1.392582463716147,0,-12.5,0,0,0,0,1354,1359,1383,1500,1500,1500
1747536097.8606987,-0.66,-0.34,0.61,-0.017453292519943295,-0.09272061651219876,0.2476185876266955,-0.0879737592086782,-0.02689167117372344,-1.3777150703512135,0,-12.5,0,0,0,0,1354,1359,1383,1500,1500,1500
1747536097.8835082,-0.66,-0.34,0.61,-0.017453292519943295,-0.09272061651219876,0.2476185876266955,-0.0879737592086782,-0.02689167117372344,-1.3777150703512135,0,-12.5,0,0,0,0,1354,1359,1383,1500,1500,1500
1747536097.9495962,-1.23,0.34,-0.74,0.17780541754692233,0.32506757318394386,0.46469391334349025,-0.08328965542466613,-0.009751407372760102,-1.3467200159223705,0,-12.5,0,0,0,0,1354,1359,1383,1500,1500,1500
1747536097.983421,-1.23,0.34,-0.74,0.17780541754692233,0.32506757318394386,0.46469391334349025,-0.08328965542466613,-0.009751407372760102,-1.3467200159223705,0,-12.5,0,0,0,0,1354,1359,1383,1500,1500,1500
1747536098.0507295,0.64,-0.17,-0.2,0.20398535632683726,0.19198621771937624,-0.037088246604879506,-0.06442218958990258,0.01026988945911175,-1.3367710730977596,0,-8.037135,0,0,0,0,1354,1359,1383,1500,1500,1500
1747536098.0831065,0.64,-0.17,-0.2,0.20398535632683726,0.19198621771937624,-0.037088246604879506,-0.06442218958990258,0.01026988945911175,-1.3367710730977596,0,-0.279849,0,0,0,0,1394,1399,1423,1500,1500,1500
1747536098.1337185,1.49,-0.54,-0.29,0.004363323129985824,0.4145156973486533,0.15817046346198613,-0.057854735410661176,0.02594305260123665,-1.3421403098986466,0,0,0,0,0,0,1434,1439,1463,1500,1500,1500
1747536098.1665263,1.49,-0.54,-0.29,0.004363323129985824,0.4145156973486533,0.15817046346198613,-0.057854735410661176,0.02594305260123665,-1.3421403098986466,0,0,0,0,0,0,1474,1479,1500,1500,1500,1500
1747536098.233409,2.46,-1.11,0.23,-0.1090830782496456,0.43960480534607177,0.2912518189265537,-0.0623352288474765,0.06665787056824912,-1.3214867563045378,0,0,0,0,0,0,1500,1500,1500,1500,1500,1500
1747536098.26643,2.19,-0.71,0.29,-0.1090830782496456,0.545415391248228,0.4559672670835186,-0.06872025593731357,0.10295280344281202,-1.2971785568327274,0,0,0,0,0,0,1500,1500,1500,1500,1500,1500
1747536098.333131,2.19,-0.71,0.29,-0.1090830782496456,0.545415391248228,0.4559672670835186,-0.06872025593731357,0.10295280344281202,-1.2971785568327274,0,0,0,0,0,0,1500,1500,1500,1500,1500,1500
1747536098.3665504,1.21,0.0,-0.62,0.04581489286485115,0.2519819107566813,0.025089107997418487,-0.06612030864385,0.14114009196365973,-1.277995414645093,0,0,0,0,0,0,1500,1500,1500,1500,1500,1500
1747536098.4174194,0.9,0.34,-0.63,0.020725784867432664,0.03599741582238305,-0.11017390903214205,-0.0639044284894644,0.14855584439165914,-1.2829945843100752,0,0,0,0,0,0,1500,1500,1500,1500,1500,1500
1747536098.4664748,0.9,0.34,-0.63,0.020725784867432664,0.03599741582238305,-0.11017390903214205,-0.0639044284894644,0.14855584439165914,-1.2829945843100752,0,0,0,0,0,0,1500,1500,1500,1500,1500,1500
1747536098.5165327,0.14,0.31,-1.0,0.11344640137963143,-0.044724062082354694,0.15489797111449674,-0.05834776312428767,0.1441599018030676,-1.27826549998258,0,0,0,0,0,0,1500,1500,1500,1500,1500,1500
1747536098.5600607,0.68,0.18,-0.72,0.08944812416470939,-0.14289883250703572,0.06872233929727672,-0.05008236255069206,0.1357596098234698,-1.2709472764372782,0,0,0,0,0,0,1500,1500,1500,1500,1500,1500
1747536098.6162956,0.68,0.18,-0.72,0.08944812416470939,-0.14289883250703572,0.06872233929727672,-0.05008236255069206,0.1357596098234698,-1.2709472764372782,0,0,0,0,0,0,1500,1500,1500,1500,1500,1500
1747536098.6502726,0.58,0.26,-0.42,-0.1712604328519436,-0.17562375598192942,-0.1341721862470641,-0.051051005317333115,0.11489667286827251,-1.2765216040661571,0,0,0,0,0,0,1500,1500,1500,1500,1500,1500
1747536098.7004561,0.58,0.26,-0.42,-0.1712604328519436,-0.17562375598192942,-0.1341721862470641,-0.051051005317333115,0.11489667286827251,-1.2765216040661571,0,0,0,0,0,0,1500,1500,1500,1500,1500,1500
1747536098.7503605,-0.1,0.06,-0.62,-0.25089107997418486,-0.13853550937704992,-0.11780972450961724,-0.06850929940527861,0.10366620035943695,-1.283619650948139,0,0,0,0,0,0,1500,1500,1500,1500,1500,1500
1747536098.800571,-0.1,0.06,-0.62,-0.25089107997418486,-0.13853550937704992,-0.11780972450961724,-0.06850929940527861,0.10366620035943695,-1.283619650948139,0,0,0,0,0,0,1500,1500,1500,1500,1500,1500
1747536098.8500948,0.08,-0.19,-0.24,-0.11017390903214205,-0.11017390903214205,-0.08944812416470939,-0.08102313347126544,0.09444161913518218,-1.2901566166356913,0,0,0,0,0,0,1500,1500,1500,1500,1500,1500
1747536098.8842332,0.02,-0.15,-0.3,0.014180800172453928,-0.04363323129985824,-0.11017390903214205,-0.08686235229199361,0.08691760975944314,-1.296768736005848,0,0,0,0,0,0,1500,1500,1500,1500,1500,1500
1747536098.933831,0.02,-0.15,-0.3,0.014180800172453928,-0.04363323129985824,-0.11017390903214205,-0.08686235229199361,0.08691760975944314,-1.296768736005848,0,0,0,0,0,0,1500,1500,1500,1500,1500,1500
1747536098.9836476,-0.04,-0.26,0.04,-0.09381144729469522,-0.09272061651219876,-0.2585268954516601,-0.09046831190346831,0.08060539086808997,-1.3106915037127511,0,0,0,0,0,0,1500,1500,1500,1500,1500,1500
1747536099.0316627,-0.13,-0.49,-0.16,-0.12435470920459599,-0.08399397025222712,-0.16580627893946132,-0.10157988597364709,0.07143082384676822,-1.3250254488307158,0,0,0,0,0,0,1500,1500,1500,1500,1500,1500
1747536099.0853488,-0.13,-0.49,-0.16,-0.12435470920459599,-0.08399397025222712,-0.16580627893946132,-0.10157988597364709,0.07143082384676822,-1.3250254488307158,0,0,0,0,0,0,1500,1500,1500,1500,1500,1500
1747536099.121388,-0.21,-0.12,-0.45,0.04145156973486533,0.032724923474893676,0.10690141668465268,-0.11156125784697109,0.0703368496608683,-1.324934325535634,0,0,0,0,0,0,1500,1500,1500,1500,1500,1500
1747536099.1831126,-0.21,-0.12,-0.45,0.04145156973486533,0.032724923474893676,0.10690141668465268,-0.11156125784697109,0.0703368496608683,-1.324934325535634,0,0,0,0,0,0,1500,1500,1500,1500,1500,1500
1747536099.2176714,-0.17,0.09,-0.52,0.04799655442984406,-0.025089107997418487,0.03490658503988659,-0.10628296838567988,0.07274499541109908,-1.3185304837889413,0,0,0,0,0,0,1500,1500,1500,1500,1500,1500
1747536099.282401,0.18,0.21,-0.54,-0.08508480103472356,0.02399827721492203,-0.002181661564992912,-0.10685374106992443,0.07105367242570025,-1.3189010602405842,0,0,0,0,0,0,1500,1500,1500,1500,1500,1500
1747536099.316591,0.18,0.21,-0.54,-0.08508480103472356,0.02399827721492203,-0.002181661564992912,-0.10685374106992443,0.07105367242570025,-1.3189010602405842,0,0,0,0,0,0,1500,1500,1500,1500,1500,1500
1747536099.3832433,0.19,-0.12,-0.25,-0.35124751196385884,0.006544984694978736,0.04363323129985824,-0.12255290676253018,0.07136109503512969,-1.3170919206725076,0,0,0,0,0,0,1500,1500,1500,1500,1500,1500
1747536099.4000738,0.19,-0.12,-0.25,-0.35124751196385884,0.006544984694978736,0.04363323129985824,-0.12255290676253018,0.07136109503512969,-1.3170919206725076,0,0,0,0,0,0,1500,1500,1500,1500,1500,1500
1747536099.4835157,0.08,-0.37,-0.08,-0.09708393964218458,0.004363323129985824,0.07744898555724837,-0.1434192351822912,0.07362629210226594,-1.3115775479378398,0,0,0,0,0,0,1500,1500,1500,1500,1500,1500
1747536099.5003474,0.08,-0.37,-0.08,-0.09708393964218458,0.004363323129985824,0.07744898555724837,-0.1434192351822912,0.07362629210226594,-1.3115775479378398,0,0,0,0,0,0,1500,1500,1500,1500,1500,1500
1747536099.5841742,-0.4,-0.11,-0.38,0.11780972450961724,-0.1636246173744684,-0.1439896632895322,-0.14215855685537626,0.06803242983686794,-1.3129173830974177,0,0,0,0,0,0,1500,1500,1500,1500,1500,1500
1747536099.596198,-0.08,-0.16,-0.22,0.08617563181722002,-0.18544123302439752,-0.19744037163185854,-0.1319879781397033,0.05259698984900903,-1.327351607646989,0,0,0,0,0,0,1500,1500,1500,1500,1500,1500
1747536099.666837,-0.23,-0.25,-0.27,-0.12762720155208535,-0.06981317007977318,0.05999569303730508,-0.13615901252365623,0.0429635186108417,-1.3304231963502924,0,0,0,0,0,0,1500,1500,1500,1500,1500,1500
1747536099.6836421,-0.23,-0.25,-0.27,-0.12762720155208535,-0.06981317007977318,0.05999569303730508,-0.13615901252365623,0.0429635186108417,-1.3304231963502924,0,0,0,0,0,0,1500,1500,1500,1500,1500,1500
1747536099.7678175,-0.29,0.0,-0.31,-0.025089107997418487,0.016362461737446838,0.10690141668465268,-0.14113944479749185,0.04684926535887993,-1.3213614303803545,0,0,0,0,0,0,1500,1500,1500,1500,1500,1500
1747536099.783514,-0.29,0.0,-0.31,-0.025089107997418487,0.016362461737446838,0.10690141668465268,-0.14113944479749185,0.04684926535887993,-1.3213614303803545,0,0,0,0,0,0,1500,1500,1500,1500,1500,1500
1747536099.8666403,0.02,-0.15,-0.05,-0.12435470920459599,-0.07963064712224129,0.11126473981463851,-0.1485154648913553,0.04349767296166036,-1.3125235596188165,0,0.345128,0,0,0,0,1540,1540,1540,1500,1500,1500
1747536099.8681343,0.02,-0.15,-0.05,-0.12435470920459599,-0.07963064712224129,0.11126473981463851,-0.1485154648913553,0.04349767296166036,-1.3125235596188165,0,0.345128,0,0,0,0,1549,1549,1546,1500,1500,1500
1747536099.9668355,-0.09,-0.05,0.05,-0.013089969389957472,-0.06326818538479445,0.09053895494720585,-0.15191631105855324,0.039520029928357694,-1.3044143519283458,0,12.5,0,0,0,0,1589,1589,1586,1500,1500,1500
1747536099.9668355,-0.09,-0.05,0.05,-0.013089969389957472,-0.06326818538479445,0.09053895494720585,-0.15191631105855324,0.039520029928357694,-1.3044143519283458,0,12.5,0,0,0,0,1629,1629,1616,1500,1500,1500
1747536100.063728,0.03,0.14,-0.25,0.044724062082354694,-0.039269908169872414,-0.019634954084936207,-0.1514029003907687,0.029265617411376954,-1.2950160634418881,0,1.304304,0,0,0,0,1589,1589,1576,1500,1500,1500
1747536100.0657485,0.03,0.14,-0.25,0.044724062082354694,-0.039269908169872414,-0.019634954084936207,-0.1514029003907687,0.029265617411376954,-1.2950160634418881,0,1.304304,0,0,0,0,1588,1586,1574,1500,1500,1500
1747536100.1507416,-0.01,-0.02,-0.23,-0.009817477042468103,-0.04254240051736178,0.009817477042468103,-0.14961418966106244,0.026417124140035556,-1.2958766739853214,0,0,0,0,0,0,1548,1546,1534,1500,1500,1500
1747536100.1517642,-0.01,-0.02,-0.23,-0.009817477042468103,-0.04254240051736178,0.009817477042468103,-0.14961418966106244,0.026417124140035556,-1.2958766739853214,0,0,0,0,0,0,1508,1506,1500,1500,1500,1500
1747536100.2504275,0.0,-0.04,-0.08,-0.12326387842209953,-0.03599741582238305,0.10144726277217041,-0.15638139689747543,0.024799929486605837,-1.2896190953185187,0,7.074926,0,0,0,0,1548,1546,1540,1500,1500,1500
1747536100.2514467,0.0,-0.04,-0.08,-0.12326387842209953,-0.03599741582238305,0.10144726277217041,-0.15638139689747543,0.024799929486605837,-1.2896190953185187,0,7.074926,0,0,0,0,1588,1586,1580,1500,1500,1500
1747536100.351102,-0.08,-0.18,0.1,-0.05781403147231216,-0.01090830782496456,0.1090830782496456,-0.16279952314890458,0.02454237394298525,-1.2816519339393595,0,12.5,0,0,0,0,1628,1626,1616,1500,1500,1500
1747536100.3523183,-0.08,-0.18,0.1,-0.05781403147231216,-0.01090830782496456,0.1090830782496456,-0.16279952314890458,0.02454237394298525,-1.2816519339393595,0,12.5,0,0,0,0,1645,1640,1616,1500,1500,1500
1747536100.4494956,0.35000000000000003,-0.15,-0.14,-0.04690572364734761,-0.007635815477475192,-0.013089969389957472,-0.16383900459368259,0.02339781471844173,-1.2803983329812874,0,12.5,0,0,0,0,1645,1640,1616,1500,1500,1500
1747536100.4505038,0.35000000000000003,-0.15,-0.14,-0.04690572364734761,-0.007635815477475192,-0.013089969389957472,-0.16383900459368259,0.02339781471844173,-1.2803983329812874,0,12.5,0,0,0,0,1645,1640,1616,1500,1500,1500
1747536100.5506291,-0.06,-0.02,-0.33,0.07744898555724837,0.0545415391248228,0.044724062082354694,-0.16375873750053804,0.026329072360828952,-1.2786696390891867,0,12.5,0,0,0,0,1645,1640,1616,1500,1500,1500
1747536100.5516353,-0.06,-0.02,-0.33,0.07744898555724837,0.0545415391248228,0.044724062082354694,-0.16375873750053804,0.026329072360828952,-1.2786696390891867,0,12.5,0,0,0,0,1645,1640,1616,1500,1500,1500
1747536100.6505437,0.0,0.0,-0.39,-0.02181661564992912,-0.01090830782496456,0.09381144729469522,-0.1618055713141236,0.028866790731388488,-1.2741965200166032,0,12.5,0,0,0,0,1645,1640,1616,1500,1500,1500
1747536100.6515481,0.0,0.0,-0.39,-0.02181661564992912,-0.01090830782496456,0.09381144729469522,-0.1618055713141236,0.028866790731388488,-1.2741965200166032,0,12.5,0,0,0,0,1645,1640,1616,1500,1500,1500
1747536100.7508545,0.01,0.01,-0.13,-0.01090830782496456,-0.00545415391248228,-0.011999138607461015,-0.16274133742796384,0.02958107742698798,-1.2694707464380959,0,12.5,0,0,0,0,1645,1640,1616,1500,1500,1500
1747536100.7519066,0.01,0.01,-0.13,-0.01090830782496456,-0.00545415391248228,-0.011999138607461015,-0.16274133742796384,0.02958107742698798,-1.2694707464380959,0,12.5,0,0,0,0,1645,1640,1616,1500,1500,1500
1747536100.8506422,0.02,-0.25,-0.22,-0.05890486225480862,-0.013089969389957472,0.014180800172453928,2.7058327532181683,1.5707963267948966,-1.1726902789997637,0,12.5,0,0,0,0,1645,1640,1616,1500,1500,1500
1747536100.8519433,0.02,-0.25,-0.22,-0.05890486225480862,-0.013089969389957472,0.014180800172453928,2.7058327532181683,1.5707963267948966,-1.1726902789997637,0,12.5,0,0,0,0,1645,1640,1616,1500,1500,1500
1747536100.933515,-0.25,-0.17,-0.11,-0.001090830782496456,-0.07417649320975901,-0.014180800172453928,-0.17350422679141742,0.026202875600920796,-1.2698164075493772,0,12.5,0,0,0,0,1645,1640,1616,1500,1500,1500
1747536100.9505293,-0.25,-0.17,-0.11,-0.001090830782496456,-0.07417649320975901,-0.014180800172453928,-0.17350422679141742,0.026202875600920796,-1.2698164075493772,0,12.5,0,0,0,0,1645,1640,1616,1500,1500,1500
1747536101.0342243,-0.22,0.0,-0.22,0.022907446432425576,-0.11344640137963143,0.04581489286485115,-0.17434237936738584,0.018964704699827903,-1.2669070311054302,0,12.5,0,0,0,0,1645,1640,1616,1500,1500,1500
1747536101.0506039,-0.22,0.0,-0.22,0.022907446432425576,-0.11344640137963143,0.04581489286485115,-0.17434237936738584,0.018964704699827903,-1.2669070311054302,0,12.5,0,0,0,0,1645,1640,1616,1500,1500,1500
1747536101.1335232,0.14,0.08,0.16,-0.04581489286485115,-0.10799224746714914,0.0916297857297023,-0.17550393109246898,0.012228115655532612,-1.2609010163640144,0,12.5,0,0,0,0,1645,1640,1616,1500,1500,1500
1747536101.1345465,0.14,0.08,0.16,-0.04581489286485115,-0.10799224746714914,0.0916297857297023,-0.17550393109246898,0.012228115655532612,-1.2609010163640144,0,12.5,0,0,0,0,1645,1640,1616,1500,1500,1500
1747536101.2335396,0.9,-0.19,0.37,0.025089107997418487,-0.026179938779914945,-0.037088246604879506,-0.1770512207071337,0.0070232283279095305,-1.257031679589068,0,12.5,0,0,0,0,1645,1640,1616,1500,1500,1500
1747536101.2345657,0.9,-0.19,0.37,0.025089107997418487,-0.026179938779914945,-0.037088246604879506,-0.1770512207071337,0.0070232283279095305,-1.257031679589068,0,12.5,0,0,0,0,1645,1640,1616,1500,1500,1500
1747536101.3267393,1.83,-0.99,0.14,0.04799655442984406,0.17671458676442586,0.044724062082354694,-0.16664915953106632,0.019809252633919333,-1.2760093229869076,0,12.5,0,0,0,0,1645,1640,1616,1500,1500,1500
1747536101.3287323,1.83,-0.99,0.14,0.04799655442984406,0.17671458676442586,0.044724062082354694,-0.16664915953106632,0.019809252633919333,-1.2760093229869076,0,12.5,0,0,0,0,1645,1640,1616,1500,1500,1500
1747536101.4174175,1.98,-1.0,0.71,0.04363323129985824,0.1189005552921137,0.18435040224190105,-0.16268618634844165,0.03225620624718042,-1.268802488411042,0,12.5,0,0,0,0,1645,1640,1616,1500,1500,1500
1747536101.4185257,1.98,-1.0,0.71,0.04363323129985824,0.1189005552921137,0.18435040224190105,-0.16268618634844165,0.03225620624718042,-1.268802488411042,0,12.5,0,0,0,0,1645,1640,1616,1500,1500,1500
1747536101.5171103,2.29,-0.64,0.77,-0.36324665057131983,0.05999569303730508,-0.032724923474893676,-0.17812069036998826,0.0393627226898896,-1.2582997175060477,0,12.5,0,0,0,0,1645,1640,1616,1500,1500,1500
