time,ay,ax,az,gy,gx,gz,roll,pitch,yaw,cmd_fx,cmd_fy,cmd_fz,cmd_tx,cmd_ty,cmd_tz,pwm_1,pwm_2,pwm_3,pwm_4,pwm_5,pwm_6
1747606002.9921908,0.0,0.0,0.0,0.0,0.0,0.0,0.0,0.0,0.0,0,0,0,0,0,0,1500,1500,1500,1500,1500,1500
1747606003.099766,0.02,-0.02,-0.35000000000000003,-0.004363323129985824,-0.001090830782496456,-0.001090830782496456,0.004291029811507881,0.10759388252841497,0.00023107492023967337,0,0,0,0,0,0,1500,1500,1500,1500,1500,1500
1747606003.1840441,0.02,-0.02,-0.35000000000000003,-0.004363323129985824,-0.001090830782496456,-0.001090830782496456,0.004291029811507881,0.10759388252841497,0.00023107492023967337,0,0,0,0,0,0,1500,1500,1500,1500,1500,1500
1747606003.2834337,0.03,0.01,-0.28,0.0,0.001090830782496456,0.001090830782496456,0.004291029811507881,0.10759388252841497,0.00023107492023967337,0,0,0,0,0,0,1500,1500,1500,1500,1500,1500
1747606003.3709693,0.0,0.01,-0.39,0.001090830782496456,0.001090830782496456,0.0,0.004291029811507881,0.10759388252841497,0.00023107492023967337,0,0,0,0,0,0,1500,1500,1500,1500,1500,1500
1747606003.4666474,0.0,0.01,-0.39,0.001090830782496456,0.001090830782496456,0.0,0.004291029811507881,0.10759388252841497,0.00023107492023967337,0,0,0,0,0,0,1500,1500,1500,1500,1500,1500
1747606003.5670757,0.04,-0.02,-0.33,0.002181661564992912,-0.00545415391248228,0.0,0.004291029811507881,0.10759388252841497,0.00023107492023967337,0,0,0,0,0,0,1500,1500,1500,1500,1500,1500
1747606003.6496673,0.04,-0.02,-0.33,0.002181661564992912,-0.00545415391248228,0.0,0.004291029811507881,0.10759388252841497,0.00023107492023967337,0,0,0,0,0,0,1500,1500,1500,1500,1500,1500
1747606003.7498949,0.02,0.0,-0.28,0.001090830782496456,0.001090830782496456,0.001090830782496456,0.004291029811507881,0.10759388252841497,0.00023107492023967337,0,0,0,0,0,0,1500,1500,1500,1500,1500,1500
1747606003.8460248,0.02,0.01,-0.37,0.0,0.0,0.001090830782496456,0.004291029811507881,0.10759388252841497,0.00023107492023967337,0,0,0,0,0,0,1500,1500,1500,1500,1500,1500
1747606003.9329736,0.02,0.01,-0.37,0.0,0.0,0.001090830782496456,0.004291029811507881,0.10759388252841497,0.00023107492023967337,0,0,0,0,0,0,1500,1500,1500,1500,1500,1500
1747606004.0343473,0.03,-0.02,-0.31,-0.003272492347489368,-0.002181661564992912,-0.001090830782496456,0.004291029811507881,0.10759388252841497,0.00023107492023967337,0,0,0,0,0,0,1500,1500,1500,1500,1500,1500
1747606004.1341412,0.03,-0.02,-0.31,-0.003272492347489368,-0.002181661564992912,-0.001090830782496456,0.004291029811507881,0.10759388252841497,0.00023107492023967337,0,0,0,0,0,0,1500,1500,1500,1500,1500,1500
1747606004.2338204,0.03,0.0,-0.28,0.0,-0.001090830782496456,-0.002181661564992912,0.004291029811507881,0.10759388252841497,0.00023107492023967337,0,0,0,0,0,0,1500,1500,1500,1500,1500,1500
1747606004.3337674,0.02,0.02,-0.41000000000000003,-0.00545415391248228,0.0,0.0,0.004291029811507881,0.10759388252841497,0.00023107492023967337,0,0,0,0,0,0,1500,1500,1500,1500,1500,1500
1747606004.416793,0.02,0.02,-0.41000000000000003,-0.00545415391248228,0.0,0.0,0.004291029811507881,0.10759388252841497,0.00023107492023967337,0,0,0,0,0,0,1500,1500,1500,1500,1500,1500
1747606004.5173066,0.03,-0.01,-0.28,0.0,-0.001090830782496456,-0.002181661564992912,0.004291029811507881,0.10759388252841497,0.00023107492023967337,0,0,0,0,0,0,1500,1500,1500,1500,1500,1500
1747606004.6173768,0.03,-0.01,-0.28,0.0,-0.001090830782496456,-0.002181661564992912,0.004291029811507881,0.10759388252841497,0.00023107492023967337,0,0,0,0,0,0,1500,1500,1500,1500,1500,1500
1747606004.71655,0.0,0.01,-0.28,-0.004363323129985824,0.002181661564992912,-0.002181661564992912,0.004291029811507881,0.10759388252841497,0.00023107492023967337,0,0,0,0,0,0,1500,1500,1500,1500,1500,1500
1747606004.8162522,0.03,-0.01,-0.37,-0.004363323129985824,-0.004363323129985824,0.001090830782496456,0.004291029811507881,0.10759388252841497,0.00023107492023967337,0,0,0,0,0,0,1500,1500,1500,1500,1500,1500
1747606004.900675,0.03,-0.01,-0.37,-0.004363323129985824,-0.004363323129985824,0.001090830782496456,0.004291029811507881,0.10759388252841497,0.00023107492023967337,0,0,0,0,0,0,1500,1500,1500,1500,1500,1500
1747606005.000783,0.02,0.0,-0.25,0.001090830782496456,0.001090830782496456,0.001090830782496456,0.004291029811507881,0.10759388252841497,0.00023107492023967337,0,0,0,0,0,0,1500,1500,1500,1500,1500,1500
1747606005.1000059,0.02,0.0,-0.25,0.001090830782496456,0.001090830782496456,0.001090830782496456,0.004291029811507881,0.10759388252841497,0.00023107492023967337,0,0,0,0,0,0,1500,1500,1500,1500,1500,1500
1747606005.1839488,0.02,0.01,-0.36,-0.003272492347489368,0.001090830782496456,-0.002181661564992912,0.004291029811507881,0.10759388252841497,0.00023107492023967337,0,0,0,0,0,0,1500,1500,1500,1500,1500,1500
1747606005.283579,0.02,-0.02,-0.31,0.0,0.0,0.001090830782496456,0.004291029811507881,0.10759388252841497,0.00023107492023967337,0,0,0,0,0,0,1500,1500,1500,1500,1500,1500
1747606005.3831172,0.02,-0.02,-0.31,0.0,0.0,0.001090830782496456,0.004291029811507881,0.10759388252841497,0.00023107492023967337,0,0,0,0,0,0,1500,1500,1500,1500,1500,1500
1747606005.4838436,0.03,-0.01,-0.33,-0.001090830782496456,0.00545415391248228,-0.003272492347489368,0.004291029811507881,0.10759388252841497,0.00023107492023967337,0,0,0,0,0,0,1500,1500,1500,1500,1500,1500
1747606005.583781,0.03,-0.01,-0.33,-0.001090830782496456,0.00545415391248228,-0.003272492347489368,0.004291029811507881,0.10759388252841497,0.00023107492023967337,0,0,0,0,0,0,1500,1500,1500,1500,1500,1500
1747606005.6672006,0.01,0.02,-0.35000000000000003,-0.002181661564992912,-0.002181661564992912,0.001090830782496456,0.004291029811507881,0.10759388252841497,0.00023107492023967337,0,0,0,0,0,0,1500,1500,1500,1500,1500,1500
1747606005.7669191,0.0,0.0,-0.32,-0.002181661564992912,0.002181661564992912,-0.001090830782496456,0.004291029811507881,0.10759388252841497,0.00023107492023967337,0,0,0,0,0,0,1500,1500,1500,1500,1500,1500
1747606005.8666997,0.0,0.0,-0.32,-0.002181661564992912,0.002181661564992912,-0.001090830782496456,0.004291029811507881,0.10759388252841497,0.00023107492023967337,0,0,0,0,0,0,1500,1500,1500,1500,1500,1500
1747606005.9666264,0.03,0.0,-0.27,-0.002181661564992912,0.004363323129985824,0.003272492347489368,0.004291029811507881,0.10759388252841497,0.00023107492023967337,0,0,0,0,0,0,1500,1500,1500,1500,1500,1500
1747606006.06731,0.01,0.01,-0.36,0.0,0.002181661564992912,0.002181661564992912,0.004291029811507881,0.10759388252841497,0.00023107492023967337,0,0,0,0,0,0,1500,1500,1500,1500,1500,1500
1747606006.1499712,0.01,0.01,-0.36,0.0,0.002181661564992912,0.002181661564992912,0.004291029811507881,0.10759388252841497,0.00023107492023967337,0,0,0,0,0,0,1500,1500,1500,1500,1500,1500
1747606006.249991,0.04,-0.03,-0.28,0.001090830782496456,-0.003272492347489368,-0.001090830782496456,0.004291029811507881,0.10759388252841497,0.00023107492023967337,0,0,0,0,0,0,1500,1500,1500,1500,1500,1500
1747606006.349761,0.04,-0.03,-0.28,0.001090830782496456,-0.003272492347489368,-0.001090830782496456,0.004291029811507881,0.10759388252841497,0.00023107492023967337,0,0,0,0,0,0,1500,1500,1500,1500,1500,1500
1747606006.4338021,0.03,0.0,-0.28,0.0,0.004363323129985824,0.001090830782496456,0.004291029811507881,0.10759388252841497,0.00023107492023967337,0,0,0,0,0,0,1500,1500,1500,1500,1500,1500
1747606006.5289612,0.02,0.01,-0.39,0.0,0.001090830782496456,0.0,0.004291029811507881,0.10759388252841497,0.00023107492023967337,0,0,0,0,0,0,1500,1500,1500,1500,1500,1500
1747606006.6338253,0.02,0.01,-0.39,0.0,0.001090830782496456,0.0,0.004291029811507881,0.10759388252841497,0.00023107492023967337,0,0,0,0,0,0,1500,1500,1500,1500,1500,1500
1747606006.7338512,0.04,-0.01,-0.33,0.0,-0.004363323129985824,-0.001090830782496456,0.004291029811507881,0.10759388252841497,0.00023107492023967337,0,0,0,0,0,0,1500,1500,1500,1500,1500,1500
1747606006.8352516,0.04,-0.01,-0.33,0.0,-0.004363323129985824,-0.001090830782496456,0.004291029811507881,0.10759388252841497,0.00023107492023967337,0,0,0,0,0,0,1500,1500,1500,1500,1500,1500
1747606006.9339695,0.03,-0.01,-0.25,0.0,-0.003272492347489368,-0.001090830782496456,0.004291029811507881,0.10759388252841497,0.00023107492023967337,0,0,0,0,0,0,1500,1500,1500,1500,1500,1500
1747606007.0331714,0.04,-0.01,-0.38,0.001090830782496456,-0.001090830782496456,0.0,0.004291029811507881,0.10759388252841497,0.00023107492023967337,0,0,0,0,0,0,1500,1500,1500,1500,1500,1500
1747606007.1328049,0.04,-0.01,-0.38,0.001090830782496456,-0.001090830782496456,0.0,0.004291029811507881,0.10759388252841497,0.00023107492023967337,0,0,0,0,0,0,1500,1500,1500,1500,1500,1500
1747606007.2332206,0.01,-0.01,-0.32,0.0,0.00545415391248228,-0.002181661564992912,0.004291029811507881,0.10759388252841497,0.00023107492023967337,0,0,0,0,0,0,1500,1500,1500,1500,1500,1500
1747606007.3226395,0.04,-0.01,-0.27,0.001090830782496456,-0.002181661564992912,0.001090830782496456,0.004291029811507881,0.10759388252841497,0.00023107492023967337,0,0,0,0,0,0,1500,1500,1500,1500,1500,1500
1747606007.416486,0.04,-0.01,-0.27,0.001090830782496456,-0.002181661564992912,0.001090830782496456,0.004291029811507881,0.10759388252841497,0.00023107492023967337,0,0,0,0,0,0,1500,1500,1500,1500,1500,1500
1747606007.516573,0.02,0.01,-0.38,-0.001090830782496456,-0.003272492347489368,0.001090830782496456,0.004291029811507881,0.10759388252841497,0.00023107492023967337,0,0,0,0,0,0,1500,1500,1500,1500,1500,1500
1747606007.616906,0.02,0.01,-0.38,-0.001090830782496456,-0.003272492347489368,0.001090830782496456,0.004291029811507881,0.10759388252841497,0.00023107492023967337,0,0,0,0,0,0,1500,1500,1500,1500,1500,1500
1747606007.7174594,0.02,-0.04,-0.32,-0.001090830782496456,-0.002181661564992912,0.002181661564992912,0.004291029811507881,0.10759388252841497,0.00023107492023967337,0,0,0,0,0,0,1500,1500,1500,1500,1500,1500
1747606007.8075545,0.01,0.02,-0.32,0.001090830782496456,0.0,-0.001090830782496456,0.004291029811507881,0.10759388252841497,0.00023107492023967337,0,0,0,0,0,0,1500,1500,1500,1500,1500,1500
1747606007.9004438,0.01,0.02,-0.32,0.001090830782496456,0.0,-0.001090830782496456,0.004291029811507881,0.10759388252841497,0.00023107492023967337,0,0,0,0,0,0,1500,1500,1500,1500,1500,1500
1747606007.9999657,0.01,0.0,-0.36,0.001090830782496456,0.001090830782496456,0.0,0.004291029811507881,0.10759388252841497,0.00023107492023967337,0,0,0,0,0,0,1500,1500,1500,1500,1500,1500
1747606008.0998776,0.01,0.0,-0.36,0.001090830782496456,0.001090830782496456,0.0,0.004291029811507881,0.10759388252841497,0.00023107492023967337,0,0,0,0,0,0,1500,1500,1500,1500,1500,1500
1747606008.183559,0.03,-0.02,-0.33,-0.002181661564992912,0.006544984694978736,0.003272492347489368,0.004291029811507881,0.10759388252841497,0.00023107492023967337,0,0,0,0,0,0,1500,1500,1500,1500,1500,1500
1747606008.283488,0.04,0.0,-0.28,0.0,0.002181661564992912,0.001090830782496456,0.004291029811507881,0.10759388252841497,0.00023107492023967337,0,0,0,0,0,0,1500,1500,1500,1500,1500,1500
1747606008.368024,0.04,0.0,-0.28,0.0,0.002181661564992912,0.001090830782496456,0.004291029811507881,0.10759388252841497,0.00023107492023967337,0,0,0,0,0,0,1500,1500,1500,1500,1500,1500
1747606008.466925,0.02,-0.01,-0.38,0.0,0.004363323129985824,0.0,0.004291029811507881,0.10759388252841497,0.00023107492023967337,0,0,0,0,0,0,1500,1500,1500,1500,1500,1500
1747606008.5680125,0.02,-0.01,-0.38,0.0,0.004363323129985824,0.0,0.004291029811507881,0.10759388252841497,0.00023107492023967337,0,0,0,0,0,0,1500,1500,1500,1500,1500,1500
1747606008.6500769,0.04,0.0,-0.29,0.0,0.003272492347489368,0.0,0.004291029811507881,0.10759388252841497,0.00023107492023967337,0,0,0,0,0,0,1500,1500,1500,1500,1500,1500
1747606008.746107,0.04,0.02,-0.39,-0.001090830782496456,0.0,-0.001090830782496456,0.004291029811507881,0.10759388252841497,0.00023107492023967337,0,0,0,0,0,0,1500,1500,1500,1500,1500,1500
1747606008.8498867,0.04,0.02,-0.39,-0.001090830782496456,0.0,-0.001090830782496456,0.004291029811507881,0.10759388252841497,0.00023107492023967337,0,0,0,0,0,0,1500,1500,1500,1500,1500,1500
1747606008.9333544,0.03,-0.01,-0.33,0.003272492347489368,0.0,0.001090830782496456,0.004291029811507881,0.10759388252841497,0.00023107492023967337,0,0,0,0,0,0,1500,1500,1500,1500,1500,1500
1747606009.033661,0.03,-0.01,-0.33,0.003272492347489368,0.0,0.001090830782496456,0.004291029811507881,0.10759388252841497,0.00023107492023967337,0,0,0,0,0,0,1500,1500,1500,1500,1500,1500
1747606009.133582,0.04,-0.02,-0.26,0.0,-0.002181661564992912,-0.002181661564992912,0.004291029811507881,0.10759388252841497,0.00023107492023967337,0,0,0,0,0,0,1500,1500,1500,1500,1500,1500
1747606009.2333202,0.03,0.02,-0.31,-0.001090830782496456,0.00545415391248228,0.0,0.004291029811507881,0.10759388252841497,0.00023107492023967337,0,0,0,0,0,0,1500,1500,1500,1500,1500,1500
1747606009.333628,0.03,0.02,-0.31,-0.001090830782496456,0.00545415391248228,0.0,0.004291029811507881,0.10759388252841497,0.00023107492023967337,0,0,0,0,0,0,1500,1500,1500,1500,1500,1500
1747606009.415813,0.05,0.0,-0.31,-0.002181661564992912,0.003272492347489368,0.001090830782496456,0.004291029811507881,0.10759388252841497,0.00023107492023967337,0,0,0,0,0,0,1500,1500,1500,1500,1500,1500
1747606009.5161164,0.05,0.0,-0.31,-0.002181661564992912,0.003272492347489368,0.001090830782496456,0.004291029811507881,0.10759388252841497,0.00023107492023967337,0,0,0,0,0,0,1500,1500,1500,1500,1500,1500
1747606009.6169043,0.03,0.02,-0.27,0.0,-0.001090830782496456,0.002181661564992912,0.004291029811507881,0.10759388252841497,0.00023107492023967337,0,0,0,0,0,0,1500,1500,1500,1500,1500,1500
1747606009.7172308,0.02,0.0,-0.37,-0.001090830782496456,0.003272492347489368,0.001090830782496456,0.004291029811507881,0.10759388252841497,0.00023107492023967337,0,0,0,0,0,0,1500,1500,1500,1500,1500,1500
1747606009.8171756,0.02,0.0,-0.37,-0.001090830782496456,0.003272492347489368,0.001090830782496456,0.004291029811507881,0.10759388252841497,0.00023107492023967337,0,0,0,0,0,0,1500,1500,1500,1500,1500,1500
1747606009.9002454,0.01,-0.01,-0.36,0.002181661564992912,-0.00545415391248228,-0.001090830782496456,0.004291029811507881,0.10759388252841497,0.00023107492023967337,0,0,0,0,0,0,1500,1500,1500,1500,1500,1500
1747606010.0006542,0.01,-0.01,-0.36,0.002181661564992912,-0.00545415391248228,-0.001090830782496456,0.004291029811507881,0.10759388252841497,0.00023107492023967337,0,0,0,0,0,0,1500,1500,1500,1500,1500,1500
1747606010.099927,0.03,0.01,-0.29,0.003272492347489368,-0.001090830782496456,0.002181661564992912,0.004291029811507881,0.10759388252841497,0.00023107492023967337,0,0,0,0,0,0,1500,1500,1500,1500,1500,1500
1747606010.2001176,0.01,0.01,-0.37,0.003272492347489368,0.0,0.0,0.004291029811507881,0.10759388252841497,0.00023107492023967337,0,0,0,0,0,0,1500,1500,1500,1500,1500,1500
1747606010.2999046,0.01,0.01,-0.37,0.003272492347489368,0.0,0.0,0.004291029811507881,0.10759388252841497,0.00023107492023967337,0,0,0,0,0,0,1500,1500,1500,1500,1500,1500
1747606010.3834493,0.04,0.0,-0.31,0.0,0.002181661564992912,0.0,0.004291029811507881,0.10759388252841497,0.00023107492023967337,0,0,0,0,0,0,1500,1500,1500,1500,1500,1500
1747606010.489959,0.04,0.0,-0.31,0.0,0.002181661564992912,0.0,0.004291029811507881,0.10759388252841497,0.00023107492023967337,0,0,0,0,0,0,1500,1500,1500,1500,1500,1500
1747606010.5833914,0.02,0.03,-0.36,0.0,-0.001090830782496456,0.0,0.004291029811507881,0.10759388252841497,0.00023107492023967337,0,0,0,0,0,0,1500,1500,1500,1500,1500,1500
1747606010.6662257,0.02,0.0,-0.32,0.001090830782496456,-0.001090830782496456,0.001090830782496456,0.004291029811507881,0.10759388252841497,0.00023107492023967337,0,0,0,0,0,0,1500,1500,1500,1500,1500,1500
1747606010.7667384,0.02,0.0,-0.32,0.001090830782496456,-0.001090830782496456,0.001090830782496456,0.004291029811507881,0.10759388252841497,0.00023107492023967337,0,0,0,0,0,0,1500,1500,1500,1500,1500,1500
1747606010.8675818,0.01,-0.01,-0.29,-0.001090830782496456,0.0,0.0,0.004291029811507881,0.10759388252841497,0.00023107492023967337,0,0,0,0,0,0,1500,1500,1500,1500,1500,1500
1747606010.9673824,0.03,0.01,-0.32,0.001090830782496456,-0.002181661564992912,0.001090830782496456,0.004291029811507881,0.10759388252841497,0.00023107492023967337,0,0,0,0,0,0,1500,1500,1500,1500,1500,1500
1747606011.0661209,0.03,0.01,-0.32,0.001090830782496456,-0.002181661564992912,0.001090830782496456,0.004291029811507881,0.10759388252841497,0.00023107492023967337,0,0,0,0,0,0,1500,1500,1500,1500,1500,1500
1747606011.1497023,0.03,0.0,-0.38,0.002181661564992912,0.0,0.0,0.004291029811507881,0.10759388252841497,0.00023107492023967337,0,0,0,0,0,0,1500,1500,1500,1500,1500,1500
1747606011.2496316,0.03,0.0,-0.38,0.002181661564992912,0.0,0.0,0.004291029811507881,0.10759388252841497,0.00023107492023967337,0,0,0,0,0,0,1500,1500,1500,1500,1500,1500
1747606011.3501341,0.05,0.0,-0.29,0.001090830782496456,0.001090830782496456,0.0,0.004291029811507881,0.10759388252841497,0.00023107492023967337,0,0,0,0,0,0,1500,1500,1500,1500,1500,1500
1747606011.433457,0.01,0.02,-0.39,0.004363323129985824,0.002181661564992912,-0.001090830782496456,0.004291029811507881,0.10759388252841497,0.00023107492023967337,0,0,0,0,0,0,1500,1500,1500,1500,1500,1500
1747606011.5332181,0.01,0.02,-0.39,0.004363323129985824,0.002181661564992912,-0.001090830782496456,0.004291029811507881,0.10759388252841497,0.00023107492023967337,0,0,0,0,0,0,1500,1500,1500,1500,1500,1500
1747606011.633031,0.05,0.01,-0.36,-0.001090830782496456,0.0,0.0,0.004291029811507881,0.10759388252841497,0.00023107492023967337,0,0,0,0,0,0,1500,1500,1500,1500,1500,1500
1747606011.7333221,0.05,0.01,-0.36,-0.001090830782496456,0.0,0.0,0.004291029811507881,0.10759388252841497,0.00023107492023967337,0,0,0,0,0,0,1500,1500,1500,1500,1500,1500
1747606011.833157,0.04,-0.03,-0.27,-0.002181661564992912,-0.001090830782496456,-0.001090830782496456,0.004291029811507881,0.10759388252841497,0.00023107492023967337,0,0,0,0,0,0,1500,1500,1500,1500,1500,1500
1747606011.9168475,0.03,0.02,-0.35000000000000003,-0.001090830782496456,-0.001090830782496456,0.0,0.004291029811507881,0.10759388252841497,0.00023107492023967337,0,0,0,0,0,0,1500,1500,1500,1500,1500,1500
1747606012.017193,0.03,0.02,-0.35000000000000003,-0.001090830782496456,-0.001090830782496456,0.0,0.004291029811507881,0.10759388252841497,0.00023107492023967337,0,0,0,0,0,0,1500,1500,1500,1500,1500,1500
1747606012.1173675,0.01,-0.02,-0.38,0.002181661564992912,0.0,0.0,0.004291029811507881,0.10759388252841497,0.00023107492023967337,0,0,0,0,0,0,1500,1500,1500,1500,1500,1500
1747606012.2164419,0.01,-0.02,-0.38,0.002181661564992912,0.0,0.0,0.004291029811507881,0.10759388252841497,0.00023107492023967337,0,0,0,0,0,0,1500,1500,1500,1500,1500,1500
1747606012.317064,0.02,0.0,-0.3,0.003272492347489368,0.002181661564992912,-0.001090830782496456,0.004291029811507881,0.10759388252841497,0.00023107492023967337,0,0,0,0,0,0,1500,1500,1500,1500,1500,1500
1747606012.399921,0.03,0.01,-0.33,-0.001090830782496456,-0.004363323129985824,0.0,0.004291029811507881,0.10759388252841497,0.00023107492023967337,0,0,0,0,0,0,1500,1500,1500,1500,1500,1500
1747606012.500034,0.03,0.01,-0.33,-0.001090830782496456,-0.004363323129985824,0.0,0.004291029811507881,0.10759388252841497,0.00023107492023967337,0,0,0,0,0,0,1500,1500,1500,1500,1500,1500
1747606012.5999694,0.02,0.0,-0.34,0.001090830782496456,0.0,-0.002181661564992912,0.004291029811507881,0.10759388252841497,0.00023107492023967337,0,0,0,0,0,0,1500,1500,1500,1500,1500,1500
1747606012.6835165,0.02,0.0,-0.34,0.001090830782496456,0.0,-0.002181661564992912,0.004291029811507881,0.10759388252841497,0.00023107492023967337,0,0,0,0,0,0,1500,1500,1500,1500,1500,1500
1747606012.7825036,0.04,0.0,-0.31,0.002181661564992912,0.0,-0.001090830782496456,0.004291029811507881,0.10759388252841497,0.00023107492023967337,0,0,0,0,0,0,1500,1500,1500,1500,1500,1500
1747606012.8830998,0.02,0.01,-0.39,0.001090830782496456,0.003272492347489368,-0.001090830782496456,0.004291029811507881,0.10759388252841497,0.00023107492023967337,0,0,0,0,0,0,1500,1500,1500,1500,1500,1500
1747606012.9833806,0.02,0.01,-0.39,0.001090830782496456,0.003272492347489368,-0.001090830782496456,0.004291029811507881,0.10759388252841497,0.00023107492023967337,0,0,0,0,0,0,1500,1500,1500,1500,1500,1500
1747606013.0838022,0.02,-0.03,-0.27,0.001090830782496456,-0.003272492347489368,0.001090830782496456,0.004291029811507881,0.10759388252841497,0.00023107492023967337,0,0,0,0,0,0,1500,1500,1500,1500,1500,1500
1747606013.1670864,0.02,-0.03,-0.27,0.001090830782496456,-0.003272492347489368,0.001090830782496456,0.004291029811507881,0.10759388252841497,0.00023107492023967337,0,0,0,0,0,0,1500,1500,1500,1500,1500,1500
1747606013.2671065,0.04,-0.01,-0.3,0.0,-0.00545415391248228,-0.001090830782496456,0.004291029811507881,0.10759388252841497,0.00023107492023967337,0,0,0,0,0,0,1500,1500,1500,1500,1500,1500
1747606013.3670132,0.01,0.01,-0.36,-0.001090830782496456,-0.00545415391248228,0.0,0.004291029811507881,0.10759388252841497,0.00023107492023967337,0,0,0,0,0,0,1500,1500,1500,1500,1500,1500
1747606013.4672048,0.01,0.01,-0.36,-0.001090830782496456,-0.00545415391248228,0.0,0.004291029811507881,0.10759388252841497,0.00023107492023967337,0,0,0,0,0,0,1500,1500,1500,1500,1500,1500
1747606013.5669782,0.04,0.0,-0.25,0.003272492347489368,-0.002181661564992912,-0.001090830782496456,0.004291029811507881,0.10759388252841497,0.00023107492023967337,0,0,0,0,0,0,1500,1500,1500,1500,1500,1500
1747606013.6506255,0.02,0.02,-0.33,0.0,0.003272492347489368,-0.001090830782496456,0.004291029811507881,0.10759388252841497,0.00023107492023967337,0,0,0,0,0,0,1500,1500,1500,1500,1500,1500
1747606013.7497642,0.02,0.02,-0.33,0.0,0.003272492347489368,-0.001090830782496456,0.004291029811507881,0.10759388252841497,0.00023107492023967337,0,0,0,0,0,0,1500,1500,1500,1500,1500,1500
1747606013.8498595,0.02,0.0,-0.4,0.003272492347489368,0.003272492347489368,0.001090830782496456,0.004291029811507881,0.10759388252841497,0.00023107492023967337,0,0,0,0,0,0,1500,1500,1500,1500,1500,1500
1747606013.9334369,0.02,0.0,-0.4,0.003272492347489368,0.003272492347489368,0.001090830782496456,0.004291029811507881,0.10759388252841497,0.00023107492023967337,0,0,0,0,0,0,1500,1500,1500,1500,1500,1500
1747606014.0327315,0.02,-0.02,-0.33,0.0,0.003272492347489368,-0.001090830782496456,0.004291029811507881,0.10759388252841497,0.00023107492023967337,0,0,0,0,0,0,1500,1500,1500,1500,1500,1500
1747606014.124335,0.03,0.0,-0.27,0.004363323129985824,-0.004363323129985824,-0.001090830782496456,0.004291029811507881,0.10759388252841497,0.00023107492023967337,0,0,0,0,0,0,1500,1500,1500,1500,1500,1500
1747606014.2159832,0.03,0.0,-0.27,0.004363323129985824,-0.004363323129985824,-0.001090830782496456,0.004291029811507881,0.10759388252841497,0.00023107492023967337,0,0,0,0,0,0,1500,1500,1500,1500,1500,1500
1747606014.3163657,0.01,-0.01,-0.35000000000000003,0.001090830782496456,0.0,0.001090830782496456,0.004291029811507881,0.10759388252841497,0.00023107492023967337,0,0,0,0,0,0,1500,1500,1500,1500,1500,1500
1747606014.4003522,0.01,-0.01,-0.35000000000000003,0.001090830782496456,0.0,0.001090830782496456,0.004291029811507881,0.10759388252841497,0.00023107492023967337,0,0,0,0,0,0,1500,1500,1500,1500,1500,1500
1747606014.4997525,0.03,0.0,-0.27,0.002181661564992912,-0.004363323129985824,-0.001090830782496456,0.004291029811507881,0.10759388252841497,0.00023107492023967337,0,0,0,0,0,0,1500,1500,1500,1500,1500,1500
1747606014.5999231,0.03,0.0,-0.27,0.002181661564992912,-0.004363323129985824,-0.001090830782496456,0.004291029811507881,0.10759388252841497,0.00023107492023967337,0,0,0,0,0,0,1500,1500,1500,1500,1500,1500
1747606014.6833055,0.04,0.03,-0.35000000000000003,-0.001090830782496456,0.0,0.0,0.004291029811507881,0.10759388252841497,0.00023107492023967337,0,0,0,0,0,0,1500,1500,1500,1500,1500,1500
1747606014.783786,0.04,-0.01,-0.3,0.002181661564992912,-0.001090830782496456,0.003272492347489368,0.004291029811507881,0.10759388252841497,0.00023107492023967337,0,0,0,0,0,0,1500,1500,1500,1500,1500,1500
1747606014.883119,0.04,-0.01,-0.3,0.002181661564992912,-0.001090830782496456,0.003272492347489368,0.004291029811507881,0.10759388252841497,0.00023107492023967337,0,0,0,0,0,0,1500,1500,1500,1500,1500,1500
1747606014.98318,0.02,0.02,-0.31,-0.001090830782496456,-0.001090830782496456,-0.001090830782496456,0.004291029811507881,0.10759388252841497,0.00023107492023967337,0,0,0,0,0,0,1500,1500,1500,1500,1500,1500
1747606015.0832174,0.03,0.02,-0.36,-0.002181661564992912,-0.001090830782496456,-0.002181661564992912,0.004291029811507881,0.10759388252841497,0.00023107492023967337,0,0,0,0,0,0,1500,1500,1500,1500,1500,1500
1747606015.1665447,0.03,0.02,-0.36,-0.002181661564992912,-0.001090830782496456,-0.002181661564992912,0.004291029811507881,0.10759388252841497,0.00023107492023967337,0,0,0,0,0,0,1500,1500,1500,1500,1500,1500
1747606015.2659404,0.01,-0.01,-0.33,0.003272492347489368,0.0,-0.001090830782496456,0.004291029811507881,0.10759388252841497,0.00023107492023967337,0,0,0,0,0,0,1500,1500,1500,1500,1500,1500
1747606015.366546,0.01,-0.01,-0.33,0.003272492347489368,0.0,-0.001090830782496456,0.004291029811507881,0.10759388252841497,0.00023107492023967337,0,0,0,0,0,0,1500,1500,1500,1500,1500,1500
1747606015.4665813,0.01,0.01,-0.27,0.0,0.0,-0.002181661564992912,0.004291029811507881,0.10759388252841497,0.00023107492023967337,0,0,0,0,0,0,1500,1500,1500,1500,1500,1500
1747606015.565996,0.01,0.0,-0.35000000000000003,0.002181661564992912,0.0,0.0,0.004291029811507881,0.10759388252841497,0.00023107492023967337,0,0,0,0,0,0,1500,1500,1500,1500,1500,1500
1747606015.6497762,0.01,0.0,-0.35000000000000003,0.002181661564992912,0.0,0.0,0.004291029811507881,0.10759388252841497,0.00023107492023967337,0,0,0,0,0,0,1500,1500,1500,1500,1500,1500
1747606015.7498944,0.04,-0.01,-0.28,0.002181661564992912,0.0,0.002181661564992912,0.004291029811507881,0.10759388252841497,0.00023107492023967337,0,0,0,0,0,0,1500,1500,1500,1500,1500,1500
1747606015.849789,0.04,-0.01,-0.28,0.002181661564992912,0.0,0.002181661564992912,0.004291029811507881,0.10759388252841497,0.00023107492023967337,0,0,0,0,0,0,1500,1500,1500,1500,1500,1500
1747606015.932759,0.04,0.0,-0.29,-0.002181661564992912,-0.001090830782496456,0.001090830782496456,0.004291029811507881,0.10759388252841497,0.00023107492023967337,0,0,0,0,0,0,1500,1500,1500,1500,1500,1500
1747606016.0248675,0.03,0.0,-0.39,-0.001090830782496456,0.003272492347489368,0.0,0.004291029811507881,0.10759388252841497,0.00023107492023967337,0,0,0,0,0,0,1500,1500,1500,1500,1500,1500
1747606016.133263,0.03,0.0,-0.39,-0.001090830782496456,0.003272492347489368,0.0,0.004291029811507881,0.10759388252841497,0.00023107492023967337,0,0,0,0,0,0,1500,1500,1500,1500,1500,1500
1747606016.2330945,0.05,-0.01,-0.28,-0.001090830782496456,-0.001090830782496456,-0.002181661564992912,0.004291029811507881,0.10759388252841497,0.00023107492023967337,0,0,0,0,0,0,1500,1500,1500,1500,1500,1500
1747606016.3327434,0.05,-0.01,-0.28,-0.001090830782496456,-0.001090830782496456,-0.002181661564992912,0.004291029811507881,0.10759388252841497,0.00023107492023967337,0,0,0,0,0,0,1500,1500,1500,1500,1500,1500
1747606016.416567,0.01,0.02,-0.29,0.0,-0.003272492347489368,-0.003272492347489368,0.004291029811507881,0.10759388252841497,0.00023107492023967337,0,0,0,0,0,0,1500,1500,1500,1500,1500,1500
1747606016.5159705,0.03,-0.02,-0.35000000000000003,0.002181661564992912,0.001090830782496456,0.0,0.004291029811507881,0.10759388252841497,0.00023107492023967337,0,0,0,0,0,0,1500,1500,1500,1500,1500,1500
1747606016.616676,0.03,-0.02,-0.35000000000000003,0.002181661564992912,0.001090830782496456,0.0,0.004291029811507881,0.10759388252841497,0.00023107492023967337,0,0,0,0,0,0,1500,1500,1500,1500,1500,1500
1747606016.7160113,0.03,0.01,-0.26,0.001090830782496456,0.004363323129985824,-0.001090830782496456,0.004291029811507881,0.10759388252841497,0.00023107492023967337,0,0,0,0,0,0,1500,1500,1500,1500,1500,1500
1747606016.8164105,0.03,0.01,-0.31,0.003272492347489368,-0.001090830782496456,0.0,0.004291029811507881,0.10759388252841497,0.00023107492023967337,0,0,0,0,0,0,1500,1500,1500,1500,1500,1500
1747606016.8999202,0.03,0.01,-0.31,0.003272492347489368,-0.001090830782496456,0.0,0.004291029811507881,0.10759388252841497,0.00023107492023967337,0,0,0,0,0,0,1500,1500,1500,1500,1500,1500
1747606016.9998033,0.0,0.0,-0.38,-0.001090830782496456,-0.002181661564992912,0.001090830782496456,0.004291029811507881,0.10759388252841497,0.00023107492023967337,0,0,0,0,0,0,1500,1500,1500,1500,1500,1500
1747606017.0990899,0.0,0.0,-0.38,-0.001090830782496456,-0.002181661564992912,0.001090830782496456,0.004291029811507881,0.10759388252841497,0.00023107492023967337,0,0,0,0,0,0,1500,1500,1500,1500,1500,1500
1747606017.1832676,0.04,0.0,-0.3,0.002181661564992912,0.002181661564992912,0.001090830782496456,0.004291029811507881,0.10759388252841497,0.00023107492023967337,0,0,0,0,0,0,1500,1500,1500,1500,1500,1500
1747606017.2829192,0.04,0.0,-0.3,0.002181661564992912,0.002181661564992912,0.001090830782496456,0.004291029811507881,0.10759388252841497,0.00023107492023967337,0,0,0,0,0,0,1500,1500,1500,1500,1500,1500
1747606017.3832648,0.02,0.0,-0.39,0.0,-0.002181661564992912,-0.002181661564992912,0.004291029811507881,0.10759388252841497,0.00023107492023967337,0,0,0,0,0,0,1500,1500,1500,1500,1500,1500
1747606017.482842,0.04,0.0,-0.32,0.001090830782496456,-0.00545415391248228,-0.001090830782496456,0.004291029811507881,0.10759388252841497,0.00023107492023967337,0,0,0,0,0,0,1500,1500,1500,1500,1500,1500
1747606017.583364,0.04,0.0,-0.32,0.001090830782496456,-0.00545415391248228,-0.001090830782496456,0.004291029811507881,0.10759388252841497,0.00023107492023967337,0,0,0,0,0,0,1500,1500,1500,1500,1500,1500
1747606017.667235,0.02,-0.03,-0.28,-0.001090830782496456,-0.003272492347489368,-0.002181661564992912,0.004291029811507881,0.10759388252841497,0.00023107492023967337,0,0,0,0,0,0,1500,1500,1500,1500,1500,1500
1747606017.766659,0.03,0.01,-0.34,0.0,-0.003272492347489368,0.0,0.004291029811507881,0.10759388252841497,0.00023107492023967337,0,0,0,0,0,0,1500,1500,1500,1500,1500,1500
1747606017.8659046,0.03,0.01,-0.34,0.0,-0.003272492347489368,0.0,0.004291029811507881,0.10759388252841497,0.00023107492023967337,0,0,0,0,0,0,1500,1500,1500,1500,1500,1500
1747606017.9498446,0.03,-0.01,-0.36,-0.002181661564992912,-0.004363323129985824,-0.001090830782496456,0.004291029811507881,0.10759388252841497,0.00023107492023967337,0,0,0,0,0,0,1500,1500,1500,1500,1500,1500
1747606018.049896,0.03,-0.01,-0.36,-0.002181661564992912,-0.004363323129985824,-0.001090830782496456,0.004291029811507881,0.10759388252841497,0.00023107492023967337,0,0,0,0,0,0,1500,1500,1500,1500,1500,1500
1747606018.1497257,0.02,0.0,-0.27,-0.001090830782496456,0.001090830782496456,-0.002181661564992912,0.004291029811507881,0.10759388252841497,0.00023107492023967337,0,0,0,0,0,0,1500,1500,1500,1500,1500,1500
1747606018.2499144,0.03,0.01,-0.36,0.001090830782496456,0.0,-0.003272492347489368,0.004291029811507881,0.10759388252841497,0.00023107492023967337,0,0,0,0,0,0,1500,1500,1500,1500,1500,1500
1747606018.3497412,0.03,0.01,-0.36,0.001090830782496456,0.0,-0.003272492347489368,0.004291029811507881,0.10759388252841497,0.00023107492023967337,0,0,0,0,0,0,1500,1500,1500,1500,1500,1500
1747606018.432631,0.02,0.0,-0.36,-0.00545415391248228,0.002181661564992912,0.0,0.004291029811507881,0.10759388252841497,0.00023107492023967337,0,0,0,0,0,0,1500,1500,1500,1500,1500,1500
1747606018.5330768,0.02,0.0,-0.36,-0.00545415391248228,0.002181661564992912,0.0,0.004291029811507881,0.10759388252841497,0.00023107492023967337,0,0,0,0,0,0,1500,1500,1500,1500,1500,1500
1747606018.632703,0.04,0.01,-0.25,0.002181661564992912,0.0,0.0,0.004291029811507881,0.10759388252841497,0.00023107492023967337,0,0,0,0,0,0,1500,1500,1500,1500,1500,1500
1747606018.732662,0.05,0.02,-0.33,-0.002181661564992912,-0.002181661564992912,0.001090830782496456,0.004291029811507881,0.10759388252841497,0.00023107492023967337,0,0,0,0,0,0,1500,1500,1500,1500,1500,1500
1747606018.8321369,0.05,0.02,-0.33,-0.002181661564992912,-0.002181661564992912,0.001090830782496456,0.004291029811507881,0.10759388252841497,0.00023107492023967337,0,0,0,0,0,0,1500,1500,1500,1500,1500,1500
1747606018.9159138,0.05,-0.01,-0.31,-0.002181661564992912,0.004363323129985824,0.001090830782496456,0.004291029811507881,0.10759388252841497,0.00023107492023967337,0,0,0,0,0,0,1500,1500,1500,1500,1500,1500
1747606019.0154045,0.05,-0.01,-0.31,-0.002181661564992912,0.004363323129985824,0.001090830782496456,0.004291029811507881,0.10759388252841497,0.00023107492023967337,0,0,0,0,0,0,1500,1500,1500,1500,1500,1500
1747606019.1159623,0.01,0.01,-0.32,-0.001090830782496456,-0.001090830782496456,-0.001090830782496456,0.004291029811507881,0.10759388252841497,0.00023107492023967337,0,0,0,0,0,0,1500,1500,1500,1500,1500,1500
1747606019.199823,0.04,0.02,-0.29,0.001090830782496456,0.001090830782496456,-0.001090830782496456,0.004291029811507881,0.10759388252841497,0.00023107492023967337,0,0,0,0,0,0,1500,1500,1500,1500,1500,1500
1747606019.2998052,0.04,0.02,-0.29,0.001090830782496456,0.001090830782496456,-0.001090830782496456,0.004291029811507881,0.10759388252841497,0.00023107492023967337,0,0,0,0,0,0,1500,1500,1500,1500,1500,1500
1747606019.3997433,0.01,0.0,-0.33,0.002181661564992912,0.00545415391248228,-0.001090830782496456,0.004291029811507881,0.10759388252841497,0.00023107492023967337,0,0,0,0,0,0,1500,1500,1500,1500,1500,1500
1747606019.4997768,0.01,0.0,-0.33,0.002181661564992912,0.00545415391248228,-0.001090830782496456,0.004291029811507881,0.10759388252841497,0.00023107492023967337,0,0,0,0,0,0,1500,1500,1500,1500,1500,1500
1747606019.5982077,0.04,-0.01,-0.25,0.002181661564992912,-0.001090830782496456,0.001090830782496456,0.004291029811507881,0.10759388252841497,0.00023107492023967337,0,0,0,0,0,0,1500,1500,1500,1500,1500,1500
1747606019.6827927,0.02,0.02,-0.36,0.001090830782496456,-0.002181661564992912,-0.001090830782496456,0.004291029811507881,0.10759388252841497,0.00023107492023967337,0,0,0,0,0,0,1500,1500,1500,1500,1500,1500
1747606019.7822251,0.02,0.02,-0.36,0.001090830782496456,-0.002181661564992912,-0.001090830782496456,0.004291029811507881,0.10759388252841497,0.00023107492023967337,0,0,0,0,0,0,1500,1500,1500,1500,1500,1500
1747606019.884404,0.01,-0.04,-0.31,-0.001090830782496456,-0.003272492347489368,0.001090830782496456,0.004291029811507881,0.10759388252841497,0.00023107492023967337,0,0,0,0,0,0,1500,1500,1500,1500,1500,1500
1747606019.9827876,0.02,0.01,-0.27,0.0,0.0,-0.001090830782496456,0.004291029811507881,0.10759388252841497,0.00023107492023967337,0,0,0,0,0,0,1500,1500,1500,1500,1500,1500
1747606020.0828526,0.02,0.01,-0.27,0.0,0.0,-0.001090830782496456,0.004291029811507881,0.10759388252841497,0.00023107492023967337,0,0,0,0,0,0,1500,1500,1500,1500,1500,1500
1747606020.1662931,0.04,0.01,-0.36,0.004363323129985824,0.0,-0.002181661564992912,0.004291029811507881,0.10759388252841497,0.00023107492023967337,0,0,0,0,0,0,1500,1500,1500,1500,1500,1500
1747606020.2666621,0.04,0.01,-0.36,0.004363323129985824,0.0,-0.002181661564992912,0.004291029811507881,0.10759388252841497,0.00023107492023967337,0,0,0,0,0,0,1500,1500,1500,1500,1500,1500
1747606020.3658404,0.03,0.0,-0.37,0.0,0.001090830782496456,0.001090830782496456,0.004291029811507881,0.10759388252841497,0.00023107492023967337,0,0,0,0,0,0,1500,1500,1500,1500,1500,1500
1747606020.4672897,0.03,-0.01,-0.24,0.0,0.0,0.0,0.004291029811507881,0.10759388252841497,0.00023107492023967337,0,0,0,0,0,0,1500,1500,1500,1500,1500,1500
1747606020.5657074,0.03,-0.01,-0.24,0.0,0.0,0.0,0.004291029811507881,0.10759388252841497,0.00023107492023967337,0,0,0,0,0,0,1500,1500,1500,1500,1500,1500
1747606020.6498396,0.03,0.01,-0.37,0.003272492347489368,0.004363323129985824,0.0,0.004291029811507881,0.10759388252841497,0.00023107492023967337,0,0,0,0,0,0,1500,1500,1500,1500,1500,1500
1747606020.7498164,0.03,0.01,-0.37,0.003272492347489368,0.004363323129985824,0.0,0.004291029811507881,0.10759388252841497,0.00023107492023967337,0,0,0,0,0,0,1500,1500,1500,1500,1500,1500
1747606020.848825,0.02,-0.01,-0.3,0.004363323129985824,0.007635815477475192,0.0,0.004291029811507881,0.10759388252841497,0.00023107492023967337,0,0,0,0,0,0,1500,1500,1500,1500,1500,1500
1747606020.9331398,0.01,0.01,-0.33,-0.001090830782496456,-0.002181661564992912,0.001090830782496456,0.004291029811507881,0.10759388252841497,0.00023107492023967337,0,0,0,0,0,0,1500,1500,1500,1500,1500,1500
1747606021.0331578,0.01,0.01,-0.33,-0.001090830782496456,-0.002181661564992912,0.001090830782496456,0.004291029811507881,0.10759388252841497,0.00023107492023967337,0,0,0,0,0,0,1500,1500,1500,1500,1500,1500
1747606021.1330862,0.01,0.0,-0.37,-0.001090830782496456,0.004363323129985824,0.001090830782496456,0.004291029811507881,0.10759388252841497,0.00023107492023967337,0,0,0,0,0,0,1500,1500,1500,1500,1500,1500
1747606021.2301588,0.04,-0.02,-0.32,-0.001090830782496456,-0.003272492347489368,0.001090830782496456,0.004291029811507881,0.10759388252841497,0.00023107492023967337,0,0,0,0,0,0,1500,1500,1500,1500,1500,1500
1747606021.333152,0.04,-0.02,-0.32,-0.001090830782496456,-0.003272492347489368,0.001090830782496456,0.004291029811507881,0.10759388252841497,0.00023107492023967337,0,0,0,0,0,0,1500,1500,1500,1500,1500,1500
1747606021.4166627,0.03,0.0,-0.26,0.0,0.0,0.001090830782496456,0.004291029811507881,0.10759388252841497,0.00023107492023967337,0,0,0,0,0,0,1500,1500,1500,1500,1500,1500
1747606021.516631,0.03,0.0,-0.26,0.0,0.0,0.001090830782496456,0.004291029811507881,0.10759388252841497,0.00023107492023967337,0,0,0,0,0,0,1500,1500,1500,1500,1500,1500
1747606021.616571,0.03,-0.02,-0.36,-0.002181661564992912,0.002181661564992912,0.001090830782496456,0.004291029811507881,0.10759388252841497,0.00023107492023967337,0,0,0,0,0,0,1500,1500,1500,1500,1500,1500
1747606021.7164836,0.02,-0.01,-0.26,0.002181661564992912,0.0,0.0,0.004291029811507881,0.10759388252841497,0.00023107492023967337,0,0,0,0,0,0,1500,1500,1500,1500,1500,1500
1747606021.8163214,0.02,-0.01,-0.26,0.002181661564992912,0.0,0.0,0.004291029811507881,0.10759388252841497,0.00023107492023967337,0,0,0,0,0,0,1500,1500,1500,1500,1500,1500
1747606021.8997169,0.02,0.0,-0.3,-0.002181661564992912,0.001090830782496456,-0.002181661564992912,0.004291029811507881,0.10759388252841497,0.00023107492023967337,0,0,0,0,0,0,1500,1500,1500,1500,1500,1500
1747606021.9983876,0.02,0.0,-0.3,-0.002181661564992912,0.001090830782496456,-0.002181661564992912,0.004291029811507881,0.10759388252841497,0.00023107492023967337,0,0,0,0,0,0,1500,1500,1500,1500,1500,1500
1747606022.1009824,0.03,0.0,-0.29,-0.001090830782496456,0.002181661564992912,0.0,0.004291029811507881,0.10759388252841497,0.00023107492023967337,0,0,0,0,0,0,1500,1500,1500,1500,1500,1500
1747606022.1998713,0.02,-0.02,-0.28,-0.002181661564992912,0.003272492347489368,0.0,0.004291029811507881,0.10759388252841497,0.00023107492023967337,0,0,0,0,0,0,1500,1500,1500,1500,1500,1500
1747606022.3000078,0.02,-0.02,-0.28,-0.002181661564992912,0.003272492347489368,0.0,0.004291029811507881,0.10759388252841497,0.00023107492023967337,0,0,0,0,0,0,1500,1500,1500,1500,1500,1500
1747606022.3970957,0.05,0.01,-0.33,0.002181661564992912,0.001090830782496456,0.001090830782496456,0.004291029811507881,0.10759388252841497,0.00023107492023967337,0,0,0,0,0,0,1500,1500,1500,1500,1500,1500
1747606022.483066,0.05,0.01,-0.33,0.002181661564992912,0.001090830782496456,0.001090830782496456,0.004291029811507881,0.10759388252841497,0.00023107492023967337,0,0,0,0,0,0,1500,1500,1500,1500,1500,1500
1747606022.583472,0.04,0.0,-0.38,0.001090830782496456,0.001090830782496456,0.001090830782496456,0.004291029811507881,0.10759388252841497,0.00023107492023967337,0,0,0,0,0,0,1500,1500,1500,1500,1500,1500
1747606022.6664371,0.03,-0.02,-0.28,-0.001090830782496456,-0.002181661564992912,0.0,0.004291029811507881,0.10759388252841497,0.00023107492023967337,0,0,0,0,0,0,1500,1500,1500,1500,1500,1500
1747606022.7655807,0.03,-0.02,-0.28,-0.001090830782496456,-0.002181661564992912,0.0,0.004291029811507881,0.10759388252841497,0.00023107492023967337,0,0,0,0,0,0,1500,1500,1500,1500,1500,1500
1747606022.8668013,0.04,0.0,-0.35000000000000003,0.001090830782496456,-0.003272492347489368,0.002181661564992912,0.004291029811507881,0.10759388252841497,0.00023107492023967337,0,0,0,0,0,0,1500,1500,1500,1500,1500,1500
1747606022.9666636,0.04,0.0,-0.35000000000000003,0.001090830782496456,-0.003272492347489368,0.002181661564992912,0.004291029811507881,0.10759388252841497,0.00023107492023967337,0,0,0,0,0,0,1500,1500,1500,1500,1500,1500
1747606023.0658524,0.02,0.01,-0.35000000000000003,-0.001090830782496456,0.006544984694978736,0.0,0.004291029811507881,0.10759388252841497,0.00023107492023967337,0,0,0,0,0,0,1500,1500,1500,1500,1500,1500
1747606023.1485097,0.02,-0.01,-0.26,0.0,-0.00545415391248228,-0.001090830782496456,0.004291029811507881,0.10759388252841497,0.00023107492023967337,0,0,0,0,0,0,1500,1500,1500,1500,1500,1500
1747606023.249987,0.02,-0.01,-0.26,0.0,-0.00545415391248228,-0.001090830782496456,0.004291029811507881,0.10759388252841497,0.00023107492023967337,0,0,0,0,0,0,1500,1500,1500,1500,1500,1500
1747606023.3497043,0.03,0.01,-0.38,0.0,-0.002181661564992912,0.0,0.004291029811507881,0.10759388252841497,0.00023107492023967337,0,0,0,0,0,0,1500,1500,1500,1500,1500,1500
1747606023.4331374,0.03,0.01,-0.38,0.0,-0.002181661564992912,0.0,0.004291029811507881,0.10759388252841497,0.00023107492023967337,0,0,0,0,0,0,1500,1500,1500,1500,1500,1500
1747606023.5322587,0.03,0.0,-0.35000000000000003,-0.006544984694978736,-0.003272492347489368,0.001090830782496456,0.004291029811507881,0.10759388252841497,0.00023107492023967337,0,0,0,0,0,0,1500,1500,1500,1500,1500,1500
1747606023.6335561,0.01,0.0,-0.26,0.0,0.002181661564992912,-0.001090830782496456,0.004291029811507881,0.10759388252841497,0.00023107492023967337,0,0,0,0,0,0,1500,1500,1500,1500,1500,1500
1747606023.7330348,0.01,0.0,-0.26,0.0,0.002181661564992912,-0.001090830782496456,0.004291029811507881,0.10759388252841497,0.00023107492023967337,0,0,0,0,0,0,1500,1500,1500,1500,1500,1500
1747606023.8330536,0.05,0.02,-0.28,-0.001090830782496456,0.0,-0.001090830782496456,0.004291029811507881,0.10759388252841497,0.00023107492023967337,0,0,0,0,0,0,1500,1500,1500,1500,1500,1500
1747606023.9170036,0.05,0.02,-0.28,-0.001090830782496456,0.0,-0.001090830782496456,0.004291029811507881,0.10759388252841497,0.00023107492023967337,0,0,0,0,0,0,1500,1500,1500,1500,1500,1500
1747606024.0168147,0.01,0.0,-0.35000000000000003,0.002181661564992912,0.001090830782496456,-0.001090830782496456,0.004291029811507881,0.10759388252841497,0.00023107492023967337,0,0,0,0,0,0,1500,1500,1500,1500,1500,1500
1747606024.116475,0.03,-0.03,-0.26,-0.003272492347489368,0.0,0.0,0.004291029811507881,0.10759388252841497,0.00023107492023967337,0,0,0,0,0,0,1500,1500,1500,1500,1500,1500
1747606024.2160902,0.03,-0.03,-0.26,-0.003272492347489368,0.0,0.0,0.004291029811507881,0.10759388252841497,0.00023107492023967337,0,0,0,0,0,0,1500,1500,1500,1500,1500,1500
1747606024.3160527,0.05,0.02,-0.35000000000000003,-0.004363323129985824,-0.00545415391248228,0.002181661564992912,0.004291029811507881,0.10759388252841497,0.00023107492023967337,0,0,0,0,0,0,1500,1500,1500,1500,1500,1500
1747606024.3997955,0.04,-0.02,-0.27,0.0,-0.001090830782496456,-0.001090830782496456,0.004291029811507881,0.10759388252841497,0.00023107492023967337,0,0,0,0,0,0,1500,1500,1500,1500,1500,1500
1747606024.4989722,0.04,-0.02,-0.27,0.0,-0.001090830782496456,-0.001090830782496456,0.004291029811507881,0.10759388252841497,0.00023107492023967337,0,0,0,0,0,0,1500,1500,1500,1500,1500,1500
1747606024.5991476,0.02,0.0,-0.3,0.001090830782496456,0.0,-0.002181661564992912,0.004291029811507881,0.10759388252841497,0.00023107492023967337,0,0,0,0,0,0,1500,1500,1500,1500,1500,1500
1747606024.6825078,0.02,0.0,-0.3,0.001090830782496456,0.0,-0.002181661564992912,0.004291029811507881,0.10759388252841497,0.00023107492023967337,0,0,0,0,0,0,1500,1500,1500,1500,1500,1500
1747606024.7831612,0.03,0.01,-0.35000000000000003,0.002181661564992912,0.0,-0.001090830782496456,0.004291029811507881,0.10759388252841497,0.00023107492023967337,0,0,0,0,0,0,1500,1500,1500,1500,1500,1500
1747606024.8684278,0.01,-0.03,-0.35000000000000003,0.0,0.0,-0.001090830782496456,0.004291029811507881,0.10759388252841497,0.00023107492023967337,0,0,0,0,0,0,1500,1500,1500,1500,1500,1500
1747606024.9659183,0.01,-0.03,-0.35000000000000003,0.0,0.0,-0.001090830782496456,0.004291029811507881,0.10759388252841497,0.00023107492023967337,0,0,0,0,0,0,1500,1500,1500,1500,1500,1500
1747606025.066241,0.01,0.0,-0.29,-0.002181661564992912,0.001090830782496456,-0.002181661564992912,0.004291029811507881,0.10759388252841497,0.00023107492023967337,0,0,0,0,0,0,1500,1500,1500,1500,1500,1500
1747606025.1497595,0.01,0.0,-0.29,-0.002181661564992912,0.001090830782496456,-0.002181661564992912,0.004291029811507881,0.10759388252841497,0.00023107492023967337,0,0,0,0,0,0,1500,1500,1500,1500,1500,1500
1747606025.2490485,0.01,0.0,-0.36,0.002181661564992912,0.002181661564992912,0.0,0.004291029811507881,0.10759388252841497,0.00023107492023967337,0,0,0,0,0,0,1500,1500,1500,1500,1500,1500
1747606025.3500123,0.05,-0.02,-0.3,0.001090830782496456,-0.002181661564992912,0.001090830782496456,0.004291029811507881,0.10759388252841497,0.00023107492023967337,0,0,0,0,0,0,1500,1500,1500,1500,1500,1500
1747606025.4330359,0.05,-0.02,-0.3,0.001090830782496456,-0.002181661564992912,0.001090830782496456,0.004291029811507881,0.10759388252841497,0.00023107492023967337,0,0,0,0,0,0,1500,1500,1500,1500,1500,1500
1747606025.532003,0.04,0.0,-0.35000000000000003,0.0,0.003272492347489368,0.0,0.004291029811507881,0.10759388252841497,0.00023107492023967337,0,0,0,0,0,0,1500,1500,1500,1500,1500,1500
1747606025.6322074,0.04,0.0,-0.35000000000000003,0.0,0.003272492347489368,0.0,0.004291029811507881,0.10759388252841497,0.00023107492023967337,0,0,0,0,0,0,1500,1500,1500,1500,1500,1500
1747606025.7327852,0.04,0.0,-0.38,-0.004363323129985824,0.003272492347489368,0.001090830782496456,0.004291029811507881,0.10759388252841497,0.00023107492023967337,0,0,0,0,0,0,1500,1500,1500,1500,1500,1500
1747606025.8325143,0.04,-0.01,-0.29,0.0,-0.003272492347489368,0.0,0.004291029811507881,0.10759388252841497,0.00023107492023967337,0,0,0,0,0,0,1500,1500,1500,1500,1500,1500
1747606025.9157684,0.04,-0.01,-0.29,0.0,-0.003272492347489368,0.0,0.004291029811507881,0.10759388252841497,0.00023107492023967337,0,0,0,0,0,0,1500,1500,1500,1500,1500,1500
1747606026.0167122,0.03,0.0,-0.28,0.002181661564992912,-0.001090830782496456,0.0,0.004291029811507881,0.10759388252841497,0.00023107492023967337,0,0,0,0,0,0,1500,1500,1500,1500,1500,1500
1747606026.1158454,0.03,0.0,-0.28,0.002181661564992912,-0.001090830782496456,0.0,0.004291029811507881,0.10759388252841497,0.00023107492023967337,0,0,0,0,0,0,1500,1500,1500,1500,1500,1500
1747606026.199045,0.0,-0.03,-0.33,-0.001090830782496456,-0.003272492347489368,0.0,0.004291029811507881,0.10759388252841497,0.00023107492023967337,0,0,0,0,0,0,1500,1500,1500,1500,1500,1500
1747606026.2987127,0.02,0.0,-0.27,-0.001090830782496456,0.002181661564992912,0.0,0.004291029811507881,0.10759388252841497,0.00023107492023967337,0,0,0,0,0,0,1500,1500,1500,1500,1500,1500
1747606026.398674,0.02,0.0,-0.27,-0.001090830782496456,0.002181661564992912,0.0,0.004291029811507881,0.10759388252841497,0.00023107492023967337,0,0,0,0,0,0,1500,1500,1500,1500,1500,1500
1747606026.499184,0.01,0.0,-0.3,0.001090830782496456,0.003272492347489368,0.0,0.004291029811507881,0.10759388252841497,0.00023107492023967337,0,0,0,0,0,0,1500,1500,1500,1500,1500,1500
1747606026.5988474,0.01,0.0,-0.3,0.001090830782496456,0.003272492347489368,0.0,0.004291029811507881,0.10759388252841497,0.00023107492023967337,0,0,0,0,0,0,1500,1500,1500,1500,1500,1500
1747606026.6830468,0.03,0.0,-0.39,0.001090830782496456,-0.003272492347489368,-0.001090830782496456,0.004291029811507881,0.10759388252841497,0.00023107492023967337,0,0,0,0,0,0,1500,1500,1500,1500,1500,1500
1747606026.7829473,0.02,0.0,-0.31,0.002181661564992912,-0.003272492347489368,0.0,0.004291029811507881,0.10759388252841497,0.00023107492023967337,0,0,0,0,0,0,1500,1500,1500,1500,1500,1500
1747606026.8819041,0.02,0.0,-0.31,0.002181661564992912,-0.003272492347489368,0.0,0.004291029811507881,0.10759388252841497,0.00023107492023967337,0,0,0,0,0,0,1500,1500,1500,1500,1500,1500
1747606026.982914,0.02,0.0,-0.36,-0.001090830782496456,-0.001090830782496456,0.002181661564992912,0.004291029811507881,0.10759388252841497,0.00023107492023967337,0,0,0,0,0,0,1500,1500,1500,1500,1500,1500
1747606027.078748,0.02,0.0,-0.33,0.006544984694978736,-0.002181661564992912,-0.001090830782496456,0.004291029811507881,0.10759388252841497,0.00023107492023967337,0,0,0,0,0,0,1500,1500,1500,1500,1500,1500
1747606027.1657593,0.02,0.0,-0.33,0.006544984694978736,-0.002181661564992912,-0.001090830782496456,0.004291029811507881,0.10759388252841497,0.00023107492023967337,0,0,0,0,0,0,1500,1500,1500,1500,1500,1500
1747606027.2664359,0.02,-0.03,-0.29,-0.002181661564992912,-0.00545415391248228,-0.002181661564992912,0.004291029811507881,0.10759388252841497,0.00023107492023967337,0,0,0,0,0,0,1500,1500,1500,1500,1500,1500
1747606027.365544,0.02,-0.03,-0.29,-0.002181661564992912,-0.00545415391248228,-0.002181661564992912,0.004291029811507881,0.10759388252841497,0.00023107492023967337,0,0,0,0,0,0,1500,1500,1500,1500,1500,1500
1747606027.4659626,0.03,0.0,-0.35000000000000003,0.003272492347489368,0.00545415391248228,0.0,0.004291029811507881,0.10759388252841497,0.00023107492023967337,0,0,0,0,0,0,1500,1500,1500,1500,1500,1500
1747606027.5657105,0.01,0.0,-0.32,-0.002181661564992912,0.002181661564992912,0.001090830782496456,0.004291029811507881,0.10759388252841497,0.00023107492023967337,0,0,0,0,0,0,1500,1500,1500,1500,1500,1500
1747606027.6483984,0.01,0.0,-0.32,-0.002181661564992912,0.002181661564992912,0.001090830782496456,0.004291029811507881,0.10759388252841497,0.00023107492023967337,0,0,0,0,0,0,1500,1500,1500,1500,1500,1500
1747606027.7491813,0.02,-0.01,-0.27,0.001090830782496456,-0.001090830782496456,0.001090830782496456,0.004291029811507881,0.10759388252841497,0.00023107492023967337,0,0,0,0,0,0,1500,1500,1500,1500,1500,1500
1747606027.8499405,0.02,-0.01,-0.27,0.001090830782496456,-0.001090830782496456,0.001090830782496456,0.004291029811507881,0.10759388252841497,0.00023107492023967337,0,0,0,0,0,0,1500,1500,1500,1500,1500,1500
1747606027.9335592,0.01,0.02,-0.35000000000000003,-0.001090830782496456,-0.001090830782496456,0.0,0.004291029811507881,0.10759388252841497,0.00023107492023967337,0,0,0,0,0,0,1500,1500,1500,1500,1500,1500
1747606028.032611,0.03,0.01,-0.35000000000000003,0.0,0.002181661564992912,0.0,0.004291029811507881,0.10759388252841497,0.00023107492023967337,0,0,0,0,0,0,1500,1500,1500,1500,1500,1500
1747606028.132797,0.03,0.01,-0.35000000000000003,0.0,0.002181661564992912,0.0,0.004291029811507881,0.10759388252841497,0.00023107492023967337,0,0,0,0,0,0,1500,1500,1500,1500,1500,1500
1747606028.2325184,0.02,-0.01,-0.25,0.001090830782496456,0.002181661564992912,0.0,0.004291029811507881,0.10759388252841497,0.00023107492023967337,0,0,0,0,0,0,1500,1500,1500,1500,1500,1500
1747606028.332978,0.02,-0.01,-0.25,0.001090830782496456,0.002181661564992912,0.0,0.004291029811507881,0.10759388252841497,0.00023107492023967337,0,0,0,0,0,0,1500,1500,1500,1500,1500,1500
1747606028.415506,0.03,0.02,-0.34,0.001090830782496456,-0.004363323129985824,0.001090830782496456,0.004291029811507881,0.10759388252841497,0.00023107492023967337,0,0,0,0,0,0,1500,1500,1500,1500,1500,1500
1747606028.5157652,0.02,0.0,-0.4,0.0,-0.004363323129985824,-0.001090830782496456,0.004291029811507881,0.10759388252841497,0.00023107492023967337,0,0,0,0,0,0,1500,1500,1500,1500,1500,1500
1747606028.6164086,0.02,0.0,-0.4,0.0,-0.004363323129985824,-0.001090830782496456,0.004291029811507881,0.10759388252841497,0.00023107492023967337,0,0,0,0,0,0,1500,1500,1500,1500,1500,1500
1747606028.699825,0.04,-0.02,-0.26,0.003272492347489368,-0.002181661564992912,0.001090830782496456,0.004291029811507881,0.10759388252841497,0.00023107492023967337,0,0,0,0,0,0,1500,1500,1500,1500,1500,1500
1747606028.7991078,0.04,-0.02,-0.26,0.003272492347489368,-0.002181661564992912,0.001090830782496456,0.004291029811507881,0.10759388252841497,0.00023107492023967337,0,0,0,0,0,0,1500,1500,1500,1500,1500,1500
1747606028.899767,0.03,0.01,-0.37,0.002181661564992912,0.0,0.001090830782496456,0.004291029811507881,0.10759388252841497,0.00023107492023967337,0,0,0,0,0,0,1500,1500,1500,1500,1500,1500
1747606028.9982235,0.0,0.01,-0.33,-0.001090830782496456,-0.002181661564992912,0.002181661564992912,0.004291029811507881,0.10759388252841497,0.00023107492023967337,0,0,0,0,0,0,1500,1500,1500,1500,1500,1500
1747606029.0991862,0.0,0.01,-0.33,-0.001090830782496456,-0.002181661564992912,0.002181661564992912,0.004291029811507881,0.10759388252841497,0.00023107492023967337,0,0,0,0,0,0,1500,1500,1500,1500,1500,1500
1747606029.183376,0.03,-0.01,-0.26,-0.003272492347489368,0.0,-0.001090830782496456,0.004291029811507881,0.10759388252841497,0.00023107492023967337,0,0,0,0,0,0,1500,1500,1500,1500,1500,1500
1747606029.2821436,0.03,-0.01,-0.26,-0.003272492347489368,0.0,-0.001090830782496456,0.004291029811507881,0.10759388252841497,0.00023107492023967337,0,0,0,0,0,0,1500,1500,1500,1500,1500,1500
1747606029.3830318,0.0,0.03,-0.31,0.002181661564992912,0.003272492347489368,0.001090830782496456,0.004291029811507881,0.10759388252841497,0.00023107492023967337,0,0,0,0,0,0,1500,1500,1500,1500,1500,1500
1747606029.483155,0.02,-0.01,-0.3,-0.001090830782496456,0.001090830782496456,-0.001090830782496456,0.004291029811507881,0.10759388252841497,0.00023107492023967337,0,0,0,0,0,0,1500,1500,1500,1500,1500,1500
1747606029.5826762,0.02,-0.01,-0.3,-0.001090830782496456,0.001090830782496456,-0.001090830782496456,0.004291029811507881,0.10759388252841497,0.00023107492023967337,0,0,0,0,0,0,1500,1500,1500,1500,1500,1500
1747606029.6654487,0.02,-0.02,-0.29,0.003272492347489368,-0.002181661564992912,0.001090830782496456,0.004291029811507881,0.10759388252841497,0.00023107492023967337,0,0,0,0,0,0,1500,1500,1500,1500,1500,1500
1747606029.765921,0.03,0.0,-0.36,0.0,-0.001090830782496456,0.001090830782496456,0.004291029811507881,0.10759388252841497,0.00023107492023967337,0,0,0,0,0,0,1500,1500,1500,1500,1500,1500
1747606029.8653917,0.03,0.0,-0.36,0.0,-0.001090830782496456,0.001090830782496456,0.004291029811507881,0.10759388252841497,0.00023107492023967337,0,0,0,0,0,0,1500,1500,1500,1500,1500,1500
1747606029.949279,0.04,-0.01,-0.39,0.001090830782496456,-0.001090830782496456,0.0,0.004291029811507881,0.10759388252841497,0.00023107492023967337,0,0,0,0,0,0,1500,1500,1500,1500,1500,1500
1747606030.0487144,0.04,-0.01,-0.39,0.001090830782496456,-0.001090830782496456,0.0,0.004291029811507881,0.10759388252841497,0.00023107492023967337,0,0,0,0,0,0,1500,1500,1500,1500,1500,1500
1747606030.148661,0.02,-0.02,-0.24,-0.001090830782496456,0.0,-0.002181661564992912,0.004291029811507881,0.10759388252841497,0.00023107492023967337,0,0,0,0,0,0,1500,1500,1500,1500,1500,1500
1747606030.2556305,0.01,0.02,-0.37,-0.004363323129985824,0.002181661564992912,0.0,0.004291029811507881,0.10759388252841497,0.00023107492023967337,0,0,0,0,0,0,1500,1500,1500,1500,1500,1500
1747606030.3489347,0.01,0.02,-0.37,-0.004363323129985824,0.002181661564992912,0.0,0.004291029811507881,0.10759388252841497,0.00023107492023967337,0,0,0,0,0,0,1500,1500,1500,1500,1500,1500
1747606030.4326162,0.03,-0.01,-0.3,-0.001090830782496456,0.0,-0.002181661564992912,0.004291029811507881,0.10759388252841497,0.00023107492023967337,0,0,0,0,0,0,1500,1500,1500,1500,1500,1500
1747606030.5324585,0.03,-0.01,-0.3,-0.001090830782496456,0.0,-0.002181661564992912,0.004291029811507881,0.10759388252841497,0.00023107492023967337,0,0,0,0,0,0,1500,1500,1500,1500,1500,1500
1747606030.632901,0.02,0.02,-0.32,-0.001090830782496456,0.002181661564992912,-0.002181661564992912,0.004291029811507881,0.10759388252841497,0.00023107492023967337,0,0,0,0,0,0,1500,1500,1500,1500,1500,1500
1747606030.732711,0.04,0.0,-0.35000000000000003,0.0,-0.003272492347489368,0.002181661564992912,3.1409438624006216,-1.5707963267948966,-3.1403281043697717,0,0,0,0,0,0,1500,1500,1500,1500,1500,1500
1747606030.832152,0.04,0.0,-0.35000000000000003,0.0,-0.003272492347489368,0.002181661564992912,3.1409438624006216,-1.5707963267948966,-3.1403281043697717,0,0,0,0,0,0,1500,1500,1500,1500,1500,1500
1747606030.9158208,0.03,-0.02,-0.34,-0.002181661564992912,-0.001090830782496456,0.0,0.004291029811507881,0.10759388252841497,0.00023107492023967337,0,0,0,0,0,0,1500,1500,1500,1500,1500,1500
1747606031.0157301,0.03,-0.02,-0.34,-0.002181661564992912,-0.001090830782496456,0.0,0.004291029811507881,0.10759388252841497,0.00023107492023967337,0,0,0,0,0,0,1500,1500,1500,1500,1500,1500
1747606031.115632,0.03,-0.01,-0.29,0.0,-0.003272492347489368,0.001090830782496456,0.004291029811507881,0.10759388252841497,0.00023107492023967337,0,0,0,0,0,0,1500,1500,1500,1500,1500,1500
1747606031.1998374,0.02,0.01,-0.38,0.002181661564992912,0.002181661564992912,-0.002181661564992912,0.004291029811507881,0.10759388252841497,0.00023107492023967337,0,0,0,0,0,0,1500,1500,1500,1500,1500,1500
1747606031.2998602,0.02,0.01,-0.38,0.002181661564992912,0.002181661564992912,-0.002181661564992912,0.004291029811507881,0.10759388252841497,0.00023107492023967337,0,0,0,0,0,0,1500,1500,1500,1500,1500,1500
1747606031.3991425,0.03,-0.03,-0.25,0.0,-0.004363323129985824,0.0,0.004291029811507881,0.10759388252841497,0.00023107492023967337,0,0,0,0,0,0,1500,1500,1500,1500,1500,1500
1747606031.4999568,0.03,-0.03,-0.25,0.0,-0.004363323129985824,0.0,0.004291029811507881,0.10759388252841497,0.00023107492023967337,0,0,0,0,0,0,1500,1500,1500,1500,1500,1500
1747606031.5984478,0.01,0.0,-0.32,0.002181661564992912,0.002181661564992912,-0.001090830782496456,0.004291029811507881,0.10759388252841497,0.00023107492023967337,0,0,0,0,0,0,1500,1500,1500,1500,1500,1500
1747606031.683121,0.03,0.0,-0.33,-0.001090830782496456,0.0,0.002181661564992912,0.004291029811507881,0.10759388252841497,0.00023107492023967337,0,0,0,0,0,0,1500,1500,1500,1500,1500,1500
1747606031.7829704,0.03,0.0,-0.33,-0.001090830782496456,0.0,0.002181661564992912,0.004291029811507881,0.10759388252841497,0.00023107492023967337,0,0,0,0,0,0,1500,1500,1500,1500,1500,1500
1747606031.883178,0.01,-0.02,-0.35000000000000003,0.0,0.002181661564992912,0.003272492347489368,0.004291029811507881,0.10759388252841497,0.00023107492023967337,0,0,0,0,0,0,1500,1500,1500,1500,1500,1500
1747606031.9809146,0.04,0.0,-0.27,0.001090830782496456,0.0,-0.001090830782496456,0.004291029811507881,0.10759388252841497,0.00023107492023967337,0,0,0,0,0,0,1500,1500,1500,1500,1500,1500
1747606032.0820618,0.04,0.0,-0.27,0.001090830782496456,0.0,-0.001090830782496456,0.004291029811507881,0.10759388252841497,0.00023107492023967337,0,0,0,0,0,0,1500,1500,1500,1500,1500,1500
1747606032.1655872,0.04,0.02,-0.35000000000000003,0.003272492347489368,-0.001090830782496456,0.0,0.004291029811507881,0.10759388252841497,0.00023107492023967337,0,0,0,0,0,0,1500,1500,1500,1500,1500,1500
1747606032.2659662,0.04,0.02,-0.35000000000000003,0.003272492347489368,-0.001090830782496456,0.0,0.004291029811507881,0.10759388252841497,0.00023107492023967337,0,0,0,0,0,0,1500,1500,1500,1500,1500,1500
1747606032.3653677,0.02,-0.03,-0.27,-0.002181661564992912,0.00545415391248228,0.001090830782496456,0.004291029811507881,0.10759388252841497,0.00023107492023967337,0,0,0,0,0,0,1500,1500,1500,1500,1500,1500
1747606032.4659903,0.04,0.0,-0.28,0.002181661564992912,0.003272492347489368,0.0,0.004291029811507881,0.10759388252841497,0.00023107492023967337,0,0,0,0,0,0,1500,1500,1500,1500,1500,1500
1747606032.5657024,0.04,0.0,-0.28,0.002181661564992912,0.003272492347489368,0.0,0.004291029811507881,0.10759388252841497,0.00023107492023967337,0,0,0,0,0,0,1500,1500,1500,1500,1500,1500
