time,ay,ax,az,gy,gx,gz,roll,pitch,yaw,cmd_fx,cmd_fy,cmd_fz,cmd_tx,cmd_ty,cmd_tz,pwm_1,pwm_2,pwm_3,pwm_4,pwm_5,pwm_6
1747555421.236769,0.0,0.0,0.0,0.0,0.0,0.0,0.0,0.0,0.0,0,0,0,0,0,0,1500,1500,1500,1500,1500,1500
1747555421.3339977,0.06,-0.18,-0.23,-0.016362461737446838,-0.014180800172453928,0.06217735460229799,2.994085292967649,0.3687929712698695,2.464847222521406,0,0,0,0,0,0,1500,1500,1500,1500,1500,1500
1747555421.4191325,0.06,-0.18,-0.23,-0.016362461737446838,-0.014180800172453928,0.06217735460229799,2.994085292967649,0.3687929712698695,2.464847222521406,0,0,0,0,0,0,1500,1500,1500,1500,1500,1500
1747555421.518265,0.07,-0.28,-0.13,-0.02399827721492203,-0.02945243112740431,0.04036073895236887,2.991634385218028,0.3691649986119929,2.4663440156409764,0,0,0,0,0,0,1500,1500,1500,1500,1500,1500
1747555421.602703,0.07,-0.28,-0.13,-0.02399827721492203,-0.02945243112740431,0.04036073895236887,2.991634385218028,0.3691649986119929,2.4663440156409764,0,0,0,0,0,0,1500,1500,1500,1500,1500,1500
1747555421.7018917,0.05,-0.29,-0.01,-0.007635815477475192,-0.02181661564992912,0.05235987755982989,2.9925679469089115,0.3705578930585624,2.4681786420809133,0,0,0,0,0,0,1500,1500,1500,1500,1500,1500
1747555421.8027203,0.03,-0.22,-0.08,0.0,-0.014180800172453928,0.0719948316447661,2.9941253841086506,0.37133305370054515,2.465679818083077,0,0,0,0,0,0,1500,1500,1500,1500,1500,1500
1747555421.8858929,0.03,-0.22,-0.08,0.0,-0.014180800172453928,0.0719948316447661,2.9941253841086506,0.37133305370054515,2.465679818083077,0,0,0,0,0,0,1500,1500,1500,1500,1500,1500
1747555421.985066,0.12,-0.2,-0.04,-0.004363323129985824,-0.015271630954950384,0.06872233929727672,2.993277035789978,0.3702702611037911,2.467895723940492,0,0,0,0,0,0,1500,1500,1500,1500,1500,1500
1747555422.0857978,0.12,-0.2,-0.04,-0.004363323129985824,-0.015271630954950384,0.06872233929727672,2.993277035789978,0.3702702611037911,2.467895723940492,0,0,0,0,0,0,1500,1500,1500,1500,1500,1500
1747555422.1851563,0.08,-0.23,-0.08,-0.009817477042468103,-0.02945243112740431,0.04690572364734761,2.992096915951007,0.3707725489659864,2.465065843012779,0,0,0,0,0,0,1500,1500,1500,1500,1500,1500
1747555422.2845857,0.03,-0.28,-0.05,-0.002181661564992912,-0.013089969389957472,0.04254240051736178,2.9928484060170524,0.3719720472105494,2.4662880234067885,0,0,0,0,0,0,1500,1500,1500,1500,1500,1500
1747555422.3686364,0.03,-0.28,-0.05,-0.002181661564992912,-0.013089969389957472,0.04254240051736178,2.9928484060170524,0.3719720472105494,2.4662880234067885,0,0,0,0,0,0,1500,1500,1500,1500,1500,1500
1747555422.4684997,0.05,-0.24,-0.01,0.009817477042468103,-0.003272492347489368,0.06435901616729091,2.994626429322404,0.3705705062158262,2.4648621619650757,0,0,0,0,0,0,1500,1500,1500,1500,1500,1500
1747555422.5682652,0.05,-0.24,-0.01,0.009817477042468103,-0.003272492347489368,0.06435901616729091,2.994626429322404,0.3705705062158262,2.4648621619650757,0,0,0,0,0,0,1500,1500,1500,1500,1500,1500
1747555422.6518931,0.07,-0.2,-0.12,0.007635815477475192,-0.011999138607461015,0.06981317007977318,2.9953553885880373,0.36845171365993806,2.467787653793597,0,0,0,0,0,0,1500,1500,1500,1500,1500,1500
1747555422.7520082,0.11,-0.21,-0.08,-0.020725784867432664,-0.02181661564992912,0.0545415391248228,2.993728788526827,0.36829981313703547,2.4672496009860305,0,0,0,0,0,0,1500,1500,1500,1500,1500,1500
1747555422.8515942,0.11,-0.21,-0.08,-0.020725784867432664,-0.02181661564992912,0.0545415391248228,2.993728788526827,0.36829981313703547,2.4672496009860305,0,0,0,0,0,0,1500,1500,1500,1500,1500,1500
1747555422.9519906,0.07,-0.28,-0.14,-0.008726646259971648,-0.03381575425739013,0.05126904677733343,2.9926587925636365,0.3695193978239063,2.4668040900060504,0,0,0,0,0,0,1500,1500,1500,1500,1500,1500
1747555423.044461,0.05,-0.31,-0.05,0.007635815477475192,-0.03599741582238305,0.0545415391248228,2.994937596393177,0.3722378102877089,2.4592501096553065,0,0,0,0,0,0,1500,1500,1500,1500,1500,1500
1747555423.1351485,0.05,-0.31,-0.05,0.007635815477475192,-0.03599741582238305,0.0545415391248228,2.994937596393177,0.3722378102877089,2.4592501096553065,0,0,0,0,0,0,1500,1500,1500,1500,1500,1500
1747555423.235649,0.07,-0.24,0.02,-0.001090830782496456,-0.026179938779914945,0.0545415391248228,2.9969275895989633,0.3744601474237338,2.4509448819307837,0,0,0,0,0,0,1500,1500,1500,1500,1500,1500
1747555423.3355067,0.07,-0.24,0.02,-0.001090830782496456,-0.026179938779914945,0.0545415391248228,2.9969275895989633,0.3744601474237338,2.4509448819307837,0,0,0,0,0,0,1500,1500,1500,1500,1500,1500
1747555423.43511,0.02,-0.24,-0.1,-0.008726646259971648,0.002181661564992912,0.055632369907319255,2.9976820274297937,0.37363914346804156,2.4431337123193453,0,0,0,0,0,0,1500,1500,1500,1500,1500,1500
1747555423.525245,0.01,-0.22,-0.19,-0.01090830782496456,-0.014180800172453928,0.06435901616729091,2.99641582597121,0.37169234951628843,2.434405135926181,0,0,0,0,0,0,1500,1500,1500,1500,1500,1500
1747555423.6185064,0.01,-0.22,-0.19,-0.01090830782496456,-0.014180800172453928,0.06435901616729091,2.99641582597121,0.37169234951628843,2.434405135926181,0,0,0,0,0,0,1500,1500,1500,1500,1500,1500
1747555423.7189255,0.06,-0.23,-0.13,-0.013089969389957472,-0.038179077387375956,0.06654067773228381,2.9947634444988593,0.3733321533170421,2.424121207960567,0,0,0,0,0,0,1500,1500,1500,1500,1500,1500
1747555423.8178594,0.06,-0.23,-0.13,-0.013089969389957472,-0.038179077387375956,0.06654067773228381,2.9947634444988593,0.3733321533170421,2.424121207960567,0,0,0,0,0,0,1500,1500,1500,1500,1500,1500
1747555423.9010594,0.13,-0.24,-0.11,-0.013089969389957472,-0.06326818538479445,0.06435901616729091,2.9922190556349033,0.3785416235142243,2.413186182131207,0,0,0,0,0,0,1500,1500,1500,1500,1500,1500
1747555424.0014892,0.13,-0.24,-0.11,-0.013089969389957472,-0.06326818538479445,0.06435901616729091,2.9922190556349033,0.3785416235142243,2.413186182131207,0,0,0,0,0,0,1500,1500,1500,1500,1500,1500
1747555424.1021993,0.17,-0.22,0.05,-0.008726646259971648,-0.022907446432425576,0.05345070834232634,2.9904987507269136,0.3812420548903014,2.4036098452351986,0,0,0,0,0,0,1500,1500,1500,1500,1500,1500
1747555424.2017646,0.05,-0.25,0.0,0.00545415391248228,0.0272707695624114,0.055632369907319255,2.9908871321206014,0.37761268202440507,2.3963640735201523,0,0,0,0,0,0,1500,1500,1500,1500,1500,1500
1747555424.301889,0.05,-0.25,0.0,0.00545415391248228,0.0272707695624114,0.055632369907319255,2.9908871321206014,0.37761268202440507,2.3963640735201523,0,0,0,0,0,0,1500,1500,1500,1500,1500,1500
1747555424.385979,-0.02,-0.28,-0.24,0.007635815477475192,0.008726646259971648,0.061086523819801536,2.9937699848581,0.371980684537094,2.389334375922342,0,0,0,0,0,0,1500,1500,1500,1500,1500,1500
1747555424.4848661,0.05,-0.27,-0.14,-0.004363323129985824,-0.04363323129985824,0.06435901616729091,2.995960284346537,0.37216171520483043,2.3807044114449405,0,0,0,0,0,0,1500,1500,1500,1500,1500,1500
1747555424.5849495,0.05,-0.27,-0.14,-0.004363323129985824,-0.04363323129985824,0.06435901616729091,2.995960284346537,0.37216171520483043,2.3807044114449405,0,0,0,0,0,0,1500,1500,1500,1500,1500,1500
1747555424.66751,0.12,-0.25,-0.02,-0.019634954084936207,-0.05345070834232634,0.055632369907319255,2.994912350494968,0.3771851673557631,2.3713332340459186,0,0,0,0,0,0,1500,1500,1500,1500,1500,1500
1747555424.7693925,0.12,-0.25,-0.02,-0.019634954084936207,-0.05345070834232634,0.055632369907319255,2.994912350494968,0.3771851673557631,2.3713332340459186,0,0,0,0,0,0,1500,1500,1500,1500,1500,1500
1747555424.851904,0.06,-0.26,-0.02,-0.003272492347489368,-0.009817477042468103,0.055632369907319255,2.9939614791709444,0.3791506501740603,2.3628356640586676,0,0,0,0,0,0,1500,1500,1500,1500,1500,1500
1747555424.9515522,0.06,-0.26,-0.02,-0.003272492347489368,-0.009817477042468103,0.055632369907319255,2.9939614791709444,0.3791506501740603,2.3628356640586676,0,0,0,0,0,0,1500,1500,1500,1500,1500,1500
1747555425.0519688,0.06,-0.23,-0.09,0.006544984694978736,0.007635815477475192,0.061086523819801536,2.994044720302524,0.37664354863959554,2.354175931254853,0,0,0,0,0,0,1500,1500,1500,1500,1500,1500
1747555425.1350932,0.05,-0.2,-0.14,-0.007635815477475192,-0.026179938779914945,0.06763150851478027,2.9940953412666587,0.374819523015888,2.3447044154659764,0,0,0,0,0,0,1500,1500,1500,1500,1500,1500
1747555425.2353756,0.05,-0.2,-0.14,-0.007635815477475192,-0.026179938779914945,0.06763150851478027,2.9940953412666587,0.374819523015888,2.3447044154659764,0,0,0,0,0,0,1500,1500,1500,1500,1500,1500
1747555425.335663,0.07,-0.24,-0.11,-0.016362461737446838,-0.0545415391248228,0.061086523819801536,2.9923212441254576,0.37851517149668645,2.3342028931249157,0,0,0,0,0,0,1500,1500,1500,1500,1500,1500
1747555425.4353209,0.07,-0.24,-0.11,-0.016362461737446838,-0.0545415391248228,0.061086523819801536,2.9923212441254576,0.37851517149668645,2.3342028931249157,0,0,0,0,0,0,1500,1500,1500,1500,1500,1500
1747555425.534902,0.15,-0.25,0.03,-0.009817477042468103,-0.02945243112740431,0.05781403147231216,2.9903649701061057,0.3826881888026873,2.3246373053285,0,0,0,0,0,0,1500,1500,1500,1500,1500,1500
1747555425.619013,0.11,-0.21,-0.17,-0.003272492347489368,0.014180800172453928,0.05345070834232634,2.9899780727885346,0.3801202607107852,2.3166431685287927,0,0,0,0,0,0,1500,1500,1500,1500,1500,1500
1747555425.718722,0.11,-0.21,-0.17,-0.003272492347489368,0.014180800172453928,0.05345070834232634,2.9899780727885346,0.3801202607107852,2.3166431685287927,0,0,0,0,0,0,1500,1500,1500,1500,1500,1500
1747555425.8189695,0.02,-0.25,-0.23,-0.016362461737446838,-0.007635815477475192,0.05235987755982989,2.990130300049309,0.376002701824023,2.309563170933814,0,0,0,0,0,0,1500,1500,1500,1500,1500,1500
1747555425.9013853,0.02,-0.25,-0.23,-0.016362461737446838,-0.007635815477475192,0.05235987755982989,2.990130300049309,0.376002701824023,2.309563170933814,0,0,0,0,0,0,1500,1500,1500,1500,1500,1500
1747555426.0025208,0.05,-0.27,-0.03,-0.019634954084936207,-0.055632369907319255,0.055632369907319255,2.988543053092813,0.37908957725408204,2.3014995282944977,0,0,0,0,0,0,1500,1500,1500,1500,1500,1500
1747555426.1019921,0.08,-0.31,0.01,0.002181661564992912,-0.04254240051736178,0.06435901616729091,2.9884877535978456,0.38521334906674776,2.2921600665807644,0,0,0,0,0,0,1500,1500,1500,1500,1500,1500
1747555426.2015653,0.08,-0.31,0.01,0.002181661564992912,-0.04254240051736178,0.06435901616729091,2.9884877535978456,0.38521334906674776,2.2921600665807644,0,0,0,0,0,0,1500,1500,1500,1500,1500,1500
1747555426.301566,0.08,-0.31,0.01,0.002181661564992912,-0.04254240051736178,0.06435901616729091,2.9884877535978456,0.38521334906674776,2.2921600665807644,0,0,0,0,0,0,1500,1500,1500,1500,1500,1500
1747555426.385383,0.08,-0.31,0.01,0.002181661564992912,-0.04254240051736178,0.06435901616729091,2.9884877535978456,0.38521334906674776,2.2921600665807644,0,0,0,0,0,0,1500,1500,1500,1500,1500,1500
1747555426.4850616,0.08,-0.31,0.01,0.002181661564992912,-0.04254240051736178,0.06435901616729091,2.9884877535978456,0.38521334906674776,2.2921600665807644,0,0,0,0,0,0,1500,1500,1500,1500,1500,1500
1747555426.5850396,0.08,-0.31,0.01,0.002181661564992912,-0.04254240051736178,0.06435901616729091,2.9884877535978456,0.38521334906674776,2.2921600665807644,0,0,0,0,0,0,1500,1500,1500,1500,1500,1500
1747555426.6683109,0.08,-0.31,0.01,0.002181661564992912,-0.04254240051736178,0.06435901616729091,2.9884877535978456,0.38521334906674776,2.2921600665807644,0,0,0,0,0,0,1500,1500,1500,1500,1500,1500
1747555426.7681658,0.08,-0.31,0.01,0.002181661564992912,-0.04254240051736178,0.06435901616729091,2.9884877535978456,0.38521334906674776,2.2921600665807644,0,0,0,0,0,0,1500,1500,1500,1500,1500,1500
1747555426.852055,0.08,-0.31,0.01,0.002181661564992912,-0.04254240051736178,0.06435901616729091,2.9884877535978456,0.38521334906674776,2.2921600665807644,0,0,0,0,0,0,1500,1500,1500,1500,1500,1500
1747555426.9513264,0.08,-0.31,0.01,0.002181661564992912,-0.04254240051736178,0.06435901616729091,2.9884877535978456,0.38521334906674776,2.2921600665807644,0,0,0,0,0,0,1500,1500,1500,1500,1500,1500
1747555427.0522683,0.08,-0.31,0.01,0.002181661564992912,-0.04254240051736178,0.06435901616729091,2.9884877535978456,0.38521334906674776,2.2921600665807644,0,0,0,0,0,0,1500,1500,1500,1500,1500,1500
1747555427.1349661,0.08,-0.31,0.01,0.002181661564992912,-0.04254240051736178,0.06435901616729091,2.9884877535978456,0.38521334906674776,2.2921600665807644,0,0,0,0,0,0,1500,1500,1500,1500,1500,1500
1747555427.2349184,0.08,-0.31,0.01,0.002181661564992912,-0.04254240051736178,0.06435901616729091,2.9884877535978456,0.38521334906674776,2.2921600665807644,0,0,0,0,0,0,1500,1500,1500,1500,1500,1500
1747555427.3351517,0.08,-0.31,0.01,0.002181661564992912,-0.04254240051736178,0.06435901616729091,2.9884877535978456,0.38521334906674776,2.2921600665807644,0,0,0,0,0,0,1500,1500,1500,1500,1500,1500
1747555427.4183698,0.08,-0.31,0.01,0.002181661564992912,-0.04254240051736178,0.06435901616729091,2.9884877535978456,0.38521334906674776,2.2921600665807644,0,0,0,0,0,0,1500,1500,1500,1500,1500,1500
1747555427.5179229,0.08,-0.31,0.01,0.002181661564992912,-0.04254240051736178,0.06435901616729091,2.9884877535978456,0.38521334906674776,2.2921600665807644,0,0,0,0,0,0,1500,1500,1500,1500,1500,1500
1747555427.6021788,0.08,-0.31,0.01,0.002181661564992912,-0.04254240051736178,0.06435901616729091,2.9884877535978456,0.38521334906674776,2.2921600665807644,0,0,0,0,0,0,1500,1500,1500,1500,1500,1500
1747555427.702036,0.08,-0.31,0.01,0.002181661564992912,-0.04254240051736178,0.06435901616729091,2.9884877535978456,0.38521334906674776,2.2921600665807644,0,0,0,0,0,0,1500,1500,1500,1500,1500,1500
1747555427.75334,0.08,-0.31,0.01,0.002181661564992912,-0.04254240051736178,0.06435901616729091,2.9884877535978456,0.38521334906674776,2.2921600665807644,0,0,0,0,0,0,1500,1500,1500,1500,1500,1500
1747555427.8024695,0.08,-0.31,0.01,0.002181661564992912,-0.04254240051736178,0.06435901616729091,2.9884877535978456,0.38521334906674776,2.2921600665807644,0,0,0,0,0,0,1500,1500,1500,1500,1500,1500
1747555427.8362353,-0.05,0.0,-0.11,-0.006544984694978736,-0.04690572364734761,0.016362461737446838,3.0463688711586125,0.3632507881278338,2.6306402105727513,0,0,0,0,0,0,1500,1500,1500,1500,1500,1500
1747555427.8854249,-0.05,0.0,-0.11,-0.006544984694978736,-0.04690572364734761,0.016362461737446838,3.0463688711586125,0.3632507881278338,2.6306402105727513,0,0,0,0,0,0,1500,1500,1500,1500,1500,1500
1747555427.9351063,-0.05,0.0,-0.11,-0.006544984694978736,-0.04690572364734761,0.016362461737446838,3.0463688711586125,0.3632507881278338,2.6306402105727513,0,0,0,0,0,0,1500,1500,1500,1500,1500,1500
1747555427.9874053,0.08,0.06,0.08,-0.003272492347489368,-0.026179938779914945,0.017453292519943295,3.0447821028060313,0.3695534509593552,2.6266734282923476,0,0,0,0,0,0,1500,1500,1500,1500,1500,1500
1747555428.0346596,0.08,0.06,0.08,-0.003272492347489368,-0.026179938779914945,0.017453292519943295,3.0447821028060313,0.3695534509593552,2.6266734282923476,0,0,0,0,0,0,1500,1500,1500,1500,1500,1500
1747555428.085009,0.08,0.06,0.08,-0.003272492347489368,-0.026179938779914945,0.017453292519943295,3.0447821028060313,0.3695534509593552,2.6266734282923476,0,0,0,0,0,0,1500,1500,1500,1500,1500,1500
1747555428.1177375,0.08,0.06,0.08,-0.003272492347489368,-0.026179938779914945,0.017453292519943295,3.0447821028060313,0.3695534509593552,2.6266734282923476,0,0,0,0,0,0,1500,1500,1500,1500,1500,1500
1747555428.168725,0.06,0.08,0.04,-0.001090830782496456,0.025089107997418487,0.0,3.0441634750301,0.36927811441986996,2.625732675234606,0,0,0,0,0,0,1500,1500,1500,1500,1500,1500
1747555428.218838,0.06,0.08,0.04,-0.001090830782496456,0.025089107997418487,0.0,3.0441634750301,0.36927811441986996,2.625732675234606,0,0,0,0,0,0,1500,1500,1500,1500,1500,1500
1747555428.26853,0.06,0.08,0.04,-0.001090830782496456,0.025089107997418487,0.0,3.0441634750301,0.36927811441986996,2.625732675234606,0,0,0,0,0,0,1500,1500,1500,1500,1500,1500
1747555428.318655,-0.04,0.01,-0.02,0.008726646259971648,0.02181661564992912,-0.011999138607461015,3.044461311251956,0.36458462387320223,2.6266251579250426,0,0,0,0,0,0,1500,1500,1500,1500,1500,1500
1747555428.3685915,-0.04,0.01,-0.02,0.008726646259971648,0.02181661564992912,-0.011999138607461015,3.044461311251956,0.36458462387320223,2.6266251579250426,0,0,0,0,0,0,1500,1500,1500,1500,1500,1500
1747555428.4016292,-0.04,0.01,-0.02,0.008726646259971648,0.02181661564992912,-0.011999138607461015,3.044461311251956,0.36458462387320223,2.6266251579250426,0,0,0,0,0,0,1500,1500,1500,1500,1500,1500
1747555428.4647717,-0.07,-0.11,0.0,0.008726646259971648,-0.006544984694978736,-0.002181661564992912,3.044667791747492,0.36322654935711984,2.627084331234529,0,0,0,0,0,0,1500,1500,1500,1500,1500,1500
1747555428.5017698,-0.07,-0.11,0.0,0.008726646259971648,-0.006544984694978736,-0.002181661564992912,3.044667791747492,0.36322654935711984,2.627084331234529,0,0,0,0,0,0,1500,1500,1500,1500,1500,1500
1747555428.568801,-0.07,-0.11,0.0,0.008726646259971648,-0.006544984694978736,-0.002181661564992912,3.044667791747492,0.36322654935711984,2.627084331234529,0,0,0,0,0,0,1500,1500,1500,1500,1500,1500
1747555428.6019268,-0.07,-0.11,0.0,0.008726646259971648,-0.006544984694978736,-0.002181661564992912,3.044667791747492,0.36322654935711984,2.627084331234529,0,0,0,0,0,0,1500,1500,1500,1500,1500,1500
1747555428.651006,-0.09,-0.12,-0.1,0.009817477042468103,-0.019634954084936207,0.018544123302439753,3.045068205504945,0.36563496496281667,2.6259693589702184,0,0,0,0,0,0,1500,1500,1500,1500,1500,1500
1747555428.7021325,-0.09,-0.12,-0.1,0.009817477042468103,-0.019634954084936207,0.018544123302439753,3.045068205504945,0.36563496496281667,2.6259693589702184,0,0,0,0,0,0,1500,1500,1500,1500,1500,1500
1747555428.7514746,-0.09,-0.12,-0.1,0.009817477042468103,-0.019634954084936207,0.018544123302439753,3.045068205504945,0.36563496496281667,2.6259693589702184,0,0,0,0,0,0,1500,1500,1500,1500,1500,1500
1747555428.801998,-0.04,-0.06,0.01,0.0,-0.013089969389957472,0.020725784867432664,3.04391658700612,0.3666276343544919,2.622169176350735,0,0,0,0,0,0,1500,1500,1500,1500,1500,1500
1747555428.8506272,-0.04,-0.06,0.01,0.0,-0.013089969389957472,0.020725784867432664,3.04391658700612,0.3666276343544919,2.622169176350735,0,0,0,0,0,0,1500,1500,1500,1500,1500,1500
1747555428.8852706,-0.04,-0.06,0.01,0.0,-0.013089969389957472,0.020725784867432664,3.04391658700612,0.3666276343544919,2.622169176350735,0,0,0,0,0,0,1500,1500,1500,1500,1500,1500
1747555428.9510603,-0.01,0.03,0.0,-0.008726646259971648,-0.017453292519943295,0.008726646259971648,3.043082480962315,0.36809771618755704,2.6199742730983693,0,0,0,0,0,0,1500,1500,1500,1500,1500,1500
1747555428.9849448,-0.01,0.03,0.0,-0.008726646259971648,-0.017453292519943295,0.008726646259971648,3.043082480962315,0.36809771618755704,2.6199742730983693,0,0,0,0,0,0,1500,1500,1500,1500,1500,1500
1747555429.051193,-0.01,0.03,0.0,-0.008726646259971648,-0.017453292519943295,0.008726646259971648,3.043082480962315,0.36809771618755704,2.6199742730983693,0,0,0,0,0,0,1500,1500,1500,1500,1500,1500
1747555429.0854182,-0.01,0.03,0.0,-0.008726646259971648,-0.017453292519943295,0.008726646259971648,3.043082480962315,0.36809771618755704,2.6199742730983693,0,0,0,0,0,0,1500,1500,1500,1500,1500,1500
1747555429.1352878,0.0,0.06,0.03,-0.014180800172453928,-0.01090830782496456,-0.002181661564992912,3.040944051043446,0.37050927143434337,2.619675780990715,0,0,0,0,0,0,1500,1500,1500,1500,1500,1500
1747555429.1850355,0.0,0.06,0.03,-0.014180800172453928,-0.01090830782496456,-0.002181661564992912,3.040944051043446,0.37050927143434337,2.619675780990715,0,0,0,0,0,0,1500,1500,1500,1500,1500,1500
1747555429.2341008,0.0,0.06,0.03,-0.014180800172453928,-0.01090830782496456,-0.002181661564992912,3.040944051043446,0.37050927143434337,2.619675780990715,0,0,0,0,0,0,1500,1500,1500,1500,1500,1500
1747555429.2853312,0.03,0.04,0.04,0.002181661564992912,0.014180800172453928,0.002181661564992912,3.0402341832692574,0.3699369353057486,2.6198374024451456,0,0,0,0,0,0,1500,1500,1500,1500,1500,1500
1747555429.3351686,0.03,0.04,0.04,0.002181661564992912,0.014180800172453928,0.002181661564992912,3.0402341832692574,0.3699369353057486,2.6198374024451456,0,0,0,0,0,0,1500,1500,1500,1500,1500,1500
1747555429.3850844,0.03,0.04,0.04,0.002181661564992912,0.014180800172453928,0.002181661564992912,3.0402341832692574,0.3699369353057486,2.6198374024451456,0,0,0,0,0,0,1500,1500,1500,1500,1500,1500
1747555429.4186807,0.0,-0.02,-0.11,0.01090830782496456,0.020725784867432664,0.004363323129985824,3.0407007586845762,0.3661928665949962,2.620203394599057,0,0,0,0,0,0,1500,1500,1500,1500,1500,1500
1747555429.4854388,0.0,-0.02,-0.11,0.01090830782496456,0.020725784867432664,0.004363323129985824,3.0407007586845762,0.3661928665949962,2.620203394599057,0,0,0,0,0,0,1500,1500,1500,1500,1500,1500
1747555429.5184262,0.0,-0.02,-0.11,0.01090830782496456,0.020725784867432664,0.004363323129985824,3.0407007586845762,0.3661928665949962,2.620203394599057,0,0,0,0,0,0,1500,1500,1500,1500,1500,1500
1747555429.5845604,-0.04,-0.06,-0.1,0.0,-0.0272707695624114,0.007635815477475192,3.040736137553703,0.3673587712921987,2.6200738236101526,0,0,0,0,0,0,1500,1500,1500,1500,1500,1500
1747555429.601025,-0.04,-0.06,-0.1,0.0,-0.0272707695624114,0.007635815477475192,3.040736137553703,0.3673587712921987,2.6200738236101526,0,0,0,0,0,0,1500,1500,1500,1500,1500,1500
1747555429.6845548,-0.04,-0.06,-0.1,0.0,-0.0272707695624114,0.007635815477475192,3.040736137553703,0.3673587712921987,2.6200738236101526,0,0,0,0,0,0,1500,1500,1500,1500,1500,1500
1747555429.7013142,-0.04,-0.06,-0.1,0.0,-0.0272707695624114,0.007635815477475192,3.040736137553703,0.3673587712921987,2.6200738236101526,0,0,0,0,0,0,1500,1500,1500,1500,1500,1500
1747555429.7852824,-0.01,-0.02,0.05,-0.002181661564992912,-0.03490658503988659,0.017453292519943295,3.0398822665870884,0.37307361339330675,2.6179197086108092,0,0,0,0,0,0,1500,1500,1500,1500,1500,1500
1747555429.8019094,-0.01,-0.02,0.05,-0.002181661564992912,-0.03490658503988659,0.017453292519943295,3.0398822665870884,0.37307361339330675,2.6179197086108092,0,0,0,0,0,0,1500,1500,1500,1500,1500,1500
1747555429.868924,-0.01,-0.02,0.05,-0.002181661564992912,-0.03490658503988659,0.017453292519943295,3.0398822665870884,0.37307361339330675,2.6179197086108092,0,0,0,0,0,0,1500,1500,1500,1500,1500,1500
1747555429.885437,0.03,-0.01,0.0,-0.007635815477475192,0.019634954084936207,0.00545415391248228,3.0392505628929296,0.3741931524335076,2.616356168717591,0,0,0,0,0,0,1500,1500,1500,1500,1500,1500
1747555429.9684813,0.03,-0.01,0.0,-0.007635815477475192,0.019634954084936207,0.00545415391248228,3.0392505628929296,0.3741931524335076,2.616356168717591,0,0,0,0,0,0,1500,1500,1500,1500,1500,1500
1747555429.9849184,0.03,-0.01,0.0,-0.007635815477475192,0.019634954084936207,0.00545415391248228,3.0392505628929296,0.3741931524335076,2.616356168717591,0,0,0,0,0,0,1500,1500,1500,1500,1500,1500
1747555430.0689878,0.05,-0.02,0.0,0.003272492347489368,0.031634092692397225,-0.011999138607461015,3.039591004441333,0.3693728674000895,2.6171552869242607,0,0,0,0,0,0,1500,1500,1500,1500,1500,1500
1747555430.084607,0.05,-0.02,0.0,0.003272492347489368,0.031634092692397225,-0.011999138607461015,3.039591004441333,0.3693728674000895,2.6171552869242607,0,0,0,0,0,0,1500,1500,1500,1500,1500,1500
1747555430.1514256,0.05,-0.02,0.0,0.003272492347489368,0.031634092692397225,-0.011999138607461015,3.039591004441333,0.3693728674000895,2.6171552869242607,0,0,0,0,0,0,1500,1500,1500,1500,1500,1500
1747555430.1677024,0.05,-0.02,0.0,0.003272492347489368,0.031634092692397225,-0.011999138607461015,3.039591004441333,0.3693728674000895,2.6171552869242607,0,0,0,0,0,0,1500,1500,1500,1500,1500,1500
1747555430.2518804,-0.01,-0.08,0.0,0.003272492347489368,-0.016362461737446838,-0.006544984694978736,3.0401253963084964,0.36900776795282436,2.6186414039316146,0,2.315006,0,0,0,-0.015672,1540,1540,1540,1500,1500,1500
1747555430.268533,-0.01,-0.08,0.0,0.003272492347489368,-0.016362461737446838,-0.006544984694978736,3.0401253963084964,0.36900776795282436,2.6186414039316146,0,5.887241,0,0,0,-0.030116,1580,1580,1580,1500,1500,1500
1747555430.3517246,-0.01,-0.08,0.0,0.003272492347489368,-0.016362461737446838,-0.006544984694978736,3.0401253963084964,0.36900776795282436,2.6186414039316146,0,12.5,0,0,0,0,1620,1620,1620,1500,1500,1500
1747555430.352768,-0.02,-0.07,0.03,0.003272492347489368,-0.02399827721492203,0.017453292519943295,3.0396271442340885,0.3731407422829249,2.617369653042055,0,12.5,0,0,0,0,1655,1651,1627,1500,1500,1500
1747555430.4519582,-0.02,-0.07,0.03,0.003272492347489368,-0.02399827721492203,0.017453292519943295,3.0396271442340885,0.3731407422829249,2.617369653042055,0,12.5,0,0,0,0,1655,1651,1627,1500,1500,1500
1747555430.4529653,-0.02,-0.07,0.03,0.003272492347489368,-0.02399827721492203,0.017453292519943295,3.0396271442340885,0.3731407422829249,2.617369653042055,0,12.5,0,0,0,0,1655,1651,1627,1500,1500,1500
1747555430.5515656,0.1,0.14,0.19,0.007635815477475192,0.017453292519943295,0.025089107997418487,3.038079058784295,0.3732489363232101,2.6130477381153763,0,12.5,0,0,0,0,1655,1651,1627,1500,1500,1500
1747555430.5527058,0.1,0.14,0.19,0.007635815477475192,0.017453292519943295,0.025089107997418487,3.038079058784295,0.3732489363232101,2.6130477381153763,0,12.5,0,0,0,0,1655,1651,1627,1500,1500,1500
1747555430.6349685,0.1,0.14,0.19,0.007635815477475192,0.017453292519943295,0.025089107997418487,3.038079058784295,0.3732489363232101,2.6130477381153763,0,12.5,0,0,0,0,1655,1651,1627,1500,1500,1500
1747555430.636361,0.1,0.14,0.19,0.007635815477475192,0.017453292519943295,0.025089107997418487,3.038079058784295,0.3732489363232101,2.6130477381153763,0,12.5,0,0,0,0,1655,1651,1627,1500,1500,1500
1747555430.7347856,1.79,0.2,-0.76,0.044724062082354694,0.006544984694978736,-0.038179077387375956,3.0404888892329356,0.3697479187908882,2.6131292002571866,0,12.5,0,0,0,0,1655,1651,1627,1500,1500,1500
1747555430.7357829,1.79,0.2,-0.76,0.044724062082354694,0.006544984694978736,-0.038179077387375956,3.0404888892329356,0.3697479187908882,2.6131292002571866,0,12.5,0,0,0,0,1655,1651,1627,1500,1500,1500
1747555430.8285184,0.5,0.05,0.36,0.10362892433716332,-0.12544553998709243,0.08617563181722002,3.0488079130516996,0.3735147521105814,2.6028939840724754,0,12.5,0,0,0,0,1655,1651,1627,1500,1500,1500
1747555430.8316855,0.5,0.05,0.36,0.10362892433716332,-0.12544553998709243,0.08617563181722002,3.0488079130516996,0.3735147521105814,2.6028939840724754,0,12.5,0,0,0,0,1655,1651,1627,1500,1500,1500
1747555430.9184053,0.5,0.05,0.36,0.10362892433716332,-0.12544553998709243,0.08617563181722002,3.0488079130516996,0.3735147521105814,2.6028939840724754,0,0,0,0,0,0,1615,1611,1587,1500,1500,1500
1747555430.9197392,0.5,0.05,0.36,0.10362892433716332,-0.12544553998709243,0.08617563181722002,3.0488079130516996,0.3735147521105814,2.6028939840724754,0,0,0,0,0,0,1575,1571,1547,1500,1500,1500
1747555431.0182137,-0.14,-0.14,0.04,0.14726215563702155,-0.22143864884678055,0.08508480103472356,3.0625900127283705,0.39327802678575635,2.5865736335406666,0,0,0,0,0,0,1535,1531,1507,1500,1500,1500
1747555431.0193443,-0.14,-0.14,0.04,0.14726215563702155,-0.22143864884678055,0.08508480103472356,3.0625900127283705,0.39327802678575635,2.5865736335406666,0,0,0,0,0,0,1500,1500,1500,1500,1500,1500
1747555431.102197,-0.14,-0.14,0.04,0.14726215563702155,-0.22143864884678055,0.08508480103472356,3.0625900127283705,0.39327802678575635,2.5865736335406666,0,0,0,0,0,0,1500,1500,1500,1500,1500,1500
1747555431.102197,-0.14,-0.14,0.04,0.14726215563702155,-0.22143864884678055,0.08508480103472356,3.0625900127283705,0.39327802678575635,2.5865736335406666,0,0,0,0,0,0,1500,1500,1500,1500,1500,1500
1747555431.201166,-1.0,-0.38,0.21,0.11344640137963143,-0.27379852640661045,0.07963064712224129,3.0777565527325503,0.43000413140746396,2.5699195255795364,0,0,0,0,0,0,1500,1500,1500,1500,1500,1500
1747555431.201166,-1.0,-0.38,0.21,0.11344640137963143,-0.27379852640661045,0.07963064712224129,3.0777565527325503,0.43000413140746396,2.5699195255795364,0,0,0,0,0,0,1500,1500,1500,1500,1500,1500
1747555431.2990158,-0.26,0.04,0.11,0.04254240051736178,-0.272707695624114,0.08508480103472356,3.0807852764301344,0.47877722017668295,2.5520998705122397,0,0,0,0,0,0,1500,1500,1500,1500,1500,1500
1747555431.300014,-0.26,0.04,0.11,0.04254240051736178,-0.272707695624114,0.08508480103472356,3.0807852764301344,0.47877722017668295,2.5520998705122397,0,0,0,0,0,0,1500,1500,1500,1500,1500,1500
1747555431.3852253,-0.26,0.04,0.11,0.04254240051736178,-0.272707695624114,0.08508480103472356,3.0807852764301344,0.47877722017668295,2.5520998705122397,0,0,0,0,0,0,1500,1500,1500,1500,1500,1500
1747555431.3862476,-0.26,0.04,0.11,0.04254240051736178,-0.272707695624114,0.08508480103472356,3.0807852764301344,0.47877722017668295,2.5520998705122397,0,0,0,0,0,0,1500,1500,1500,1500,1500,1500
1747555431.485573,-0.14,0.03,-0.01,0.008726646259971648,-0.27379852640661045,0.07853981633974483,3.0761833532746707,0.5221395145836645,2.534240009382483,3,0,0,0,0,0,1540,1460,1500,1540,1540,1540
1747555431.4865742,-0.14,0.03,-0.01,0.008726646259971648,-0.27379852640661045,0.07853981633974483,3.0761833532746707,0.5221395145836645,2.534240009382483,9,0,0,0,0,0,1580,1420,1500,1580,1580,1580
1747555431.5850115,-0.14,0.03,-0.01,0.008726646259971648,-0.27379852640661045,0.07853981633974483,3.0761833532746707,0.5221395145836645,2.534240009382483,3,0,0,0,0,0,1564,1429,1500,1620,1584,1584
1747555431.586015,-0.14,0.03,-0.01,0.008726646259971648,-0.27379852640661045,0.07853981633974483,3.0761833532746707,0.5221395145836645,2.534240009382483,9,0,0,0,0,0,1604,1389,1500,1660,1624,1624
1747555431.6691387,-0.02,-0.01,0.0,-0.016362461737446838,-0.27379852640661045,0.06654067773228381,3.0676591991345954,0.5614374066589272,2.5187692911462842,3,0,0,0,0,0,1564,1429,1500,1620,1584,1584
1747555431.6847527,-0.02,-0.01,0.0,-0.016362461737446838,-0.27379852640661045,0.06654067773228381,3.0676591991345954,0.5614374066589272,2.5187692911462842,3,0,0,0,0,0,1564,1429,1500,1620,1584,1584
1747555431.7642298,0.3,0.34,-0.65,-0.014180800172453928,-0.27379852640661045,0.032724923474893676,3.055486704230483,0.6019358959043596,2.5037314626273313,3,0,0,0,0,0,1564,1429,1500,1620,1584,1584
1747555431.7848294,0.3,0.34,-0.65,-0.014180800172453928,-0.27379852640661045,0.032724923474893676,3.055486704230483,0.6019358959043596,2.5037314626273313,3,0,0,0,0,0,1564,1429,1500,1620,1584,1584
1747555431.867834,0.3,0.34,-0.65,-0.014180800172453928,-0.27379852640661045,0.032724923474893676,3.055486704230483,0.6019358959043596,2.5037314626273313,3,0,0,0,0,0,1564,1429,1500,1620,1584,1584
1747555431.869148,0.3,0.34,-0.65,-0.014180800172453928,-0.27379852640661045,0.032724923474893676,3.055486704230483,0.6019358959043596,2.5037314626273313,9,0,0,0,0,0,1604,1389,1500,1660,1624,1624
1747555431.968193,-0.05,-0.21,0.0,0.05781403147231216,-0.2279836335417593,0.11126473981463851,3.0497744011137753,0.6382148172087692,2.4821328367245052,3,0,0,0,0,0,1564,1429,1500,1620,1584,1584
1747555431.9702013,-0.05,-0.21,0.0,0.05781403147231216,-0.2279836335417593,0.11126473981463851,3.0497744011137753,0.6382148172087692,2.4821328367245052,9,0,0,0,0,0,1604,1389,1500,1660,1624,1624
1747555432.0678186,-0.05,-0.21,0.0,0.05781403147231216,-0.2279836335417593,0.11126473981463851,3.0497744011137753,0.6382148172087692,2.4821328367245052,3,0,0,0,0,0,1564,1429,1500,1620,1584,1584
1747555432.0689151,-0.05,-0.21,0.0,0.05781403147231216,-0.2279836335417593,0.11126473981463851,3.0497744011137753,0.6382148172087692,2.4821328367245052,9,0,0,0,0,0,1604,1389,1500,1660,1624,1624
1747555432.151925,0.02,0.0,-0.13,0.04908738521234052,-0.17998707911191522,0.11671889372712078,3.0401159748846207,0.6685983213046276,2.455730199586712,3,0,0,0,0,0,1564,1429,1500,1620,1584,1584
1747555432.1678624,0.02,0.0,-0.13,0.04908738521234052,-0.17998707911191522,0.11671889372712078,3.0401159748846207,0.6685983213046276,2.455730199586712,3,0,0,0,0,0,1564,1429,1500,1620,1584,1584
1747555432.2452593,0.09,0.14,-0.01,0.022907446432425576,-0.136353847812057,0.1265363707695889,3.0283393828021707,0.6905325488281423,2.427651400700703,3,0,0,0,0,0,1564,1429,1500,1620,1584,1584
1747555432.2688901,0.09,0.14,-0.01,0.022907446432425576,-0.136353847812057,0.1265363707695889,3.0283393828021707,0.6905325488281423,2.427651400700703,3,0,0,0,0,0,1564,1429,1500,1620,1584,1584
1747555432.352088,0.09,0.14,-0.01,0.022907446432425576,-0.136353847812057,0.1265363707695889,3.0283393828021707,0.6905325488281423,2.427651400700703,0,0,0,0,0,0,1524,1469,1500,1580,1544,1544
1747555432.3531504,0.09,0.14,-0.01,0.022907446432425576,-0.136353847812057,0.1265363707695889,3.0283393828021707,0.6905325488281423,2.427651400700703,0,0,0,0,0,0,1500,1500,1500,1540,1504,1504
1747555432.4519222,0.03,0.02,0.11,-0.015271630954950384,-0.11780972450961724,0.11235557059713497,3.011896283017739,0.707349048749349,2.400556637949793,0,0,0,0,0,0,1500,1500,1500,1500,1500,1500
1747555432.4519222,0.03,0.02,0.11,-0.015271630954950384,-0.11780972450961724,0.11235557059713497,3.011896283017739,0.707349048749349,2.400556637949793,0,0,0,0,0,0,1500,1500,1500,1500,1500,1500
1747555432.5521407,0.03,0.02,0.11,-0.015271630954950384,-0.11780972450961724,0.11235557059713497,3.011896283017739,0.707349048749349,2.400556637949793,0,0,0,0,0,0,1500,1500,1500,1500,1500,1500
1747555432.5521407,0.03,0.02,0.11,-0.015271630954950384,-0.11780972450961724,0.11235557059713497,3.011896283017739,0.707349048749349,2.400556637949793,0,0,0,0,0,0,1500,1500,1500,1500,1500,1500
1747555432.6347263,0.17,-0.38,-0.11,-0.09708393964218458,-0.09817477042468103,0.08617563181722002,2.990258225464517,0.7198235661586164,2.3769971473780136,-3,0,0,0,0,0,1460,1540,1500,1460,1460,1460
1747555432.636142,0.17,-0.38,-0.11,-0.09708393964218458,-0.09817477042468103,0.08617563181722002,2.990258225464517,0.7198235661586164,2.3769971473780136,-9,0,0,0,0,0,1420,1580,1500,1420,1420,1420
1747555432.7351215,0.12,-0.22,-0.08,-0.039269908169872414,-0.136353847812057,0.06217735460229799,2.9725470423077236,0.733939547850072,2.360839476774581,-3,0,0,0,0,0,1429,1564,1500,1380,1405,1405
1747555432.7361202,0.12,-0.22,-0.08,-0.039269908169872414,-0.136353847812057,0.06217735460229799,2.9725470423077236,0.733939547850072,2.360839476774581,-9,0,0,0,0,0,1389,1604,1500,1340,1365,1365
1747555432.83576,0.12,-0.22,-0.08,-0.039269908169872414,-0.136353847812057,0.06217735460229799,2.9725470423077236,0.733939547850072,2.360839476774581,-3,0,0,0,0,0,1429,1564,1500,1363,1405,1405
1747555432.83576,0.12,-0.22,-0.08,-0.039269908169872414,-0.136353847812057,0.06217735460229799,2.9725470423077236,0.733939547850072,2.360839476774581,-9,0,0,0,0,0,1389,1604,1500,1323,1365,1365
1747555432.935527,-0.93,-0.56,-0.15,0.025089107997418487,-0.16580627893946132,0.004363323129985824,2.9619488508135987,0.7544998449765068,2.3482722835272165,-3,0,0,0,0,0,1429,1564,1500,1363,1405,1405
1747555432.9367843,-0.93,-0.56,-0.15,0.025089107997418487,-0.16580627893946132,0.004363323129985824,2.9619488508135987,0.7544998449765068,2.3482722835272165,-9,0,0,0,0,0,1389,1604,1500,1323,1365,1365
1747555433.0237372,0.08,-0.15,-0.04,-0.3174317577064687,-0.1341721862470641,-0.10799224746714914,2.944385798055049,0.7785884117672062,2.355719572736897,-3,0,0,0,0,0,1429,1564,1500,1363,1405,1405
1747555433.0247452,0.08,-0.15,-0.04,-0.3174317577064687,-0.1341721862470641,-0.10799224746714914,2.944385798055049,0.7785884117672062,2.355719572736897,-9,0,0,0,0,0,1389,1604,1500,1323,1365,1365
1747555433.1176732,0.08,-0.15,-0.04,-0.3174317577064687,-0.1341721862470641,-0.10799224746714914,2.944385798055049,0.7785884117672062,2.355719572736897,-3,0,0,0,0,0,1429,1564,1500,1363,1405,1405
1747555433.1188009,0.08,-0.15,-0.04,-0.3174317577064687,-0.1341721862470641,-0.10799224746714914,2.944385798055049,0.7785884117672062,2.355719572736897,-9,0,0,0,0,0,1389,1604,1500,1323,1365,1365
1747555433.2182424,-0.21,-0.35000000000000003,0.01,-0.21707532571679475,-0.11344640137963143,-0.07853981633974483,2.9187470942504654,0.8013153365630973,2.375045501281056,-3,0,0,0,0,0,1429,1564,1500,1363,1405,1405
1747555433.2192407,-0.21,-0.35000000000000003,0.01,-0.21707532571679475,-0.11344640137963143,-0.07853981633974483,2.9187470942504654,0.8013153365630973,2.375045501281056,-9,0,0,0,0,0,1389,1604,1500,1323,1365,1365
1747555433.3186064,-0.21,-0.35000000000000003,0.01,-0.21707532571679475,-0.11344640137963143,-0.07853981633974483,2.9187470942504654,0.8013153365630973,2.375045501281056,-3,0,0,0,0,0,1429,1564,1500,1363,1405,1405
1747555433.3186064,-0.21,-0.35000000000000003,0.01,-0.21707532571679475,-0.11344640137963143,-0.07853981633974483,2.9187470942504654,0.8013153365630973,2.375045501281056,-9,0,0,0,0,0,1389,1604,1500,1323,1365,1365
1747555433.4021003,0.09,-0.07,-0.13,-0.1189005552921137,-0.11671889372712078,-0.04908738521234052,2.9023301688855585,0.8212289475293759,2.386553766326135,-3,0,0,0,0,0,1429,1564,1500,1363,1405,1405
1747555433.4021003,0.09,-0.07,-0.13,-0.1189005552921137,-0.11671889372712078,-0.04908738521234052,2.9023301688855585,0.8212289475293759,2.386553766326135,-9,0,0,0,0,0,1389,1604,1500,1323,1365,1365
1747555433.5015283,0.06,-0.01,-0.12,-0.019634954084936207,-0.15271630954950383,-0.0272707695624114,2.8957274555239807,0.8427555961933377,2.3889693715458895,-3,0,0,0,0,0,1429,1564,1500,1363,1405,1405
1747555433.5025258,0.06,-0.01,-0.12,-0.019634954084936207,-0.15271630954950383,-0.0272707695624114,2.8957274555239807,0.8427555961933377,2.3889693715458895,-9,0,0,0,0,0,1389,1604,1500,1323,1365,1365
1747555433.6020124,0.06,-0.01,-0.12,-0.019634954084936207,-0.15271630954950383,-0.0272707695624114,2.8957274555239807,0.8427555961933377,2.3889693715458895,-3,0,0,0,0,0,1429,1564,1500,1363,1405,1405
1747555433.6030972,0.06,-0.01,-0.12,-0.019634954084936207,-0.15271630954950383,-0.0272707695624114,2.8957274555239807,0.8427555961933377,2.3889693715458895,-9,0,0,0,0,0,1389,1604,1500,1323,1365,1365
1747555433.7024553,0.11,-0.08,-0.02,-0.007635815477475192,-0.16580627893946132,-0.022907446432425576,2.8937691114306796,0.8673682511528462,2.3860517322201367,-3,0,0,0,0,0,1429,1564,1500,1363,1405,1405
1747555433.7024553,0.11,-0.08,-0.02,-0.007635815477475192,-0.16580627893946132,-0.022907446432425576,2.8937691114306796,0.8673682511528462,2.3860517322201367,-9,0,0,0,0,0,1389,1604,1500,1323,1365,1365
1747555433.8012042,0.11,-0.08,-0.02,-0.007635815477475192,-0.16580627893946132,-0.022907446432425576,2.8937691114306796,0.8673682511528462,2.3860517322201367,-3,0,0,0,0,0,1429,1564,1500,1363,1405,1405
1747555433.8022013,0.11,-0.08,-0.02,-0.007635815477475192,-0.16580627893946132,-0.022907446432425576,2.8937691114306796,0.8673682511528462,2.3860517322201367,-9,0,0,0,0,0,1389,1604,1500,1323,1365,1365
1747555433.884258,-0.03,0.09,0.0,-0.020725784867432664,-0.1538071403320003,-0.0272707695624114,2.8884482925913533,0.8918300127953959,2.381928204543693,-3,0,0,0,0,0,1429,1564,1500,1363,1405,1405
1747555433.885255,-0.03,0.09,0.0,-0.020725784867432664,-0.1538071403320003,-0.0272707695624114,2.8884482925913533,0.8918300127953959,2.381928204543693,-9,0,0,0,0,0,1389,1604,1500,1323,1365,1365
1747555433.9852483,-0.04,-0.09,-0.04,-0.0545415391248228,-0.13744467859455345,-0.013089969389957472,2.8785586832076326,0.9125852103231225,2.3773865482519887,-3,0,0,0,0,0,1429,1564,1500,1363,1405,1405
1747555433.9852483,-0.04,-0.09,-0.04,-0.0545415391248228,-0.13744467859455345,-0.013089969389957472,2.8785586832076326,0.9125852103231225,2.3773865482519887,-9,0,0,0,0,0,1389,1604,1500,1323,1365,1365
1747555434.0843291,-0.04,-0.09,-0.04,-0.0545415391248228,-0.13744467859455345,-0.013089969389957472,2.8785586832076326,0.9125852103231225,2.3773865482519887,-3,0,0,0,0,0,1429,1564,1500,1363,1405,1405
1747555434.085822,-0.04,-0.09,-0.04,-0.0545415391248228,-0.13744467859455345,-0.013089969389957472,2.8785586832076326,0.9125852103231225,2.3773865482519887,-9,0,0,0,0,0,1389,1604,1500,1323,1365,1365
1747555434.1676364,-0.07,0.07,-0.09,-0.07090400086226964,-0.14726215563702155,-0.014180800172453928,2.863904971080049,0.9318012909762099,2.3705215100914665,-3,0,0,0,0,0,1429,1564,1500,1363,1405,1405
1747555434.1849267,-0.07,0.07,-0.09,-0.07090400086226964,-0.14726215563702155,-0.014180800172453928,2.863904971080049,0.9318012909762099,2.3705215100914665,-3,0,0,0,0,0,1429,1564,1500,1363,1405,1405
1747555434.2674701,-0.07,0.07,-0.09,-0.07090400086226964,-0.14726215563702155,-0.014180800172453928,2.863904971080049,0.9318012909762099,2.3705215100914665,-3,0,0,0,0,0,1429,1564,1500,1363,1405,1405
1747555434.2850382,0.0,-0.05,-0.04,-0.09926560120717749,-0.14726215563702155,-0.020725784867432664,2.844624772801172,0.9537210375105497,2.362838934030921,-9,0,0,0,0,0,1389,1604,1500,1323,1365,1365
1747555434.367627,0.0,-0.05,-0.04,-0.09926560120717749,-0.14726215563702155,-0.020725784867432664,2.844624772801172,0.9537210375105497,2.362838934030921,-3,0,0,0,0,0,1429,1564,1500,1363,1405,1405
1747555434.3689115,0.0,-0.05,-0.04,-0.09926560120717749,-0.14726215563702155,-0.020725784867432664,2.844624772801172,0.9537210375105497,2.362838934030921,-9,0,0,0,0,0,1389,1604,1500,1323,1365,1365
1747555434.4690962,0.08,0.05,-0.11,-0.14180800172453928,-0.1461713248545251,-0.018544123302439753,2.8197735469582317,0.9759327490285696,2.3555432753740697,-3,0,0,0,0,0,1429,1564,1500,1363,1405,1405
1747555434.4690962,0.08,0.05,-0.11,-0.14180800172453928,-0.1461713248545251,-0.018544123302439753,2.8197735469582317,0.9759327490285696,2.3555432753740697,-9,0,0,0,0,0,1389,1604,1500,1323,1365,1365
1747555434.5688162,0.08,0.05,-0.11,-0.14180800172453928,-0.1461713248545251,-0.018544123302439753,2.8197735469582317,0.9759327490285696,2.3555432753740697,-3,0,0,0,0,0,1429,1564,1500,1363,1405,1405
1747555434.570074,0.08,0.05,-0.11,-0.14180800172453928,-0.1461713248545251,-0.018544123302439753,2.8197735469582317,0.9759327490285696,2.3555432753740697,-9,0,0,0,0,0,1389,1604,1500,1323,1365,1365
1747555434.651612,-0.04,0.14,0.01,-0.18216874067690814,-0.16471544815696484,-0.019634954084936207,2.786410799971414,0.99930889311861,2.345466903196552,-3,0,0,0,0,0,1429,1564,1500,1363,1405,1405
1747555434.6678698,-0.04,0.14,0.01,-0.18216874067690814,-0.16471544815696484,-0.019634954084936207,2.786410799971414,0.99930889311861,2.345466903196552,-3,0,0,0,0,0,1429,1564,1500,1363,1405,1405
1747555434.7519655,-0.04,0.14,0.01,-0.18216874067690814,-0.16471544815696484,-0.019634954084936207,2.786410799971414,0.99930889311861,2.345466903196552,-3,0,0,0,0,0,1429,1564,1500,1363,1405,1405
1747555434.7678661,-0.03,0.04,0.01,-0.19198621771937624,-0.16471544815696484,-0.020725784867432664,2.7457347616178733,1.0249120287539961,2.332058025264925,-3,0,0,0,0,0,1429,1564,1500,1363,1405,1405
1747555434.8518667,-0.03,0.04,0.01,-0.19198621771937624,-0.16471544815696484,-0.020725784867432664,2.7457347616178733,1.0249120287539961,2.332058025264925,-3,0,0,0,0,0,1429,1564,1500,1363,1405,1405
1747555434.85327,-0.03,0.04,0.01,-0.19198621771937624,-0.16471544815696484,-0.020725784867432664,2.7457347616178733,1.0249120287539961,2.332058025264925,-9,0,0,0,0,0,1389,1604,1500,1323,1365,1365
1747555434.9519315,-0.05,0.19,-0.04,-0.21598449493429828,-0.15489797111449674,-0.025089107997418487,2.7049606206432095,1.04726350621843,2.319722491115944,-3,0,0,0,0,0,1429,1564,1500,1363,1405,1405
1747555434.952928,-0.05,0.19,-0.04,-0.21598449493429828,-0.15489797111449674,-0.025089107997418487,2.7049606206432095,1.04726350621843,2.319722491115944,-9,0,0,0,0,0,1389,1604,1500,1323,1365,1365
1747555435.052199,-0.05,0.19,-0.04,-0.21598449493429828,-0.15489797111449674,-0.025089107997418487,2.7049606206432095,1.04726350621843,2.319722491115944,-3,0,0,0,0,0,1429,1564,1500,1363,1405,1405
1747555435.052199,-0.05,0.19,-0.04,-0.21598449493429828,-0.15489797111449674,-0.025089107997418487,2.7049606206432095,1.04726350621843,2.319722491115944,-9,0,0,0,0,0,1389,1604,1500,1323,1365,1365
1747555435.134827,0.07,0.05,-0.07,-0.23889194136672387,-0.14180800172453928,-0.03381575425739013,2.658946703493663,1.0699630887596832,2.30737236371261,-3,0,0,0,0,0,1429,1564,1500,1363,1405,1405
1747555435.1358247,0.07,0.05,-0.07,-0.23889194136672387,-0.14180800172453928,-0.03381575425739013,2.658946703493663,1.0699630887596832,2.30737236371261,-9,0,0,0,0,0,1389,1604,1500,1323,1365,1365
1747555435.23513,-0.08,0.28,-0.07,-0.25089107997418486,-0.13853550937704992,-0.05345070834232634,2.6161591844152103,1.090862687697257,2.299465763798842,-3,0,0,0,0,0,1429,1564,1500,1363,1405,1405
1747555435.236229,-0.08,0.28,-0.07,-0.25089107997418486,-0.13853550937704992,-0.05345070834232634,2.6161591844152103,1.090862687697257,2.299465763798842,-9,0,0,0,0,0,1389,1604,1500,1323,1365,1365
1747555435.335257,-0.08,0.28,-0.07,-0.25089107997418486,-0.13853550937704992,-0.05345070834232634,2.6161591844152103,1.090862687697257,2.299465763798842,-3,0,0,0,0,0,1429,1564,1500,1363,1405,1405
1747555435.3362534,-0.08,0.28,-0.07,-0.25089107997418486,-0.13853550937704992,-0.05345070834232634,2.6161591844152103,1.090862687697257,2.299465763798842,-9,0,0,0,0,0,1389,1604,1500,1323,1365,1365
1747555435.434416,0.1,-0.04,-0.04,-0.2683443724941282,-0.12871803233458182,-0.06326818538479445,2.5694624829253416,1.1136059354794656,2.2927781316598583,-3,0,0,0,0,0,1429,1564,1500,1363,1405,1405
1747555435.4354138,0.1,-0.04,-0.04,-0.2683443724941282,-0.12871803233458182,-0.06326818538479445,2.5694624829253416,1.1136059354794656,2.2927781316598583,-9,0,0,0,0,0,1389,1604,1500,1323,1365,1365
1747555435.534689,-0.04,-0.03,0.01,-0.2716168648416175,-0.10471975511965978,-0.04908738521234052,2.5259560312582474,1.1331554423618142,2.2873347466698584,-3,0,0,0,0,0,1429,1564,1500,1363,1405,1405
1747555435.534689,-0.04,-0.03,0.01,-0.2716168648416175,-0.10471975511965978,-0.04908738521234052,2.5259560312582474,1.1331554423618142,2.2873347466698584,-9,0,0,0,0,0,1389,1604,1500,1323,1365,1365
1747555435.6197395,-0.04,-0.03,0.01,-0.2716168648416175,-0.10471975511965978,-0.04908738521234052,2.5259560312582474,1.1331554423618142,2.2873347466698584,-3,0,0,0,0,0,1429,1564,1500,1363,1405,1405
1747555435.6207364,-0.04,-0.03,0.01,-0.2716168648416175,-0.10471975511965978,-0.04908738521234052,2.5259560312582474,1.1331554423618142,2.2873347466698584,-9,0,0,0,0,0,1389,1604,1500,1323,1365,1365
1747555435.724446,0.01,0.01,0.08,-0.2814343418840856,-0.09490227807719166,-0.04036073895236887,2.475124138094135,1.149939863838878,2.2786757026457725,-3,0,0,0,0,0,1429,1564,1500,1363,1405,1405
1747555435.7254426,0.01,0.01,0.08,-0.2814343418840856,-0.09490227807719166,-0.04036073895236887,2.475124138094135,1.149939863838878,2.2786757026457725,-9,0,0,0,0,0,1389,1604,1500,1323,1365,1365
1747555435.8176737,0.01,0.01,0.08,-0.2814343418840856,-0.09490227807719166,-0.04036073895236887,2.475124138094135,1.149939863838878,2.2786757026457725,-3,0,0,0,0,0,1429,1564,1500,1363,1405,1405
1747555435.8201742,0.01,0.01,0.08,-0.2814343418840856,-0.09490227807719166,-0.04036073895236887,2.475124138094135,1.149939863838878,2.2786757026457725,-9,0,0,0,0,0,1389,1604,1500,1323,1365,1365
1747555435.9010677,0.01,0.17,0.07,-0.28034351110158917,-0.07417649320975901,-0.03381575425739013,2.4210658193905252,1.1634401786793156,2.2678220456829052,-3,0,0,0,0,0,1429,1564,1500,1363,1405,1405
1747555435.917829,0.01,0.17,0.07,-0.28034351110158917,-0.07417649320975901,-0.03381575425739013,2.4210658193905252,1.1634401786793156,2.2678220456829052,-3,0,0,0,0,0,1429,1564,1500,1363,1405,1405
1747555436.002076,0.01,0.17,0.07,-0.28034351110158917,-0.07417649320975901,-0.03381575425739013,2.4210658193905252,1.1634401786793156,2.2678220456829052,-3,0,0,0,0,0,1429,1564,1500,1363,1405,1405
1747555436.008067,0.16,0.06,0.09,-0.2825251726665821,-0.0545415391248228,-0.026179938779914945,2.3665416284435734,1.1736607699000143,2.2569532374058077,-9,0,0,0,0,0,1389,1604,1500,1323,1365,1365
1747555436.1019516,0.16,0.06,0.09,-0.2825251726665821,-0.0545415391248228,-0.026179938779914945,2.3665416284435734,1.1736607699000143,2.2569532374058077,-3,0,0,0,0,0,1429,1564,1500,1363,1405,1405
1747555436.1029508,0.16,0.06,0.09,-0.2825251726665821,-0.0545415391248228,-0.026179938779914945,2.3665416284435734,1.1736607699000143,2.2569532374058077,-9,0,0,0,0,0,1389,1604,1500,1323,1365,1365
1747555436.2027268,0.03,0.08,0.05,-0.2792526803190927,-0.038179077387375956,-0.020725784867432664,2.3199711417998103,1.1809881951718793,2.2504499784677328,-3,0,0,0,0,0,1429,1564,1500,1363,1405,1405
1747555436.2037258,0.03,0.08,0.05,-0.2792526803190927,-0.038179077387375956,-0.020725784867432664,2.3199711417998103,1.1809881951718793,2.2504499784677328,-9,0,0,0,0,0,1389,1604,1500,1323,1365,1365
1747555436.301527,0.03,0.08,0.05,-0.2792526803190927,-0.038179077387375956,-0.020725784867432664,2.3199711417998103,1.1809881951718793,2.2504499784677328,-3,0,0,0,0,0,1429,1564,1500,1363,1405,1405
1747555436.303339,0.03,0.08,0.05,-0.2792526803190927,-0.038179077387375956,-0.020725784867432664,2.3199711417998103,1.1809881951718793,2.2504499784677328,-9,0,0,0,0,0,1389,1604,1500,1323,1365,1365
1747555436.3846097,0.04,0.11,-0.01,-0.2748893571891069,-0.055632369907319255,-0.008726646259971648,2.2667457519707988,1.186836314301727,2.2398400144597446,-3,0,0,0,0,0,1429,1564,1500,1363,1405,1405
1747555436.4853082,-0.06,0.06,0.05,-0.24652775684419906,-0.05999569303730508,0.0,2.2107094066887663,1.1923764935551822,2.22107874510039,-3,0,0,0,0,0,1429,1564,1500,1363,1405,1405
1747555436.5847766,-0.06,0.06,0.05,-0.24652775684419906,-0.05999569303730508,0.0,2.2107094066887663,1.1923764935551822,2.22107874510039,-3,0,0,0,0,0,1429,1564,1500,1363,1405,1405
1747555436.6686301,-0.14,0.05,0.09,-0.19634954084936207,-0.032724923474893676,-0.001090830782496456,2.1612847222296296,1.196325017087132,2.2054773702668844,-3,0,0,0,0,0,1429,1564,1500,1363,1405,1405
1747555436.7680357,-0.14,0.05,0.09,-0.19634954084936207,-0.032724923474893676,-0.001090830782496456,2.1612847222296296,1.196325017087132,2.2054773702668844,-3,0,0,0,0,0,1429,1564,1500,1363,1405,1405
1747555436.8677795,0.3,0.05,-0.04,-0.16798794050445423,-0.026179938779914945,0.018544123302439753,2.1237685132648467,1.1979031574113734,2.1948352746647686,-3,0,0,0,0,0,1429,1564,1500,1363,1405,1405
1747555436.9685636,-0.11,0.02,0.12,-0.19853120241435498,-0.04363323129985824,0.039269908169872414,2.0772308025982347,1.1962297832192634,2.174879383971756,-3,0,0,0,0,0,1429,1564,1500,1363,1405,1405
1747555437.067897,-0.11,0.02,0.12,-0.19853120241435498,-0.04363323129985824,0.039269908169872414,2.0772308025982347,1.1962297832192634,2.174879383971756,-3,0,0,0,0,0,1429,1564,1500,1363,1405,1405
1747555437.151277,-0.11,0.1,0.17,-0.21707532571679475,-0.026179938779914945,0.04254240051736178,2.0227702236861718,1.1936245636161127,2.1514915570092645,-3,0,0,0,0,0,1429,1564,1500,1363,1405,1405
1747555437.2518613,-0.11,0.1,0.17,-0.21707532571679475,-0.026179938779914945,0.04254240051736178,2.0227702236861718,1.1936245636161127,2.1514915570092645,-3,0,0,0,0,0,1429,1564,1500,1363,1405,1405
1747555437.3519342,0.01,0.19,0.18,-0.2279836335417593,-0.009817477042468103,0.04036073895236887,1.976841999701789,1.188584223326382,2.1368417840769003,-3,0,0,0,0,0,1429,1564,1500,1363,1405,1405
1747555437.4510922,0.02,0.08,0.05,-0.24652775684419906,0.01090830782496456,0.031634092692397225,2.3520805129727145,-1.5707963267948966,-1.9998788695527931,-3,0,0,0,0,0,1429,1564,1500,1363,1405,1405
1747555437.5512927,0.02,0.08,0.05,-0.24652775684419906,0.01090830782496456,0.031634092692397225,2.3520805129727145,-1.5707963267948966,-1.9998788695527931,-3,0,0,0,0,0,1429,1564,1500,1363,1405,1405
1747555437.6340632,0.12,0.04,0.03,-0.2399827721492203,0.014180800172453928,0.037088246604879506,1.8928259888677825,1.1775828389018634,2.125333396828813,-3,0,0,0,0,0,1429,1564,1500,1363,1405,1405
1747555437.73452,-0.07,0.07,-0.01,-0.2454369260617026,0.018544123302439753,0.03599741582238305,1.857663670696831,1.1714664992424104,2.125390191349999,-3,0,0,0,0,0,1429,1564,1500,1363,1405,1405
1747555437.835153,-0.07,0.07,-0.01,-0.2454369260617026,0.018544123302439753,0.03599741582238305,1.857663670696831,1.1714664992424104,2.125390191349999,-3,0,0,0,0,0,1429,1564,1500,1363,1405,1405
1747555437.9176197,-0.08,0.08,0.19,-0.21707532571679475,0.03490658503988659,0.04036073895236887,1.8243828795821988,1.1639725259211253,2.1284676842375854,-3,0,0,0,0,0,1429,1564,1500,1363,1405,1405
1747555438.0188034,-0.08,0.08,0.19,-0.21707532571679475,0.03490658503988659,0.04036073895236887,1.8243828795821988,1.1639725259211253,2.1284676842375854,-3,0,0,0,0,0,1429,1564,1500,1363,1405,1405
1747555438.1188796,0.08,0.08,0.03,-0.20507618710933373,0.04254240051736178,0.030543261909900768,1.8013260498922712,1.157372392907011,2.139394740814368,-3,0,0,0,0,0,1429,1564,1500,1363,1405,1405
1747555438.2188272,0.03,0.03,0.18,-0.19525871006686563,0.044724062082354694,0.02399827721492203,1.7834639825141003,1.1514343087721997,2.1531227941889823,-3,0,0,0,0,0,1429,1564,1500,1363,1405,1405
1747555438.3179529,0.03,0.03,0.18,-0.19525871006686563,0.044724062082354694,0.02399827721492203,1.7834639825141003,1.1514343087721997,2.1531227941889823,-3,0,0,0,0,0,1429,1564,1500,1363,1405,1405
1747555438.4012601,0.02,0.13,0.15,-0.19198621771937624,0.038179077387375956,0.020725784867432664,1.7664627227607157,1.1464907630600565,2.1658196827647256,-3,0,0,0,0,0,1429,1564,1500,1363,1405,1405
1747555438.501523,0.02,0.13,0.15,-0.19198621771937624,0.038179077387375956,0.020725784867432664,1.7664627227607157,1.1464907630600565,2.1658196827647256,-3,0,0,0,0,0,1429,1564,1500,1363,1405,1405
1747555438.6018498,-0.06,0.03,0.06,-0.19198621771937624,0.17671458676442586,0.030543261909900768,1.7479569117301275,1.1412076757462808,2.178186315054082,-3,0,0,0,0,0,1429,1564,1500,1363,1405,1405
1747555438.7014685,0.1,-0.05,0.1,-0.1734420944169365,0.03490658503988659,0.03381575425739013,1.7301079227399174,1.1354462746330363,2.187840508953136,-3,0,0,0,0,0,1429,1564,1500,1363,1405,1405
1747555438.8020325,0.1,-0.05,0.1,-0.1734420944169365,0.03490658503988659,0.03381575425739013,1.7301079227399174,1.1354462746330363,2.187840508953136,-3,0,0,0,0,0,1429,1564,1500,1363,1405,1405
1747555438.8853295,0.25,0.13,0.05,-0.16035212502697901,0.037088246604879506,0.04363323129985824,1.714292005694029,1.1286631733945605,2.198972282037807,-3,0,0,0,0,0,1429,1564,1500,1363,1405,1405
1747555438.9848886,-0.02,0.04,0.13,-0.14289883250703572,0.05672320068981571,0.05345070834232634,1.7053602420646288,1.1209724589912102,2.2130445315072627,-3,0,0,0,0,0,1429,1564,1500,1363,1405,1405
1747555439.0848813,-0.02,0.04,0.13,-0.14289883250703572,0.05672320068981571,0.05345070834232634,1.7053602420646288,1.1209724589912102,2.2130445315072627,-3,0,0,0,0,0,1429,1564,1500,1363,1405,1405
1747555439.1846077,-0.04,0.01,0.06,-0.1407171709420428,0.055632369907319255,0.0719948316447661,1.6992618461760316,1.1103616751212602,2.230865205264364,-3,0,0,0,0,0,1429,1564,1500,1363,1405,1405
1747555439.2851322,-0.04,0.01,0.06,-0.1407171709420428,0.055632369907319255,0.0719948316447661,1.6992618461760316,1.1103616751212602,2.230865205264364,-3,0,0,0,0,0,1429,1564,1500,1363,1405,1405
1747555439.3678732,-0.01,0.08,0.16,-0.14508049407202864,0.055632369907319255,0.09053895494720585,1.691732810143618,1.0966667740626217,2.2466443479430454,-3,0,0,0,0,0,1429,1564,1500,1363,1405,1405
1747555439.4753017,-0.01,0.08,0.16,-0.14508049407202864,0.055632369907319255,0.09053895494720585,1.691732810143618,1.0966667740626217,2.2466443479430454,-3,0,0,0,0,0,1429,1564,1500,1363,1405,1405
1747555439.5688283,0.0,-0.05,0.12,-0.1439896632895322,0.04799655442984406,0.10035643198967395,1.6812598643785122,1.0807485562988541,2.2600353825244492,-3,0,0,0,0,0,1429,1564,1500,1363,1405,1405
1747555439.6521442,0.06,-0.04,0.02,-0.11999138607461016,0.05781403147231216,0.11017390903214205,1.6726006836115521,1.064280597921226,2.2724312597271417,-3,0,0,0,0,0,1429,1564,1500,1363,1405,1405
1747555439.7512586,0.06,-0.04,0.02,-0.11999138607461016,0.05781403147231216,0.11017390903214205,1.6726006836115521,1.064280597921226,2.2724312597271417,-3,0,0,0,0,0,1429,1564,1500,1363,1405,1405
1747555439.851786,0.19,0.04,0.05,-0.10471975511965978,0.05890486225480862,0.11780972450961724,1.667654297124199,1.0456363048786543,2.2872697713245307,-3,0,0,0,0,0,1429,1564,1500,1363,1405,1405
1747555439.9508805,-0.1,-0.03,0.09,-0.09272061651219876,0.05235987755982989,0.12217304763960307,1.663989195945958,1.0261673450111968,2.301060331955559,-3,0,0,0,0,0,1429,1564,1500,1363,1405,1405
1747555440.051312,-0.1,-0.03,0.09,-0.09272061651219876,0.05235987755982989,0.12217304763960307,1.663989195945958,1.0261673450111968,2.301060331955559,-3,0,0,0,0,0,1429,1564,1500,1363,1405,1405
1747555440.1360295,0.1,0.11,0.15,-0.10581058590215622,0.04690572364734761,0.11780972450961724,1.6590109506340558,1.0080284219675777,2.3118650983396978,-3,0,0,0,0,0,1429,1564,1500,1363,1405,1405
1747555440.2308598,0.06,0.06,0.03,-0.10035643198967395,0.04145156973486533,0.1090830782496456,1.6505020572468478,0.989656172982714,2.3202699893164542,-3,0,0,0,0,0,1429,1564,1500,1363,1405,1405
1747555440.3343034,0.06,0.06,0.03,-0.10035643198967395,0.04145156973486533,0.1090830782496456,1.6505020572468478,0.989656172982714,2.3202699893164542,-3,0,0,0,0,0,1429,1564,1500,1363,1405,1405
1747555440.417712,0.27,0.07,0.03,-0.07963064712224129,0.025089107997418487,0.09817477042468103,1.6415701783780363,0.9723237021381657,2.3265042685918487,-3,0,0,0,0,0,1429,1564,1500,1363,1405,1405
1747555440.517711,0.27,0.07,0.03,-0.07963064712224129,0.025089107997418487,0.09817477042468103,1.6415701783780363,0.9723237021381657,2.3265042685918487,-3,0,0,0,0,0,1429,1564,1500,1363,1405,1405
1747555440.6177082,0.24,0.05,-0.06,-0.07635815477475191,0.004363323129985824,0.09053895494720585,1.6297130561801254,0.9566224590772792,2.3269560267339595,0,0,0,0,0,0,1469,1524,1500,1403,1445,1445
1747555440.7133656,-0.08,-0.11,0.16,-0.08072147790473774,-0.013089969389957472,0.08072147790473774,1.6162982674008752,0.9435117409990775,2.3244516464846976,0,0,0,0,0,0,1500,1500,1500,1443,1485,1485
1747555440.8175056,-0.08,-0.11,0.16,-0.08072147790473774,-0.013089969389957472,0.08072147790473774,1.6162982674008752,0.9435117409990775,2.3244516464846976,0,0,0,0,0,0,1500,1500,1500,1483,1500,1500
1747555440.9014738,0.27,0.22,0.03,0.10581058590215622,-0.01090830782496456,0.11562806294462433,1.613782116548634,0.9257345983503065,2.3186701059001877,0,0,0,0,0,0,1500,1500,1500,1500,1500,1500
1747555441.001595,0.27,0.22,0.03,0.10581058590215622,-0.01090830782496456,0.11562806294462433,1.613782116548634,0.9257345983503065,2.3186701059001877,0,0,0,0,0,0,1500,1500,1500,1500,1500,1500
1747555441.1009696,0.01,0.11,0.03,0.16580627893946132,0.003272492347489368,0.09926560120717749,1.632833281010727,0.906632679033269,2.314893186761838,0,0,0,0,0,0.459402,1540,1460,1500,1500,1500,1500
1747555441.200892,0.11,0.08,0.04,0.18762289458939044,0.0,0.08399397025222712,1.6567127159938102,0.8927153299306319,2.312928354961213,0,0,0,0,0,0.7,1580,1420,1500,1500,1500,1500
1747555441.3011096,0.11,0.08,0.04,0.18762289458939044,0.0,0.08399397025222712,1.6567127159938102,0.8927153299306319,2.312928354961213,0,0,0,0,0,0.7,1608,1380,1500,1500,1500,1500
1747555441.3844376,0.27,-0.15,0.05,0.24652775684419906,-0.028361600344907856,0.12871803233458182,1.6872546827035837,0.8775266198380599,2.3083223101113437,0,0,0,0,0,0.7,1608,1377,1500,1500,1500,1500
1747555441.4840353,0.27,-0.15,0.05,0.24652775684419906,-0.028361600344907856,0.12871803233458182,1.6872546827035837,0.8775266198380599,2.3083223101113437,0,0,0,0,0,0.7,1608,1377,1500,1500,1500,1500
1747555441.5842636,0.24,-0.31,-0.05,0.33597588100890846,-0.06872233929727672,0.44833145160604343,1.7160235375626685,0.8392225788854425,2.2896096760186824,0,0,0,0,0,0.7,1608,1377,1500,1500,1500,1500
1747555441.6677363,0.09,-0.11,-0.09,0.4308781590861001,-0.0272707695624114,0.8933904108645975,1.751362120472343,0.7324522779921386,2.2545736992690073,0,0,0,0,0,0.7,1608,1377,1500,1500,1500,1500
1747555441.7676294,0.09,-0.11,-0.09,0.4308781590861001,-0.0272707695624114,0.8933904108645975,1.751362120472343,0.7324522779921386,2.2545736992690073,0,0,0,0,0,0.7,1608,1377,1500,1500,1500,1500
