time,ay,ax,az,gy,gx,gz,roll,pitch,yaw,cmd_fx,cmd_fy,cmd_fz,cmd_tx,cmd_ty,cmd_tz,pwm_1,pwm_2,pwm_3,pwm_4,pwm_5,pwm_6
1747538134.1631546,0.0,0.0,0.0,0.0,0.0,0.0,0.0,0.0,0.0,0,0,0,0,0,0,1500,1500,1500,1500,1500,1500
1747538134.2463884,-0.05,-0.28,0.13,0.0,0.001090830782496456,-0.001090830782496456,2.0749026585244708,-0.1441165668804732,-0.24331123250351433,0,0,0,0,0,0,1500,1500,1500,1500,1500,1500
1747538134.3473206,-0.05,-0.28,0.13,0.0,0.001090830782496456,-0.001090830782496456,2.0749026585244708,-0.1441165668804732,-0.24331123250351433,0,0,0,0,0,0,1500,1500,1500,1500,1500,1500
1747538134.4303358,-0.05,-0.26,0.11,0.003272492347489368,0.001090830782496456,-0.002181661564992912,2.0749026585244708,-0.1441165668804732,-0.24331123250351433,0,0,0,0,0,0,1500,1500,1500,1500,1500,1500
1747538134.5293837,-0.05,-0.26,0.11,0.003272492347489368,0.001090830782496456,-0.002181661564992912,2.0749026585244708,-0.1441165668804732,-0.24331123250351433,0,0,0,0,0,0,1500,1500,1500,1500,1500,1500
1747538134.6304326,0.0,-0.28,0.18,0.0,0.003272492347489368,0.0,2.0749026585244708,-0.1441165668804732,-0.24331123250351433,0,0,0,0,0,0,1500,1500,1500,1500,1500,1500
1747538134.712991,-0.02,-0.06,-0.01,0.0,-0.002181661564992912,0.0,2.0749026585244708,-0.1441165668804732,-0.24331123250351433,0,0,0,0,0,0,1500,1500,1500,1500,1500,1500
1747538134.8136215,-0.02,-0.06,-0.01,0.0,-0.002181661564992912,0.0,2.0749026585244708,-0.1441165668804732,-0.24331123250351433,0,0,0,0,0,0,1500,1500,1500,1500,1500,1500
1747538134.9140522,0.01,-0.02,0.06,0.0,0.002181661564992912,-0.001090830782496456,2.0749026585244708,-0.1441165668804732,-0.24331123250351433,0,0,0,0,0,0,1500,1500,1500,1500,1500,1500
1747538135.012437,0.01,-0.02,0.06,0.0,0.002181661564992912,-0.001090830782496456,2.0749026585244708,-0.1441165668804732,-0.24331123250351433,0,0,0,0,0,0,1500,1500,1500,1500,1500,1500
1747538135.1136186,0.0,-0.03,0.04,-0.001090830782496456,-0.003272492347489368,-0.002181661564992912,2.0749026585244708,-0.1441165668804732,-0.24331123250351433,0,0,0,0,0,0,1500,1500,1500,1500,1500,1500
1747538135.1967852,-0.02,-0.04,0.0,0.001090830782496456,-0.004363323129985824,0.0,2.0749026585244708,-0.1441165668804732,-0.24331123250351433,0,0,0,0,0,0,1500,1500,1500,1500,1500,1500
1747538135.2972617,-0.02,-0.04,0.0,0.001090830782496456,-0.004363323129985824,0.0,2.0749026585244708,-0.1441165668804732,-0.24331123250351433,0,0,0,0,0,0,1500,1500,1500,1500,1500,1500
1747538135.3959327,0.0,0.0,-0.02,0.004363323129985824,0.003272492347489368,0.002181661564992912,2.0749026585244708,-0.1441165668804732,-0.24331123250351433,0,0,0,0,0,0,1500,1500,1500,1500,1500,1500
1747538135.4803362,0.0,0.0,-0.02,0.004363323129985824,0.003272492347489368,0.002181661564992912,2.0749026585244708,-0.1441165668804732,-0.24331123250351433,0,0,0,0,0,0,1500,1500,1500,1500,1500,1500
1747538135.5794413,0.0,-0.03,0.02,0.002181661564992912,0.006544984694978736,0.00545415391248228,2.0749026585244708,-0.1441165668804732,-0.24331123250351433,0,0,0,0,0,0,1500,1500,1500,1500,1500,1500
1747538135.6795251,-0.02,-0.05,-0.02,0.0,-0.003272492347489368,-0.001090830782496456,2.0749026585244708,-0.1441165668804732,-0.24331123250351433,0,0,0,0,0,0,1500,1500,1500,1500,1500,1500
1747538135.7802112,-0.02,-0.05,-0.02,0.0,-0.003272492347489368,-0.001090830782496456,2.0749026585244708,-0.1441165668804732,-0.24331123250351433,0,0,0,0,0,0,1500,1500,1500,1500,1500,1500
1747538135.8799183,0.0,-0.03,0.05,0.0,0.003272492347489368,0.0,2.0749026585244708,-0.1441165668804732,-0.24331123250351433,0,0,0,0,0,0,1500,1500,1500,1500,1500,1500
1747538135.9628658,0.0,-0.03,0.05,0.0,0.003272492347489368,0.0,2.0749026585244708,-0.1441165668804732,-0.24331123250351433,0,0,0,0,0,0,1500,1500,1500,1500,1500,1500
1747538136.0635629,0.0,-0.07,0.04,0.006544984694978736,-0.001090830782496456,-0.002181661564992912,2.0749026585244708,-0.1441165668804732,-0.24331123250351433,0,0,0,0,0,0,1500,1500,1500,1500,1500,1500
1747538136.1627574,-0.01,-0.02,-0.02,0.003272492347489368,0.00545415391248228,0.001090830782496456,2.0749026585244708,-0.1441165668804732,-0.24331123250351433,0,0,0,0,0,0,1500,1500,1500,1500,1500,1500
1747538136.2463741,-0.01,-0.02,-0.02,0.003272492347489368,0.00545415391248228,0.001090830782496456,2.0749026585244708,-0.1441165668804732,-0.24331123250351433,0,0,0,0,0,0,1500,1500,1500,1500,1500,1500
1747538136.3450215,0.01,-0.01,0.03,-0.002181661564992912,0.0,0.001090830782496456,2.0749026585244708,-0.1441165668804732,-0.24331123250351433,0,0,0,0,0,0,1500,1500,1500,1500,1500,1500
1747538136.4462492,0.01,-0.01,0.03,-0.002181661564992912,0.0,0.001090830782496456,2.0749026585244708,-0.1441165668804732,-0.24331123250351433,0,0,0,0,0,0,1500,1500,1500,1500,1500,1500
1747538136.5462606,-0.03,-0.03,0.01,-0.006544984694978736,-0.00545415391248228,0.0,2.0749026585244708,-0.1441165668804732,-0.24331123250351433,0,0,0,0,0,0,1500,1500,1500,1500,1500,1500
1747538136.644846,-0.01,0.0,-0.02,-0.007635815477475192,-0.002181661564992912,-0.002181661564992912,2.0749026585244708,-0.1441165668804732,-0.24331123250351433,0,0,0,0,0,0,1500,1500,1500,1500,1500,1500
1747538136.7300055,-0.01,0.0,-0.02,-0.007635815477475192,-0.002181661564992912,-0.002181661564992912,2.0749026585244708,-0.1441165668804732,-0.24331123250351433,0,0,0,0,0,0,1500,1500,1500,1500,1500,1500
1747538136.8300264,0.02,-0.01,0.03,-0.002181661564992912,0.001090830782496456,0.001090830782496456,2.0749026585244708,-0.1441165668804732,-0.24331123250351433,0,0,0,0,0,0,1500,1500,1500,1500,1500,1500
1747538136.921353,-0.05,-0.04,0.0,0.003272492347489368,0.002181661564992912,0.004363323129985824,2.0749026585244708,-0.1441165668804732,-0.24331123250351433,0,0,0,0,0,0,1500,1500,1500,1500,1500,1500
1747538137.0133247,-0.05,-0.04,0.0,0.003272492347489368,0.002181661564992912,0.004363323129985824,2.0749026585244708,-0.1441165668804732,-0.24331123250351433,0,0,0,0,0,0,1500,1500,1500,1500,1500,1500
1747538137.112776,-0.01,-0.01,-0.02,-0.001090830782496456,-0.002181661564992912,0.004363323129985824,2.0749026585244708,-0.1441165668804732,-0.24331123250351433,0,0,0,0,0,0,1500,1500,1500,1500,1500,1500
1747538137.1967359,-0.01,-0.01,-0.02,-0.001090830782496456,-0.002181661564992912,0.004363323129985824,2.0749026585244708,-0.1441165668804732,-0.24331123250351433,0,0,0,0,0,0,1500,1500,1500,1500,1500,1500
1747538137.296002,0.01,-0.01,0.03,0.003272492347489368,0.001090830782496456,-0.001090830782496456,2.0749026585244708,-0.1441165668804732,-0.24331123250351433,0,0,0,0,0,0,1500,1500,1500,1500,1500,1500
1747538137.3964834,0.01,-0.01,0.03,0.003272492347489368,0.001090830782496456,-0.001090830782496456,2.0749026585244708,-0.1441165668804732,-0.24331123250351433,0,0,0,0,0,0,1500,1500,1500,1500,1500,1500
1747538137.4787357,-0.02,-0.03,0.0,0.002181661564992912,-0.001090830782496456,-0.003272492347489368,2.0749026585244708,-0.1441165668804732,-0.24331123250351433,0,0,0,0,0,0,1500,1500,1500,1500,1500,1500
1747538137.5793207,0.01,-0.01,0.01,0.003272492347489368,0.002181661564992912,0.0,2.0749026585244708,-0.1441165668804732,-0.24331123250351433,0,0,0,0,0,0,1500,1500,1500,1500,1500,1500
1747538137.6797051,0.01,-0.01,0.01,0.003272492347489368,0.002181661564992912,0.0,2.0749026585244708,-0.1441165668804732,-0.24331123250351433,0,0,0,0,0,0,1500,1500,1500,1500,1500,1500
1747538137.7792716,-0.02,-0.04,0.03,-0.001090830782496456,-0.002181661564992912,0.0,2.0749026585244708,-0.1441165668804732,-0.24331123250351433,-1,0,0,0,0,0,1540,1460,1463,1460,1460,1540
1747538137.8736217,-0.02,-0.03,0.0,0.0,-0.002181661564992912,-0.002181661564992912,2.0749026585244708,-0.1441165668804732,-0.24331123250351433,-1,0,0,0,0,0,1553,1446,1463,1420,1420,1580
1747538137.9631374,-0.02,-0.03,0.0,0.0,-0.002181661564992912,-0.002181661564992912,2.0749026585244708,-0.1441165668804732,-0.24331123250351433,-1,0,0,0,0,0,1553,1446,1463,1380,1403,1596
1747538138.0628672,0.08,0.02,0.31,-0.003272492347489368,-0.01090830782496456,0.02181661564992912,2.0745512704405358,-0.14389634295352383,-0.24330689892730914,-1,0,0,0,0,0,1553,1446,1463,1354,1403,1596
1747538138.1625922,0.08,0.02,0.31,-0.003272492347489368,-0.01090830782496456,0.02181661564992912,2.0745512704405358,-0.14389634295352383,-0.24330689892730914,-1,0,0,0,0,0,1553,1446,1463,1354,1403,1596
1747538138.2639406,-0.22,-0.93,0.36,0.009817477042468103,-0.05126904677733343,0.19962203319685143,2.070803309839335,-0.1558986758882167,-0.2547119226725768,-1,0,0,0,0,0,1553,1446,1463,1354,1403,1596
1747538138.3627307,0.07,-0.18,-0.1,0.26616271092913524,-0.05890486225480862,0.421060682043632,2.10459521625635,-0.1969371545753438,-0.2882527027454445,-1,0,0,0,0,0,1553,1446,1463,1354,1403,1596
1747538138.4459124,0.07,-0.18,-0.1,0.26616271092913524,-0.05890486225480862,0.421060682043632,2.10459521625635,-0.1969371545753438,-0.2882527027454445,-1,0,0,0,0,0,1553,1446,1463,1354,1403,1596
1747538138.547926,-0.06,-0.28,-0.07,0.27379852640661045,-0.10471975511965978,0.5530512067257032,2.1594984157501362,-0.2541367405075949,-0.340770905728421,-1,0,0,0,0,0,1553,1446,1463,1354,1403,1596
1747538138.6457465,-0.06,-0.28,-0.07,0.27379852640661045,-0.10471975511965978,0.5530512067257032,2.1594984157501362,-0.2541367405075949,-0.340770905728421,-1,0,0,0,0,0,1553,1446,1463,1354,1403,1596
1747538138.7334359,0.27,-0.16,-0.13,0.18871372537188688,-0.16253378659197193,0.6523168079328807,2.2185405165128365,-0.3179651863873871,-0.41594447000237594,-1,0,0,0,0,0,1553,1446,1463,1354,1403,1596
1747538138.8293848,0.17,-0.09,-0.11,0.11126473981463851,-0.22580197197676638,0.6970408700152354,2.2717469622709916,-0.37697442611609827,-0.5060419821334738,-1,0,0,0,0,0,1553,1446,1463,1354,1403,1596
1747538138.9291885,0.17,-0.09,-0.11,0.11126473981463851,-0.22580197197676638,0.6970408700152354,2.2717469622709916,-0.37697442611609827,-0.5060419821334738,-1,0,0,0,0,0,1553,1446,1463,1354,1403,1596
1747538139.0300148,0.16,0.17,-0.31,0.031634092692397225,-0.2585268954516601,0.6948592084502424,2.3256631026226904,-0.4331425990948391,-0.615154284829439,-1,0,0,0,0,0,1553,1446,1463,1354,1403,1596
1747538139.1300957,0.16,0.17,-0.31,0.031634092692397225,-0.2585268954516601,0.6948592084502424,2.3256631026226904,-0.4331425990948391,-0.615154284829439,-1,0,0,0,0,0,1553,1446,1463,1354,1403,1596
1747538139.2134414,0.08,-0.09,-0.01,-0.05890486225480862,-0.28579766501407144,0.6981317007977318,2.371350949546505,-0.47785816999383995,-0.7253829227330744,0,0,0,0,0,0,1513,1486,1500,1394,1443,1556
1747538139.3131747,0.12,-0.06,-0.18,-0.1461713248545251,-0.3119776037939864,0.7024950239277177,2.4161359150456927,-0.5180803421463428,-0.8519102679321701,0,0,0,0,0,0,1500,1500,1500,1434,1483,1516
1747538139.4128695,0.12,-0.06,-0.18,-0.1461713248545251,-0.3119776037939864,0.7024950239277177,2.4161359150456927,-0.5180803421463428,-0.8519102679321701,0,0,0,0,0,0,1500,1500,1500,1474,1500,1500
1747538139.4963145,0.12,0.09,-0.16,-0.07417649320975901,-0.3108867730114899,0.5410520681182421,2.4566503689568706,-0.5430432268919256,-0.9683078364598047,0,0,0,0,0,0,1500,1500,1500,1500,1500,1500
1747538139.5966587,0.12,0.09,-0.16,-0.07417649320975901,-0.3108867730114899,0.5410520681182421,2.4566503689568706,-0.5430432268919256,-0.9683078364598047,0,0,0,0,0,0,1500,1500,1500,1500,1500,1500
1747538139.69589,0.2,0.1,-0.09,-0.10253809355466686,-0.29670597283903605,0.38069994309126315,2.496458072902305,-0.5495532810755559,-1.067943316920962,0,0,0,0,0,0,1500,1500,1500,1500,1500,1500
1747538139.7969527,0.12,0.02,-0.09,-0.21162117180431245,-0.284706834231575,0.23452861823673804,2.5090125872990017,-0.5410356292906473,-1.142573169327494,0,0,0,0,0,0,1500,1500,1500,1500,1500,1500
1747538139.8966804,0.12,0.02,-0.09,-0.21162117180431245,-0.284706834231575,0.23452861823673804,2.5090125872990017,-0.5410356292906473,-1.142573169327494,0,0,0,0,0,0,1500,1500,1500,1500,1500,1500
1747538139.9802678,0.16,0.04,-0.12,-0.2650718801466388,-0.27707101875409984,0.12762720155208535,2.4997290472845752,-0.5220562561437683,-1.1982276537215393,0,0,0,0,0,0,1500,1500,1500,1500,1500,1500
1747538140.0719368,-0.05,0.07,0.01,-0.28907015736156083,-0.2716168648416175,0.044724062082354694,2.478214755777238,-0.4982214791735651,-1.2369342138305894,0,0,0,0,0,0,1500,1500,1500,1500,1500,1500
1747538140.1802163,-0.05,0.07,0.01,-0.28907015736156083,-0.2716168648416175,0.044724062082354694,2.478214755777238,-0.4982214791735651,-1.2369342138305894,0,-12.5,0,0,0,0,1460,1460,1460,1500,1500,1500
1747538140.2794995,-0.03,0.05,0.08,-0.3097959422289935,-0.2596177262341565,-0.02399827721492203,2.445229274550511,-0.4670662822828721,-1.2670133652468853,0,-12.5,0,0,0,0,1420,1420,1420,1500,1500,1500
1747538140.3797622,-0.03,0.05,0.08,-0.3097959422289935,-0.2596177262341565,-0.02399827721492203,2.445229274550511,-0.4670662822828721,-1.2670133652468853,0,-12.5,0,0,0,0,1380,1380,1383,1500,1500,1500
1747538140.4637225,-0.02,0.0,0.04,-0.3196134192714616,-0.24107360293171676,-0.08290313946973066,2.4078222793180624,-0.43443156745876815,-1.2865002268182524,0,-2.495869,0,0,0,0,1362,1366,1389,1500,1500,1500
1747538140.5629468,-0.03,-0.07,-0.02,-0.34579335805137656,-0.2279836335417593,-0.1189005552921137,2.362747779046989,-0.39704794594957166,-1.301000499705024,0,0,0,0,0,0,1402,1406,1429,1500,1500,1500
1747538140.6636777,-0.03,-0.07,-0.02,-0.34579335805137656,-0.2279836335417593,-0.1189005552921137,2.362747779046989,-0.39704794594957166,-1.301000499705024,0,0,0,0,0,0,1442,1446,1469,1500,1500,1500
1747538140.7626333,-0.21,-0.27,0.17,-0.4145156973486533,-0.16798794050445423,-0.1559888018969932,2.3064413492312825,-0.35891381201200273,-1.3103866538561548,0,0,0,0,0,0,1482,1486,1500,1500,1500,1500
1747538140.8618102,0.15,-0.2,0.08,-0.4036073895236887,-0.08835729338221293,-0.16798794050445423,2.2402746848238793,-0.32842072960007623,-1.3078912205461017,0,0,0,0,0,0,1500,1500,1500,1500,1500,1500
1747538140.947181,0.15,-0.2,0.08,-0.4036073895236887,-0.08835729338221293,-0.16798794050445423,2.2402746848238793,-0.32842072960007623,-1.3078912205461017,0,0,1.710527,0,0,0,1462,1462,1539,1500,1460,1460
1747538141.0457947,0.21,-0.01,-0.02,-0.34579335805137656,-0.09272061651219876,-0.1832595714594046,2.1832837925937794,-0.3017210170802735,-1.303062186621814,0,0,5.642415,0,0,0,1461,1461,1540,1500,1420,1420
1747538141.1462564,0.21,-0.01,-0.02,-0.34579335805137656,-0.09272061651219876,-0.1832595714594046,2.1832837925937794,-0.3017210170802735,-1.303062186621814,0,0,1.308049,0,0,0,1462,1462,1538,1500,1388,1396
1747538141.2301161,-0.24,-0.44,0.36,-0.3174317577064687,-0.04036073895236887,-0.19744037163185854,2.132677209303666,-0.274626695853422,-1.296150507079991,0,0,0,0,0,0,1500,1500,1500,1500,1428,1436
1747538141.3279948,-0.11,0.04,0.3,-0.24107360293171676,0.017453292519943295,-0.18544123302439752,2.081485375140811,-0.24815873164045726,-1.2814512189528646,0,0,0,0,0,0,1500,1500,1500,1500,1468,1476
1747538141.4290335,-0.11,0.04,0.3,-0.24107360293171676,0.017453292519943295,-0.18544123302439752,2.081485375140811,-0.24815873164045726,-1.2814512189528646,0,0,0,0,0,0,1500,1500,1500,1500,1500,1500
1747538141.5291061,0.0,-0.15,0.0,-0.2748893571891069,0.039269908169872414,-0.2007128639793479,2.0382359268497154,-0.22683581005992076,-1.263951072382425,0,0,0,0,0,0,1500,1500,1500,1500,1500,1500
1747538141.6291342,0.0,-0.15,0.0,-0.2748893571891069,0.039269908169872414,-0.2007128639793479,2.0382359268497154,-0.22683581005992076,-1.263951072382425,0,0,0,0,0,0,1500,1500,1500,1500,1500,1500
1747538141.713647,0.15,-0.07,-0.03,-0.23125612588924865,0.04799655442984406,-0.2181661564992912,1.9953150769834385,-0.20082138442853054,-1.2432025670855833,0,0,0.348297,0,0,0,1463,1463,1536,1500,1460,1460
1747538141.8138824,0.1,-0.08,0.03,-0.18544123302439752,0.05672320068981571,-0.22689280275926285,1.9597702360285636,-0.1728338737278714,-1.2217070203374225,0,0,7.159442,0,0,0,1461,1461,1540,1500,1420,1420
1747538141.9128647,0.1,-0.08,0.03,-0.18544123302439752,0.05672320068981571,-0.22689280275926285,1.9597702360285636,-0.1728338737278714,-1.2217070203374225,0,0,0.348297,0,0,0,1463,1463,1536,1500,1443,1445
1747538141.9959524,-0.32,0.06,0.03,-0.15707963267948966,0.0818123086872342,-0.24434609527920614,1.9317468574429424,-0.14581052159842092,-1.2004947145812748,0,0,0,0,0,0,1500,1500,1500,1500,1483,1485
1747538142.0969677,-0.32,0.06,0.03,-0.15707963267948966,0.0818123086872342,-0.24434609527920614,1.9317468574429424,-0.14581052159842092,-1.2004947145812748,0,0,0,0,0,0,1500,1500,1500,1500,1500,1500
1747538142.1966522,0.18,-0.16,-0.15,-0.09708393964218458,0.136353847812057,-0.21707532571679475,1.9073633259389133,-0.12105601387138225,-1.1726007132326115,0,0,0,0,0,0,1500,1500,1500,1500,1500,1500
1747538142.2960787,0.17,-0.17,0.09,-0.030543261909900768,0.12326387842209953,-0.2181661564992912,1.8952530820862032,-0.09663214784344674,-1.142616046262619,0,0,-6.633127,0,0,0,1538,1538,1460,1500,1540,1540
1747538142.3959286,0.17,-0.17,0.09,-0.030543261909900768,0.12326387842209953,-0.2181661564992912,1.8952530820862032,-0.09663214784344674,-1.142616046262619,0,0,0,0,0,0,1500,1500,1500,1500,1500,1500
1747538142.4798548,0.04,-0.03,-0.01,-0.001090830782496456,0.11999138607461016,-0.21925698728178766,1.8919896490073085,-0.07085775069839033,-1.1138684210996417,0,0,0,0,0,0,1500,1500,1500,1500,1500,1500
1747538142.5789807,0.07,-0.03,0.04,-0.003272492347489368,0.12762720155208535,-0.2301652951067522,1.888860374560134,-0.04570931291836396,-1.0865701629476558,0,0,0,0,0,0,1500,1500,1500,1500,1500,1500
1747538142.6800432,0.07,-0.03,0.04,-0.003272492347489368,0.12762720155208535,-0.2301652951067522,1.888860374560134,-0.04570931291836396,-1.0865701629476558,0,0,4.99226,0,0,0,1461,1461,1540,1500,1460,1460
1747538142.7790074,0.04,-0.07,0.04,-0.02399827721492203,0.11126473981463851,-0.23561944901923448,1.889223090387867,-0.018179136449957684,-1.058376688919617,0,0,7.004644,0,0,0,1461,1461,1540,1500,1420,1420
1747538142.8797643,0.04,-0.07,0.04,-0.02399827721492203,0.11126473981463851,-0.23561944901923448,1.889223090387867,-0.018179136449957684,-1.058376688919617,0,0,7.004644,0,0,0,1461,1461,1540,1500,1380,1380
1747538142.9635978,0.04,0.21,-0.18,-0.08290313946973066,0.08726646259971647,-0.23671027980173096,1.8836785341328035,0.008730060485195822,-1.0348699361078353,0,0,3.75387,0,0,0,1461,1461,1540,1500,1354,1365
1747538143.0627763,-0.22,-0.35000000000000003,0.6900000000000001,-0.002181661564992912,0.09053895494720585,-0.17780541754692233,1.860719770584412,0.03815964543016522,-1.0118704294844891,0,0,0,0,0,0,1500,1500,1500,1500,1394,1405
1747538143.161773,-0.22,-0.35000000000000003,0.6900000000000001,-0.002181661564992912,0.09053895494720585,-0.17780541754692233,1.860719770584412,0.03815964543016522,-1.0118704294844891,0,0,0,0,0,0,1500,1500,1500,1500,1434,1445
1747538143.2465951,-0.04,-0.11,0.33,-0.05345070834232634,0.13962634015954636,-0.11453723216212788,1.87482980626745,0.05362421189950576,-0.987046264483481,0,0,0,0,0,0,1500,1500,1500,1500,1474,1485
1747538143.3468297,-0.04,-0.11,0.33,-0.05345070834232634,0.13962634015954636,-0.11453723216212788,1.87482980626745,0.05362421189950576,-0.987046264483481,-1,0,0,0,0,0,1540,1460,1463,1460,1434,1525
1747538143.4452248,0.16,-0.1,-0.09,-0.2399827721492203,0.1712604328519436,-0.06654067773228381,1.8413196880807814,0.059556578568670596,-0.9600222989066299,-1,0,0,0,0,0,1553,1446,1463,1420,1403,1565
1747538143.5465403,0.07,-0.14,0.1,-0.10581058590215622,0.16144295580947549,-0.00545415391248228,1.8202471562053484,0.05813341608339352,-0.9350827879395032,-1,0,0,0,0,0,1553,1446,1463,1380,1403,1596
1747538143.6456475,0.07,-0.14,0.1,-0.10581058590215622,0.16144295580947549,-0.00545415391248228,1.8202471562053484,0.05813341608339352,-0.9350827879395032,-1,0,0,0,0,0,1553,1446,1463,1354,1403,1596
1747538143.7293622,0.5700000000000001,-0.41000000000000003,-0.1,0.06872233929727672,0.14835298641951802,0.13962634015954636,1.8168603193716615,0.04505062931952763,-0.9128593904538254,-1,0,0,0,0,0,1553,1446,1463,1354,1403,1596
1747538143.8288467,0.5700000000000001,-0.41000000000000003,-0.1,0.06872233929727672,0.14835298641951802,0.13962634015954636,1.8168603193716615,0.04505062931952763,-0.9128593904538254,-1,0,0,0,0,0,1553,1446,1463,1354,1403,1596
1747538143.929255,-0.09,-0.32,0.3,0.5105088062083414,0.10362892433716332,0.39269908169872414,1.8487320284549686,0.006676269000041944,-0.9034134925381512,-1,0,0,0,0,0,1553,1446,1463,1354,1403,1596
1747538144.0290306,0.06,-0.15,0.01,0.6152285613280012,0.038179077387375956,0.5705044992456465,1.9386805177140316,-0.06864506823624575,-0.9165062313935379,-1,0,0,0,0,0,1553,1446,1463,1354,1403,1596
1747538144.1294,0.06,-0.15,0.01,0.6152285613280012,0.038179077387375956,0.5705044992456465,1.9386805177140316,-0.06864506823624575,-0.9165062313935379,-1,0,0,0,0,0,1553,1446,1463,1354,1403,1596
1747538144.2130446,0.19,0.03,-0.45,0.5486878835957173,-0.028361600344907856,0.6643159465403417,2.0347727958925605,-0.1573881487534739,-0.9550041356086513,-1,0,0,0,0,0,1553,1446,1463,1354,1403,1596
1747538144.3125045,0.19,0.03,-0.45,0.5486878835957173,-0.028361600344907856,0.6643159465403417,2.0347727958925605,-0.1573881487534739,-0.9550041356086513,-1,0,0,0,0,0,1553,1446,1463,1354,1403,1596
1747538144.412812,-0.07,-0.08,-0.08,0.47451139038595835,-0.11671889372712078,0.7384924397501007,2.1274681713117873,-0.2470044504789177,-1.0203374321553593,-1,0,0,0,0,0,1553,1446,1463,1354,1403,1596
1747538144.4961975,0.12,-0.09,-0.08,0.3523383427463553,-0.19962203319685143,0.7755806863549802,2.2185667152377397,-0.3302222475576002,-1.1121843560420375,-1,0,0,0,0,0,1553,1446,1463,1354,1403,1596
1747538144.5960474,0.12,-0.09,-0.08,0.3523383427463553,-0.19962203319685143,0.7755806863549802,2.2185667152377397,-0.3302222475576002,-1.1121843560420375,-1,0,0,0,0,0,1553,1446,1463,1354,1403,1596
1747538144.6960354,0.02,-0.03,-0.01,0.20943951023931956,-0.24870941840919197,0.7788531787024695,2.2959320897296527,-0.39683532211995126,-1.2168967616347248,-1,0,0,0,0,0,1553,1446,1463,1354,1403,1596
1747538144.7969885,0.14,-0.08,-0.06,0.08399397025222712,-0.2585268954516601,0.7810348402674625,2.3703455164090377,-0.45705906314547584,-1.3406862757653843,-1,0,0,0,0,0,1553,1446,1463,1354,1403,1596
1747538144.896082,0.14,-0.08,-0.06,0.08399397025222712,-0.2585268954516601,0.7810348402674625,2.3703455164090377,-0.45705906314547584,-1.3406862757653843,-1,0,0,0,0,0,1553,1446,1463,1354,1403,1596
1747538144.9795012,0.05,-0.03,-0.02,-0.05672320068981571,-0.2552544031041707,0.7777623479199731,2.4285422407751827,-0.506474923101873,-1.4629662185865506,-1,0,0,0,0,0,1553,1446,1463,1354,1403,1596
1747538145.0794683,0.05,-0.03,-0.02,-0.05672320068981571,-0.2552544031041707,0.7777623479199731,2.4285422407751827,-0.506474923101873,-1.4629662185865506,-1,0,0,0,0,0,1553,1446,1463,1354,1403,1596
1747538145.179901,0.18,-0.03,-0.04,-0.18871372537188688,-0.26398104936414235,0.7690357016600015,2.478469761904899,-0.5514533311567473,-1.6002438419407494,-1,0,0,0,0,0,1553,1446,1463,1354,1403,1596
1747538145.2786906,-0.12,-0.17,-0.04,-0.2879793265790644,-0.272707695624114,0.7581273938350369,2.5154600474230886,-0.5866400804082954,-1.7338973416301007,-1,0,0,0,0,0,1553,1446,1463,1354,1403,1596
1747538145.3794715,-0.12,-0.17,-0.04,-0.2879793265790644,-0.272707695624114,0.7581273938350369,2.5154600474230886,-0.5866400804082954,-1.7338973416301007,-1,0,0,0,0,0,1553,1446,1463,1354,1403,1596
1747538145.4630494,0.0,-0.17,-0.12,-0.38069994309126315,-0.2617993877991494,0.729765793490129,2.546604531527145,-0.6181970061921401,-1.878196965399737,-1,0,0,0,0,0,1553,1446,1463,1354,1403,1596
1747538145.56263,0.0,-0.17,-0.12,-0.38069994309126315,-0.2617993877991494,0.729765793490129,2.546604531527145,-0.6181970061921401,-1.878196965399737,-1,0,0,0,0,0,1553,1446,1463,1354,1403,1596
1747538145.6617994,0.07,-0.25,-0.18,-0.4537856055185257,-0.2530727415391778,0.7144941625351786,2.56866764973082,-0.6456971448110865,-2.0230641390552973,-1,0,0,0,0,0,1553,1446,1463,1354,1403,1596
1747538145.7454283,0.0,-0.17,-0.13,-0.5050546522958591,-0.2476185876266955,0.6992225315802283,2.585352530790734,-0.6709850611487606,-2.1684324438905205,-1,0,0,0,0,0,1553,1446,1463,1354,1403,1596
1747538145.8459537,0.0,-0.17,-0.13,-0.5050546522958591,-0.2476185876266955,0.6992225315802283,2.585352530790734,-0.6709850611487606,-2.1684324438905205,-1,0,0,0,0,0,1553,1446,1463,1354,1403,1596
1747538145.9454827,-0.02,-0.18,-0.15,-0.56941366846315,-0.22907446432425577,0.7057675162752071,2.5960903900923142,-0.6948920494371669,-2.306206839560808,-1,0,0,0,0,0,1553,1446,1463,1354,1403,1596
1747538146.046059,0.07,-0.3,-0.18,-0.5901394533305827,-0.2279836335417593,0.7068583470577035,2.6070114106314244,-0.720079338748313,-2.4566682795121975,-1,0,0,0,0,0,1553,1446,1463,1354,1403,1596
1747538146.1461442,0.07,-0.3,-0.18,-0.5901394533305827,-0.2279836335417593,0.7068583470577035,2.6070114106314244,-0.720079338748313,-2.4566682795121975,-1,0,0,0,0,0,1553,1446,1463,1354,1403,1596
1747538146.2288349,-0.09,-0.33,-0.11,-0.6250460383704692,-0.20398535632683726,0.7057675162752071,2.619110732377972,-0.7462428541664003,-2.611008851431086,-1,0,0,0,0,0,1553,1446,1463,1354,1403,1596
1747538146.3296564,-0.09,-0.33,-0.11,-0.6250460383704692,-0.20398535632683726,0.7057675162752071,2.619110732377972,-0.7462428541664003,-2.611008851431086,-1,0,0,0,0,0,1553,1446,1463,1354,1403,1596
1747538146.432091,0.0,-0.28,-0.15,-0.657770961845363,-0.17671458676442586,0.7079491778402,2.6301594133296313,-0.7725060888586712,-2.7570927889274124,-1,0,0,0,0,0,1553,1446,1463,1354,1403,1596
1747538146.529778,-0.08,-0.24,-0.18,-0.6904958853202566,-0.1712604328519436,0.717766654882668,2.642511333693641,-0.8014839567404715,-2.91707854393425,-1,0,0,0,0,0,1553,1446,1463,1354,1403,1596
1747538146.6296153,-0.08,-0.24,-0.18,-0.6904958853202566,-0.1712604328519436,0.717766654882668,2.642511333693641,-0.8014839567404715,-2.91707854393425,-1,0,0,0,0,0,1553,1446,1463,1354,1403,1596
1747538146.7147422,-0.05,-0.35000000000000003,-0.16,-0.7275841319251362,-0.16580627893946132,0.7232208087951503,2.655718036590246,-0.8304544606615248,-3.083004782785353,-1,0,0,0,0,0,1553,1446,1463,1354,1403,1596
1747538146.8135343,-0.05,-0.35000000000000003,-0.16,-0.7275841319251362,-0.16580627893946132,0.7232208087951503,2.655718036590246,-0.8304544606615248,-3.083004782785353,-1,0,0,0,0,0,1553,1446,1463,1354,1403,1596
1747538146.9136448,-0.35000000000000003,-0.37,-0.07,-0.7504915783575618,-0.1538071403320003,0.729765793490129,2.6718775276576507,-0.8593919381237508,3.0287026589865587,-1,0,0,0,0,0,1553,1446,1463,1354,1403,1596
1747538147.0123587,-0.32,-0.17,-0.13,-0.753764070705051,-0.14726215563702155,0.7308566242726255,2.6920809692694996,-0.8864174591389419,2.861837333155067,-1,0,0,0,0,0,1553,1446,1463,1354,1403,1596
1747538147.1128752,-0.32,-0.17,-0.13,-0.753764070705051,-0.14726215563702155,0.7308566242726255,2.6920809692694996,-0.8864174591389419,2.861837333155067,0,-5.067867,0,0,0,0,1513,1406,1423,1394,1443,1556
1747538147.2127304,-0.26,-0.28,-0.06,-0.770126532442498,-0.14180800172453928,0.743946593662583,2.7208447474183295,-0.9131060471604174,2.676730286241518,0,-12.5,0,0,0,-0.00489,1473,1366,1383,1434,1483,1516
1747538147.3119862,-0.5,-0.4,-0.15,-0.6621342849753488,-0.12544553998709243,0.7515824091400581,2.7590640724605815,-0.9349925444802492,2.4939587767497358,0,-12.5,0,0,0,-0.025512,1433,1359,1383,1474,1500,1500
1747538147.4124823,-0.5,-0.4,-0.15,-0.6621342849753488,-0.12544553998709243,0.7515824091400581,2.7590640724605815,-0.9349925444802492,2.4939587767497358,0,-12.5,0,0,0,-0.025512,1393,1359,1383,1500,1500,1500
1747538147.4958227,-0.91,-0.37,-0.17,-0.45814892864851153,-0.1810779098944117,0.8443030256522569,2.8499518905469743,-0.9500288844587514,2.279831794703945,0,-12.5,0,0,0,-0.025512,1354,1359,1383,1500,1500,1500
1747538147.5957527,-0.91,-0.37,-0.17,-0.45814892864851153,-0.1810779098944117,0.8443030256522569,2.8499518905469743,-0.9500288844587514,2.279831794703945,0,-12.5,0,0,0,-0.025512,1354,1359,1383,1500,1500,1500
1747538147.6959543,-0.7000000000000001,-0.08,0.29,-0.4406956361285682,-0.1538071403320003,0.7755806863549802,2.9659350876019843,-0.952209926174153,2.052362468246144,0,-12.5,0,0,0,-0.025512,1354,1359,1383,1500,1500,1500
1747538147.7955809,-0.4,0.04,-0.15,-0.5410520681182421,0.011999138607461015,0.40578905108868163,3.024822450910997,-0.9439213573028736,1.8877820462461854,0,-12.5,0,0,0,-0.025512,1354,1359,1383,1500,1500,1500
1747538147.8959894,-0.4,0.04,-0.15,-0.5410520681182421,0.011999138607461015,0.40578905108868163,3.024822450910997,-0.9439213573028736,1.8877820462461854,0,-12.5,0,0,0,-0.025512,1354,1359,1383,1500,1500,1500
1747538147.97926,-0.58,-0.16,-0.04,-0.5170537909033202,0.13744467859455345,0.18216874067690814,2.9991251066239197,-0.9563618910665681,1.8172629164979663,0,-12.5,0,0,0,-0.025512,1354,1359,1383,1500,1500,1500
1747538148.075648,-0.38,-0.1,-0.03,-0.4657847441259867,0.2203478180642841,0.08617563181722002,2.9547915889690572,-0.9814878788511799,1.7885932443211776,0,-12.5,0,0,0,-0.025512,1354,1359,1383,1500,1500,1500
1747538148.1785734,-0.38,-0.1,-0.03,-0.4657847441259867,0.2203478180642841,0.08617563181722002,2.9547915889690572,-0.9814878788511799,1.7885932443211776,0,-12.5,0,0,0,-0.025512,1354,1359,1383,1500,1500,1500
1747538148.262546,-0.3,-0.08,0.04,-0.48651052899341934,0.2716168648416175,0.007635815477475192,2.8815440377960777,-1.0165631040100886,1.7893832300530863,0,-12.5,0,0,0,-0.009517,1354,1359,1383,1500,1500,1500
1747538148.36346,-0.3,-0.08,0.04,-0.48651052899341934,0.2716168648416175,0.007635815477475192,2.8815440377960777,-1.0165631040100886,1.7893832300530863,0,0,0,0,0,0,1394,1399,1423,1500,1500,1500
1747538148.4469109,-0.46,-0.26,-0.01,-0.5039638215133626,0.27379852640661045,-0.014180800172453928,2.7912315384292015,-1.0523696571243675,1.811953972981342,0,0,0,0,0,0,1434,1439,1463,1500,1500,1500
1747538148.546502,0.73,-0.25,-0.08,-0.45705809786601503,0.2879793265790644,-0.05235987755982989,2.6795174814117675,-1.088651316247244,1.854335148416035,0,0,0,0,0,0,1474,1479,1500,1500,1500,1500
1747538148.6466107,0.73,-0.25,-0.08,-0.45705809786601503,0.2879793265790644,-0.05235987755982989,2.6795174814117675,-1.088651316247244,1.854335148416035,0,0,0,0,0,0,1500,1500,1500,1500,1500,1500
1747538148.7290766,0.22,-0.24,-0.03,-0.3436116964863836,0.2628902185816459,-0.11344640137963143,2.566497025934539,-1.121862537024261,1.917586550127686,0,0,0,0,0,0,1500,1500,1500,1500,1500,1500
1747538148.829372,0.22,-0.24,-0.03,-0.3436116964863836,0.2628902185816459,-0.11344640137963143,2.566497025934539,-1.121862537024261,1.917586550127686,0,0,0,0,0,0,1500,1500,1500,1500,1500,1500
1747538148.9295225,0.21,-0.13,0.04,-0.2399827721492203,0.21925698728178766,-0.16035212502697901,2.4440526181683433,-1.1435106774837478,2.005067018113125,0,-12.5,0,0,0,-0.046218,1460,1460,1460,1500,1500,1500
1747538149.0253203,0.2,-0.12,0.0,-0.17671458676442586,0.19525871006686563,-0.19198621771937624,2.3241830985054426,-1.1499133115753897,2.1026351197353748,0,-12.5,0,0,0,-0.046218,1420,1420,1420,1500,1500,1500
1747538149.1297574,0.2,-0.12,0.0,-0.17671458676442586,0.19525871006686563,-0.19198621771937624,2.3241830985054426,-1.1499133115753897,2.1026351197353748,0,-12.5,0,0,0,-0.046218,1380,1380,1383,1500,1500,1500
1747538149.2126896,-0.14,-0.32,-0.15,-0.1341721862470641,0.17453292519943295,-0.21598449493429828,2.209599209715358,-1.144934296128294,2.2034700465094645,0,-12.5,0,0,0,-0.010913,1354,1359,1383,1500,1500,1500
1747538149.3125374,-0.14,-0.32,-0.15,-0.1341721862470641,0.17453292519943295,-0.21598449493429828,2.209599209715358,-1.144934296128294,2.2034700465094645,0,0,0,0,0,0,1394,1399,1423,1500,1500,1500
1747538149.4129057,-0.81,0.01,0.29,-0.16471544815696484,0.12980886311707826,-0.2530727415391778,2.1117969262712752,-1.12855061011603,2.2902544073533755,0,0,0,0,0,0,1434,1439,1463,1500,1500,1500
1747538149.49612,0.05,-0.11,-0.05,-0.19853120241435498,0.19416787928436915,-0.22689280275926285,1.9967784384818554,-1.1087504205122385,2.3840151534812177,0,0,0,0,0,0,1474,1479,1500,1500,1500,1500
1747538149.595829,0.05,-0.11,-0.05,-0.19853120241435498,0.19416787928436915,-0.22689280275926285,1.9967784384818554,-1.1087504205122385,2.3840151534812177,0,0,0,0,0,0,1500,1500,1500,1500,1500,1500
1747538149.6961832,0.4,-0.06,-0.01,-0.14180800172453928,0.19853120241435498,-0.21271200258680892,1.8947518709640714,-1.0919106994864545,2.469087331819345,0,0,0,0,0,0,1500,1500,1500,1500,1500,1500
1747538149.7958205,0.4,-0.06,-0.01,-0.14180800172453928,0.19853120241435498,-0.21271200258680892,1.8947518709640714,-1.0919106994864545,2.469087331819345,0,-3.725313,0,0,0,-0.007013,1460,1460,1460,1500,1500,1500
1747538149.8958678,0.23,-0.14,0.02,-0.055632369907319255,0.1832595714594046,-0.21380283336930536,1.8122788788090147,-1.0711133143750693,2.5466196496061033,0,-12.5,0,0,0,-0.065756,1420,1420,1420,1500,1500,1500
1747538149.9791744,0.2,-0.08,-0.02,0.002181661564992912,0.17016960206944712,-0.2181661564992912,1.7502246852283783,-1.0460369471562305,2.614286906610476,0,-8.37155,0,0,0,-0.009517,1380,1380,1383,1500,1500,1500
1747538150.0797727,0.2,-0.08,-0.02,0.002181661564992912,0.17016960206944712,-0.2181661564992912,1.7502246852283783,-1.0460369471562305,2.614286906610476,0,-4.937296,0,0,0,-0.000215,1354,1359,1383,1500,1500,1500
1747538150.1794684,-0.06,0.03,-0.04,0.02945243112740431,0.14508049407202864,-0.20507618710933373,1.704294721861078,-1.0181414011436476,2.6717174571806295,0,-0.311584,0,0,0,0,1394,1399,1423,1500,1500,1500
1747538150.2793283,-1.07,0.17,0.38,-0.04254240051736178,0.1810779098944117,-0.17780541754692233,1.6621831622454553,-0.99125207347788,2.7231574918903205,0,-0.249818,0,0,0,0,1434,1439,1456,1500,1500,1500
1747538150.3793814,-1.07,0.17,0.38,-0.04254240051736178,0.1810779098944117,-0.17780541754692233,1.6621831622454553,-0.99125207347788,2.7231574918903205,0,-0.345023,0,0,0,0,1450,1450,1453,1500,1500,1500
1747538150.463237,0.29,0.07,-0.06,-0.04145156973486533,0.20616701789183017,-0.16253378659197193,1.6074747409648913,-0.9688178705394127,2.7793181964640232,0,-0.345023,0,0,0,0,1450,1450,1453,1500,1500,1500
1747538150.5619676,0.29,0.07,-0.06,-0.04145156973486533,0.20616701789183017,-0.16253378659197193,1.6074747409648913,-0.9688178705394127,2.7793181964640232,0,-0.49582,0,0,0,0,1443,1444,1449,1500,1500,1500
1747538150.6625242,0.17,-0.02,0.03,-0.001090830782496456,0.19416787928436915,-0.15271630954950383,1.5591345198070907,-0.9473325350540585,2.8339365174114026,0,-0.49582,0,0,0,0,1443,1444,1449,1500,1500,1500
1747538150.7461102,0.08,0.02,0.0,0.04145156973486533,0.18762289458939044,-0.15271630954950383,1.526937228154389,-0.9256960110748785,2.8789192486754884,0,-0.49582,0,0,0,0,1443,1444,1449,1500,1500,1500
1747538150.84597,0.08,0.02,0.0,0.04145156973486533,0.18762289458939044,-0.15271630954950383,1.526937228154389,-0.9256960110748785,2.8789192486754884,0,-0.022363,0,0,0,0,1463,1463,1463,1500,1500,1500
1747538150.9459891,0.12,-0.06,0.04,0.07526732399225546,0.1832595714594046,-0.15817046346198613,1.5012634224823374,-0.900746570893101,2.923572839896845,0,-1.304137,0,0,0,0,1423,1423,1425,1500,1500,1500
1747538151.0460064,0.12,-0.06,0.04,0.07526732399225546,0.1832595714594046,-0.15817046346198613,1.5012634224823374,-0.900746570893101,2.923572839896845,0,-1.584443,0,0,0,0,1399,1402,1416,1500,1500,1500
1747538151.1456444,-0.32,0.21,0.02,0.1090830782496456,0.16580627893946132,-0.15817046346198613,1.4857677834486027,-0.8752546498783543,2.9633719138252053,0,0,0,0,0,0,1439,1442,1456,1500,1500,1500
1747538151.22918,-0.13,-0.19,0.02,0.06435901616729091,0.17016960206944712,-0.14726215563702155,1.4735361105307208,-0.851391381520923,2.9974612814832633,0,0,0,0,0,0,1479,1482,1496,1500,1500,1500
1747538151.3288453,-0.13,-0.19,0.02,0.06435901616729091,0.17016960206944712,-0.14726215563702155,1.4735361105307208,-0.851391381520923,2.9974612814832633,0,0,0,0,0,0,1500,1500,1500,1500,1500,1500
1747538151.428672,0.36,-0.24,-0.02,0.09272061651219876,0.1636246173744684,-0.14726215563702155,1.4580674851617033,-0.8273201378630062,3.0335957805531524,0,0,0,0,0,0,1500,1500,1500,1500,1500,1500
1747538151.5126112,0.36,-0.24,-0.02,0.09272061651219876,0.1636246173744684,-0.14726215563702155,1.4580674851617033,-0.8273201378630062,3.0335957805531524,0,0,0,0,0,0,1500,1500,1500,1500,1500,1500
1747538151.612767,0.18,0.02,-0.07,0.13962634015954636,0.14944381720201447,-0.1559888018969932,1.454369284277972,-0.80261751040311,3.0642804195023032,0,0,0,0,0,0,1500,1500,1500,1500,1500,1500
1747538151.6960237,0.15,-0.03,-0.01,0.1636246173744684,0.13962634015954636,-0.16580627893946132,1.4589085557878005,-0.7763319968542153,3.0910797067894955,0,0,0,0,0,0,1500,1500,1500,1500,1500,1500
1747538151.795021,0.15,-0.03,-0.01,0.1636246173744684,0.13962634015954636,-0.16580627893946132,1.4589085557878005,-0.7763319968542153,3.0910797067894955,0,0,0,0,0,0,1500,1500,1500,1500,1500,1500
1747538151.8960614,0.12,-0.02,0.0,0.19198621771937624,0.12980886311707826,-0.17671458676442586,1.4689954963622496,-0.7500165400461322,3.1138794235117646,0,0,0,0,0,0,1500,1500,1500,1500,1500,1500
1747538151.9789894,0.12,-0.02,0.0,0.19198621771937624,0.12980886311707826,-0.17671458676442586,1.4689954963622496,-0.7500165400461322,3.1138794235117646,0,0,0,0,0,0,1500,1500,1500,1500,1500,1500
1747538152.0792787,0.09,0.0,0.0,0.21162117180431245,0.11562806294462433,-0.19634954084936207,1.4856787532346585,-0.7198218816784799,1.1772509907074848,0,0,0,0,0,0,1500,1500,1500,1500,1500,1500
1747538152.1784308,0.12,0.0,-0.01,0.23343778745424157,0.11126473981463851,-0.210530341021816,1.5054439714276404,-0.6895681063900752,1.1925096204988868,0,0,0,0,0,0,1500,1500,1500,1500,1500,1500
1747538152.2631752,0.12,0.0,-0.01,0.23343778745424157,0.11126473981463851,-0.210530341021816,1.5054439714276404,-0.6895681063900752,1.1925096204988868,0,0,0,0,0,0,1500,1500,1500,1500,1500,1500
1747538152.3633614,0.09,0.0,0.02,0.2399827721492203,0.10362892433716332,-0.22907446432425577,1.5302919821911238,-0.6552048277140703,1.2135727415137885,0,0,0,0,0,0,1500,1500,1500,1500,1500,1500
1747538152.4460764,0.09,0.0,0.02,0.2399827721492203,0.10362892433716332,-0.22907446432425577,1.5302919821911238,-0.6552048277140703,1.2135727415137885,0,0,0,0,-0.138293,0,1463,1463,1536,1500,1460,1540
1747538152.545859,0.09,0.0,-0.01,0.2552544031041707,0.09599310885968812,-0.24434609527920614,1.557532631281558,-0.6187849839782474,1.2328706718174745,0,0,0,0,-0.28,0,1463,1463,1536,1500,1420,1580
1747538152.645298,0.11,0.0,0.04,0.2596177262341565,0.08617563181722002,-0.2519819107566813,1.5873926587380276,-0.5802455953981533,1.2566178561550632,0,0,0,0,-0.28,0,1463,1463,1536,1500,1380,1620
1747538152.7292213,0.11,0.0,0.04,0.2596177262341565,0.08617563181722002,-0.2519819107566813,1.5873926587380276,-0.5802455953981533,1.2566178561550632,0,0,0,0,-0.28,0,1463,1463,1536,1500,1354,1645
1747538152.828448,0.31,0.0,0.0,0.09708393964218458,0.09599310885968812,-0.2399827721492203,1.6093019243436273,-0.5443947934056736,1.2729657066765945,0,0,0,0,-0.28,0,1463,1463,1536,1500,1354,1645
1747538152.928254,0.31,0.0,0.0,0.09708393964218458,0.09599310885968812,-0.2399827721492203,1.6093019243436273,-0.5443947934056736,1.2729657066765945,0,0,0,0,-0.28,0,1463,1463,1536,1500,1354,1645
1747538153.0125728,-0.07,0.35000000000000003,-0.06,-0.954476934684399,0.16253378659197193,-0.2912518189265537,1.552746133467421,-0.5049941988260788,1.2966814756548222,0,0,0,0,-0.28,0,1463,1463,1536,1500,1354,1645
1747538153.1126645,0.02,-0.08,-0.18,-1.9558595930161455,0.23671027980173096,-0.2748893571891069,1.3144107722774758,-0.45895242663515684,1.323734204368823,0,0,0,0,-0.28,0,1463,1463,1536,1500,1354,1645
1747538153.1955194,0.02,-0.08,-0.18,-1.9558595930161455,0.23671027980173096,-0.2748893571891069,1.3144107722774758,-0.45895242663515684,1.323734204368823,0,0,0,0,-0.28,0,1463,1463,1536,1500,1354,1645
1747538153.295515,-0.01,-0.14,-0.21,-2.3507403362798627,0.33597588100890846,-0.17671458676442586,0.960899598340578,-0.407443675389788,1.3528602335239572,0,0,0,0,-0.28,0,1463,1463,1536,1500,1354,1645
1747538153.39495,-0.01,-0.14,-0.21,-2.3507403362798627,0.33597588100890846,-0.17671458676442586,0.960899598340578,-0.407443675389788,1.3528602335239572,0,0,0,0,-0.28,0,1463,1463,1536,1500,1354,1645
1747538153.478932,0.13,-0.4,-0.42,-2.5776331390391256,0.36106498900632694,-0.061086523819801536,0.5666689757792174,-0.35573743739082453,1.3811847690338752,0,0,0,0,-0.28,0,1463,1463,1536,1500,1354,1645
1747538153.5788002,-0.01,-0.17,-0.59,-2.732531110153622,0.3567016658763411,0.05126904677733343,0.14697923581112238,-0.3039050999217782,1.4036973567324562,0,0,0,0,-0.28,0,1463,1463,1536,1500,1354,1645
1747538153.6787453,-0.01,-0.17,-0.59,-2.732531110153622,0.3567016658763411,0.05126904677733343,0.14697923581112238,-0.3039050999217782,1.4036973567324562,0,0,0,0,-0.28,0,1463,1463,1536,1500,1354,1645
1747538153.7620378,-0.11,-0.15,-0.81,-2.901609881440573,0.2879793265790644,0.11562806294462433,-0.29443594112595584,-0.25241208084316374,1.4150490887381464,0,0,0,0,-0.28,0,1463,1463,1536,1500,1354,1645
1747538153.8615687,-0.11,-0.15,-0.81,-2.901609881440573,0.2879793265790644,0.11562806294462433,-0.29443594112595584,-0.25241208084316374,1.4150490887381464,0,0,0,0,-0.28,0,1463,1463,1536,1500,1354,1645
1747538153.9457986,-0.17,0.03,-0.67,-2.9343348049154665,0.17889624832941878,0.15162547876700738,-0.7485270638183452,-0.21038723482891092,1.4158978864963254,0,0,0,0,-0.28,0,1463,1463,1536,1500,1354,1645
1747538154.0460873,-0.17,0.14,-0.59,-2.8525224962282323,0.07308566242726255,0.14508049407202864,-1.1679945708363533,-0.18186370051332984,1.4141791653102629,0,0,0,0,-0.28,0,1463,1463,1536,1500,1354,1645
1747538154.146224,-0.17,0.14,-0.59,-2.8525224962282323,0.07308566242726255,0.14508049407202864,-1.1679945708363533,-0.18186370051332984,1.4141791653102629,0,0,0,0,-0.28,0,1463,1463,1536,1500,1354,1645
1747538154.2283885,-0.18,0.12,-0.56,-2.832887542143296,-0.028361600344907856,0.12871803233458182,-1.608237027760333,-0.159455315480806,1.415500653630495,0,0,0,0,-0.28,0,1463,1463,1536,1500,1354,1645
1747538154.3277433,-0.18,0.12,-0.56,-2.832887542143296,-0.028361600344907856,0.12871803233458182,-1.608237027760333,-0.159455315480806,1.415500653630495,0,0,0,0,-0.28,0,1463,1463,1536,1500,1354,1645
1747538154.4288535,-0.32,0.22,-0.65,-2.911427358483041,-0.0818123086872342,0.06763150851478027,-2.0531871191579736,-0.14266081135225336,1.420157492853105,0,0,0,0,-0.28,0,1463,1463,1536,1500,1354,1645
1747538154.5115077,-0.05,0.54,-0.51,-3.015056282820204,-0.11017390903214205,-0.025089107997418487,-2.512969235570338,-0.12918221334650334,1.429309134514923,0,0,0,0,-0.28,0,1463,1463,1536,1500,1354,1645
1747538154.6025622,-0.05,0.54,-0.51,-3.015056282820204,-0.11017390903214205,-0.025089107997418487,-2.512969235570338,-0.12918221334650334,1.429309134514923,0,0,0,0,-0.28,0,1463,1463,1536,1500,1354,1645
1747538154.696106,-0.02,0.23,-0.47000000000000003,-3.1274118534173394,-0.07853981633974483,-0.10471975511965978,-2.9615666635249944,-0.11963747461127969,1.4435116992180164,0,0,0,0,-0.28,0,1463,1463,1536,1500,1354,1645
1747538154.7971735,-0.02,0.23,-0.47000000000000003,-3.1274118534173394,-0.07853981633974483,-0.10471975511965978,-2.9615666635249944,-0.11963747461127969,1.4435116992180164,0,0,0,0,-0.28,0,1463,1463,1536,1500,1354,1645
1747538154.8952687,0.07,0.03,-0.51,-3.263765701229396,-0.002181661564992912,-0.1636246173744684,2.823877508143023,-0.1114256942137392,1.464594829493284,0,0,0,0,-0.28,0,1463,1463,1536,1500,1354,1645
1747538154.9799411,0.07,0.03,-0.51,-3.263765701229396,-0.002181661564992912,-0.1636246173744684,2.823877508143023,-0.1114256942137392,1.464594829493284,0,0,0,0,-0.191325,0,1463,1463,1536,1500,1388,1611
1747538155.0806348,0.13,-0.12,-0.55,-3.3990287182589567,0.11344640137963143,-0.16471544815696484,2.305973644071547,-0.10532643954957527,1.4908566281220774,0,0,0,0,0,0,1500,1500,1500,1500,1428,1571
1747538155.18014,0.29,-0.37,-0.59,-3.184135054107155,0.1908953869368798,-0.18435040224190105,1.8127444807059063,-0.09286134751435578,1.5233868209023542,0,0,0,0,0,0,1500,1500,1500,1500,1468,1531
1747538155.2800434,0.29,-0.37,-0.59,-3.184135054107155,0.1908953869368798,-0.18435040224190105,1.8127444807059063,-0.09286134751435578,1.5233868209023542,0,0,0,0,0,0,1500,1500,1500,1500,1500,1500
1747538155.3792272,0.17,-0.6,-0.38,-2.383465259754756,0.20398535632683726,-0.14726215563702155,1.369795566520161,-0.06750923367342954,1.55549945372119,0,0,0,0,0,0,1500,1500,1500,1500,1500,1500
1747538155.4622045,0.05,-0.28,-0.21,-1.684242728174528,0.21162117180431245,-0.1265363707695889,1.057632953902152,-0.036260324808325244,1.57687129599689,0,0,0,0,0,0,1500,1500,1500,1500,1500,1500
1747538155.5624704,0.05,-0.28,-0.21,-1.684242728174528,0.21162117180431245,-0.1265363707695889,1.057632953902152,-0.036260324808325244,1.57687129599689,0,0,0,0.000215,0.266302,0,1536,1536,1463,1500,1540,1460
1747538155.662042,0.04,-0.05,-0.24,-1.2064588454410803,0.20398535632683726,-0.136353847812057,0.8386230571830087,-0.0002587661175995872,1.5910870070996443,0,0,0,0.003148,0.28,0,1536,1536,1462,1500,1580,1420
1747538155.7457952,0.04,-0.05,-0.24,-1.2064588454410803,0.20398535632683726,-0.136353847812057,0.8386230571830087,-0.0002587661175995872,1.5910870070996443,0,0,0,0.003148,0.28,0,1536,1536,1462,1500,1620,1380
1747538155.8452346,0.09,0.01,-0.29,-0.8497571795647392,0.17453292519943295,-0.12871803233458182,0.6823586861182747,0.03483271116949648,1.596571814127605,0,0,0,0.003971,0.28,0,1537,1537,1461,1500,1645,1354
1747538155.930318,0.18,-0.14,-0.24,-0.43196898986859655,0.12762720155208535,-0.10799224746714914,0.5794129431669114,0.06532538419379016,1.5958603804751508,0,0,0,0.003971,0.28,0,1537,1537,1461,1500,1645,1354
1747538156.0283122,0.18,-0.14,-0.24,-0.43196898986859655,0.12762720155208535,-0.10799224746714914,0.5794129431669114,0.06532538419379016,1.5958603804751508,0,0,0,0.003971,0.28,0,1537,1537,1461,1500,1645,1354
1747538156.1283529,0.05,-0.3,-0.13,0.7526732399225546,0.038179077387375956,-0.09381144729469522,0.5852433688304044,0.08338158858650249,1.5899995172450676,0,0,0,0.003971,0.28,0,1537,1537,1461,1500,1645,1354
1747538156.2117271,0.05,-0.3,-0.13,0.7526732399225546,0.038179077387375956,-0.09381144729469522,0.5852433688304044,0.08338158858650249,1.5899995172450676,0,0,0,0.003971,0.28,0,1537,1537,1461,1500,1645,1354
1747538156.3118486,0.09,-0.34,-0.41000000000000003,1.8893189152838616,-0.05999569303730508,-0.13526301702956053,0.8063978828706446,0.0935129937878909,1.5753867967933437,0,0,0,0.003971,0.28,0,1537,1537,1461,1500,1645,1354
1747538156.4121597,0.09,-0.34,-0.41000000000000003,1.8893189152838616,-0.05999569303730508,-0.13526301702956053,0.8063978828706446,0.0935129937878909,1.5753867967933437,0,0,0,0.003971,0.28,0,1537,1537,1461,1500,1645,1354
1747538156.4955251,-0.11,-0.29,-0.54,2.360557813322331,-0.16580627893946132,-0.17562375598192942,1.1382496814601015,0.10468140670709103,1.546094089392763,0,0,0,0.003971,0.28,0,1537,1537,1461,1500,1645,1354
1747538156.59584,-0.03,0.02,-0.44,2.676898740246303,-0.272707695624114,-0.12435470920459599,1.526818308816775,0.12014682421881884,1.5062849389616089,0,0,0,0.003971,0.28,0,1537,1537,1461,1500,1645,1354
1747538156.6954787,-0.03,0.02,-0.44,2.676898740246303,-0.272707695624114,-0.12435470920459599,1.526818308816775,0.12014682421881884,1.5062849389616089,0,0,0,0.003971,0.28,0,1537,1537,1461,1500,1645,1354
1747538156.7956955,0.14,-0.53,-0.53,2.904882373788062,-0.3097959422289935,-0.05672320068981571,1.9236633568176573,0.1411556319552029,1.4652261633408865,0,0,0,0.003971,0.28,0,1537,1537,1461,1500,1645,1354
1747538156.894872,0.13,-0.13,-0.52,3.125230191852346,-0.32288591161895097,0.026179938779914945,2.3860788188655735,0.17011872014347273,1.4257082082818764,0,0,0,0.003971,0.28,0,1537,1537,1461,1500,1645,1354
1747538156.9782982,0.13,-0.13,-0.52,3.125230191852346,-0.32288591161895097,0.026179938779914945,2.3860788188655735,0.17011872014347273,1.4257082082818764,0,0,0,0.003971,0.28,0,1537,1537,1461,1500,1645,1354
1747538157.0788538,-0.09,-0.13,-0.3,3.2375857624494815,-0.358883327441334,0.13308135546456762,2.8735091421911623,0.2113072447022823,1.387666014758981,0,0,0,0.003971,0.28,0,1537,1537,1461,1500,1645,1354
1747538157.1785986,-0.09,-0.13,-0.3,3.2375857624494815,-0.358883327441334,0.13308135546456762,2.8735091421911623,0.2113072447022823,1.387666014758981,0,0,0,0.003971,0.28,0,1537,1537,1461,1500,1645,1354
1747538157.2617216,-0.06,0.03,-0.24,3.2692198551418787,-0.33815754257390135,0.21598449493429828,-2.9453910280610636,0.26190540087524117,1.3587588375541082,0,0,0,0.003971,0.28,0,1537,1537,1461,1500,1645,1354
1747538157.3621306,-0.24,0.3,-0.4,3.1721359154996938,-0.27598018797160334,0.29561514205653955,-2.450620763264127,0.32344003993787207,1.3420913749173822,0,0,0,0.003971,0.28,0,1537,1537,1461,1500,1645,1354
1747538157.4456909,-0.24,0.3,-0.4,3.1721359154996938,-0.27598018797160334,0.29561514205653955,-2.450620763264127,0.32344003993787207,1.3420913749173822,0,0,0,0.003971,0.28,0,1537,1537,1461,1500,1645,1354
1747538157.545054,-0.01,0.22,-0.47000000000000003,2.8797932657906435,-0.1189005552921137,0.3239767424014474,-2.0110567178739207,0.37898673108777886,1.3369174128922294,0,0,0,0.003971,0.28,0,1537,1537,1461,1500,1645,1354
1747538157.6457438,-0.01,0.22,-0.47000000000000003,2.8797932657906435,-0.1189005552921137,0.3239767424014474,-2.0110567178739207,0.37898673108777886,1.3369174128922294,0,0,0,0.003971,0.28,0,1537,1537,1461,1500,1645,1354
1747538157.7289548,0.07,0.23,-0.24,2.7336219409361187,0.01090830782496456,0.27707101875409984,-1.5712252147305967,0.4300276235131812,1.3361757925127533,0,0,0,0.003971,0.28,0,1537,1537,1461,1500,1645,1354
1747538157.8207977,-0.01,0.27,-0.34,2.8165250804058495,0.10581058590215622,0.24434609527920614,-1.1385508540125102,0.47117116373539897,1.3366067801154788,0,0,0,0.003971,0.28,0,1537,1537,1461,1500,1645,1354
1747538157.929407,-0.01,0.27,-0.34,2.8165250804058495,0.10581058590215622,0.24434609527920614,-1.1385508540125102,0.47117116373539897,1.3366067801154788,0,0,0,0,0,0,1500,1500,1500,1500,1605,1394
1747538158.0301461,0.09,0.63,-0.68,3.013965452037708,0.11017390903214205,0.17016960206944712,-0.6853905726861342,0.5076569956306015,1.3427262622746294,0,0,0,0,0,0,1500,1500,1500,1500,1565,1434
1747538158.129944,0.09,0.63,-0.68,3.013965452037708,0.11017390903214205,0.17016960206944712,-0.6853905726861342,0.5076569956306015,1.3427262622746294,0,0,0,0,0,0,1500,1500,1500,1500,1525,1474
1747538158.2117774,-0.04,0.58,-0.49,2.512183292089338,0.1712604328519436,0.08072147790473774,-0.25870659460565626,0.5378169988696546,1.3507877111159268,0,0,0,0,0,0,1500,1500,1500,1500,1500,1500
1747538158.3121324,0.25,0.36,-0.26,1.5413438956674923,0.19853120241435498,-0.02181661564992912,0.04960437864892839,0.5675567749065753,1.353083812067217,0,0,0,0,0,0,1500,1500,1500,1500,1500,1500
1747538158.4127536,0.25,0.36,-0.26,1.5413438956674923,0.19853120241435498,-0.02181661564992912,0.04960437864892839,0.5675567749065753,1.353083812067217,0,0,0,0,0,0,1500,1500,1500,1500,1500,1500
1747538158.4960005,0.12,0.18,-0.08,1.0264717663291651,0.22689280275926285,-0.09381144729469522,0.22889105934141432,0.6008544802338563,1.3479927151603814,0,0,0,0,0,0,1500,1500,1500,1500,1500,1500
1747538158.5962574,0.12,0.18,-0.08,1.0264717663291651,0.22689280275926285,-0.09381144729469522,0.22889105934141432,0.6008544802338563,1.3479927151603814,0,0,0,0,0,0,1500,1500,1500,1500,1500,1500
1747538158.695419,0.11,0.06,-0.05,0.7603090554000298,0.25634523388666713,-0.136353847812057,0.3621448282019958,0.6414163621870533,1.3402268606043073,0,0,0,0,0,0,1500,1500,1500,1500,1500,1500
1747538158.7957847,0.11,0.06,-0.02,0.581412807070611,0.26398104936414235,-0.16035212502697901,0.46177505988132167,0.6869736948659831,1.3342724059275222,0,0,0,0,0,0,1500,1500,1500,1500,1500,1500
1747538158.896118,0.11,0.06,-0.02,0.581412807070611,0.26398104936414235,-0.16035212502697901,0.46177505988132167,0.6869736948659831,1.3342724059275222,0,0,0,0,0,0,1500,1500,1500,1500,1500,1500
1747538158.9790254,0.18,-0.11,0.0,0.4625122517784973,0.284706834231575,-0.18653206380689397,0.539326784672145,0.7361162314780677,1.330777811744637,0,0,0,0,0,0,1500,1500,1500,1500,1500,1500
1747538159.07493,,,,0.37742745074377376,0.30652344988150415,-0.18544123302439752,0.6035939745798574,0.7886692295320069,1.3316455767676567,0,0,0,0,0,0,1500,1500,1500,1500,1500,1500
1747538159.1787233,,,,0.37742745074377376,0.30652344988150415,-0.18544123302439752,0.6035939745798574,0.7886692295320069,1.3316455767676567,0,0,0,0,0,0,1500,1500,1500,1500,1500,1500
1747538159.2797956,0.18,-0.02,0.01,0.3327033886614191,0.3294308963139297,-0.17671458676442586,0.6607629120901889,0.8402072706632798,1.340155653075536,0,0,0,0,0,0,1500,1500,1500,1500,1500,1500
1747538159.3795285,0.18,-0.02,0.01,0.3327033886614191,0.3294308963139297,-0.17671458676442586,0.6607629120901889,0.8402072706632798,1.340155653075536,0,0,0,0,0,0,1500,1500,1500,1500,1500,1500
1747538159.4632807,0.18,0.0,0.0,0.29888763440402893,0.34579335805137656,-0.17562375598192942,0.7228142887357072,0.8963978215044567,1.3580822330453377,0,0,0,0,0,0,1500,1500,1500,1500,1500,1500
1747538159.5621269,0.18,-0.04,-0.02,0.2683443724941282,0.3523383427463553,-0.17671458676442586,0.7851573259339089,0.9498484003150858,1.3784226257397307,0,0,0,0,0,0,1500,1500,1500,1500,1500,1500
1747538159.6626132,0.18,-0.04,-0.02,0.2683443724941282,0.3523383427463553,-0.17671458676442586,0.7851573259339089,0.9498484003150858,1.3784226257397307,0,0,0,0,0,0,1500,1500,1500,1500,1500,1500
1747538159.744978,0.16,-0.06,0.0,0.23561944901923448,0.3785182815262702,-0.1734420944169365,0.8583952639957538,1.0077270098929914,1.4143670208635566,0,0,0,0,0,0,1500,1500,1500,1500,1500,1500
1747538159.846264,0.16,-0.06,0.0,0.23561944901923448,0.3785182815262702,-0.1734420944169365,0.8583952639957538,1.0077270098929914,1.4143670208635566,0,0,0,0,0,0,1500,1500,1500,1500,1500,1500
1747538159.9463577,0.18,-0.03,0.06,0.22907446432425577,0.3948807432637171,-0.1712604328519436,0.9386415895195334,1.0613090467436652,1.457311467712904,0,0,0,0,0,0,1500,1500,1500,1500,1500,1500
1747538160.045871,0.21,-0.01,0.0,0.20507618710933373,0.40578905108868163,-0.17016960206944712,1.0436663127233772,1.117129711001846,1.524341295354358,0,0,0,0,0,0,1500,1500,1500,1500,1500,1500
1747538160.1455736,0.21,-0.01,0.0,0.20507618710933373,0.40578905108868163,-0.17016960206944712,1.0436663127233772,1.117129711001846,1.524341295354358,0,0,0,0,0,0,1500,1500,1500,1500,1500,1500
1747538160.229721,0.2,-0.01,0.01,0.18435040224190105,0.421060682043632,-0.1734420944169365,1.173913239104454,1.1693487272262728,1.6176206887157258,0,0,0,0,0,0,1500,1500,1500,1500,1500,1500
1747538160.3296063,0.2,-0.01,0.01,0.18435040224190105,0.421060682043632,-0.1734420944169365,1.173913239104454,1.1693487272262728,1.6176206887157258,0,0,0,0,0,0,1500,1500,1500,1500,1500,1500
1747538160.4302828,0.22,-0.04,0.07,0.17780541754692233,0.4406956361285682,-0.1734420944169365,1.3410538648244152,1.2155460854591191,1.7481415969345553,0,0,0,0,0,0,1500,1500,1500,1500,1500,1500
1747538160.5291405,0.21,-0.02,0.05,0.16471544815696484,0.44833145160604343,-0.1712604328519436,1.5397664071191006,1.2489242477549245,1.9105678941243378,0,0,0,0,0,0,1500,1500,1500,1500,1500,1500
1747538160.6288126,0.21,-0.02,0.05,0.16471544815696484,0.44833145160604343,-0.1712604328519436,1.5397664071191006,1.2489242477549245,1.9105678941243378,0,0,0,0,0,0,1500,1500,1500,1500,1500,1500
1747538160.7124548,0.26,-0.01,0.07,0.14508049407202864,0.4636030825609938,-0.16907877128695067,1.790535428881283,1.26860854589122,2.1200780227682716,0,0,0,0,0,0,1500,1500,1500,1500,1500,1500
1747538160.8120954,0.25,-0.03,0.1,0.13308135546456762,0.46469391334349025,-0.1712604328519436,2.042270557367341,1.269684041568805,2.336417419490845,0,0,0,0,0,0,1500,1500,1500,1500,1500,1500
1747538160.9132886,0.25,-0.03,0.1,0.13308135546456762,0.46469391334349025,-0.1712604328519436,2.042270557367341,1.269684041568805,2.336417419490845,0,0,0,0,0,0,1500,1500,1500,1500,1500,1500
1747538160.9960387,0.23,0.01,0.08,0.11017390903214205,0.4723297288209654,-0.1734420944169365,2.2964508826541428,1.2507047687489434,2.5478566828531037,0,0,0,0,0,0,1500,1500,1500,1500,1500,1500
1747538161.0958073,0.23,0.01,0.08,0.11017390903214205,0.4723297288209654,-0.1734420944169365,2.2964508826541428,1.2507047687489434,2.5478566828531037,0,0,0,0,0,0,1500,1500,1500,1500,1500,1500
1747538161.1959627,0.18,-0.12,0.09,0.08726646259971647,0.4734205596034619,-0.16689710972195776,2.5097403455712213,1.2139429477879533,2.7279582810253653,0,0,0,0,0,0,1500,1500,1500,1500,1500,1500
1747538161.2956896,0.28,0.0,0.07,0.06435901616729091,0.4799655442984406,-0.16689710972195776,2.674570454768132,1.164181014833988,2.8587691266675517,0,0,0,0,0,0,1500,1500,1500,1500,1500,1500
1747538161.3950493,0.28,0.0,0.07,0.06435901616729091,0.4799655442984406,-0.16689710972195776,2.674570454768132,1.164181014833988,2.8587691266675517,0,0,0,0,0,0,1500,1500,1500,1500,1500,1500
1747538161.4799762,0.26,-0.01,0.1,0.050178215994836975,0.48432886742842646,-0.1636246173744684,2.7971436949421236,1.1059534175078216,2.955034964782943,0,0,0,0,0,0,1500,1500,1500,1500,1500,1500
1747538161.5787666,0.26,-0.01,0.1,0.050178215994836975,0.48432886742842646,-0.1636246173744684,2.7971436949421236,1.1059534175078216,2.955034964782943,0,0,0,0,0,0,1500,1500,1500,1500,1500,1500
1747538161.6789691,0.3,0.09,0.08,0.03381575425739013,0.47669305195095124,-0.16798794050445423,2.8839629292344013,1.04645306119803,3.012675704855422,0,0,0,0,0,0,1500,1500,1500,1500,1500,1500
1747538161.7794845,0.28,-0.02,0.15,0.025089107997418487,0.48105637508093707,-0.16798794050445423,2.955507965883253,0.9794689507778248,3.0607811029488903,0,0,0,0,0,0,1500,1500,1500,1500,1500,1500
1747538161.8786507,0.28,-0.02,0.15,0.025089107997418487,0.48105637508093707,-0.16798794050445423,2.955507965883253,0.9794689507778248,3.0607811029488903,0,0,0,0,0,0,1500,1500,1500,1500,1500,1500
1747538161.962654,0.26,0.0,0.16,0.013089969389957472,0.48105637508093707,-0.16580627893946132,3.00657946741641,0.9145779050980224,3.0966107970440997,0,0,0,0,0,0,1500,1500,1500,1500,1500,1500
1747538162.057742,0.27,0.05,0.09,-0.01090830782496456,0.4854196982109229,-0.1712604328519436,3.048234319305108,0.8431233369066394,3.1354554398372896,0,0,0,0,0,0,1500,1500,1500,1500,1500,1500
1747538162.1628308,0.27,0.05,0.09,-0.01090830782496456,0.4854196982109229,-0.1712604328519436,3.048234319305108,0.8431233369066394,3.1354554398372896,0,0,0,0,0,0,1500,1500,1500,1500,1500,1500
1747538162.2448466,0.28,-0.01,0.1,-0.06981317007977318,0.48978302134090873,-0.1734420944169365,3.076616483842892,0.769852702002779,-3.1224586532260856,0,0,0,0,0,0,1500,1500,1500,1500,1500,1500
1747538162.3462923,0.28,-0.01,0.1,-0.06981317007977318,0.48978302134090873,-0.1734420944169365,3.076616483842892,0.769852702002779,-3.1224586532260856,0,0,0,0,0,0,1500,1500,1500,1500,1500,1500
1747538162.4450793,0.26,0.02,0.12,-0.07308566242726255,0.49414634447089456,-0.17998707911191522,3.0931144692941754,0.6954631694612119,-3.0947435181888854,0,0,0,0,0,0,1500,1500,1500,1500,1500,1500
1747538162.5464623,0.25,-0.02,0.11,-0.06544984694978735,0.5050546522958591,-0.17889624832941878,3.1067964487123816,0.6192456766601522,-3.0679747392133314,0,0,0,0,0,0,1500,1500,1500,1500,1500,1500
1747538162.6446388,0.25,-0.02,0.11,-0.06544984694978735,0.5050546522958591,-0.17889624832941878,3.1067964487123816,0.6192456766601522,-3.0679747392133314,0,0,0,-0.7,0,0,1460,1460,1540,1500,1500,1500
1747538162.7283447,0.26,0.05,0.1,-0.06981317007977318,0.5126904677733343,-0.1832595714594046,3.116162548454582,0.5464283623188055,-3.0421769044152374,0,0,0,-0.7,0,0,1420,1420,1580,1500,1500,1500
1747538162.8301857,0.26,0.05,0.1,-0.06981317007977318,0.5126904677733343,-0.1832595714594046,3.116162548454582,0.5464283623188055,-3.0421769044152374,0,0,0,-0.7,0,0,1409,1409,1620,1500,1500,1500
1747538162.9290228,0.27,0.04,0.14,-0.09272061651219876,0.519235452468313,-0.18871372537188688,3.1205187358823796,0.4673232871323443,-3.019535821850031,0,0,0,-0.7,0,0,1409,1409,1645,1500,1500,1500
