time,ay,ax,az,gy,gx,gz,roll,pitch,yaw,cmd_fx,cmd_fy,cmd_fz,cmd_tx,cmd_ty,cmd_tz,pwm_1,pwm_2,pwm_3,pwm_4,pwm_5,pwm_6
1748735607.0226583,0.0,0.0,0.0,0.0,0.0,0.0,0.0,0.0,0.0,0.0,0.0,0.0,0.0,0.0,0.0,1500,1500,1500,1500,1500,1500
1748735607.1270206,0.0,0.0,0.01,0.0,-0.003272492347489368,0.0,0.005550345120494604,0.7266628260897459,1.6111550684999687,0.0,0.0,0.0,0.0,0.0,0.0,1500,1500,1500,1500,1500,1500
1748735607.2104948,0.0,0.0,0.01,0.0,-0.003272492347489368,0.0,0.005550345120494604,0.7266628260897459,1.6111550684999687,0,0,0,0,0,0,1500,1500,1500,1500,1500,1500
1748735607.3117685,0.0,0.0,0.05,-0.001090830782496456,-0.002181661564992912,-0.001090830782496456,0.005550345120494604,0.7266628260897459,1.6111550684999687,0,0,0,0,0,0,1500,1500,1500,1500,1500,1500
1748735607.3973114,0.0,0.0,0.05,-0.001090830782496456,-0.002181661564992912,-0.001090830782496456,0.005550345120494604,0.7266628260897459,1.6111550684999687,0,0,0,0,0,0,1500,1500,1500,1500,1500,1500
1748735607.4964354,0.01,-0.02,0.05,0.001090830782496456,0.002181661564992912,-0.002181661564992912,0.005550345120494604,0.7266628260897459,1.6111550684999687,0,0,0,0,0,0,1500,1500,1500,1500,1500,1500
1748735607.5976129,0.0,-0.03,0.02,-0.004363323129985824,0.0,0.001090830782496456,0.005550345120494604,0.7266628260897459,1.6111550684999687,0,0,0,0,0,0,1500,1500,1500,1500,1500,1500
1748735607.6790986,0.0,-0.03,0.02,-0.004363323129985824,0.0,0.001090830782496456,0.005550345120494604,0.7266628260897459,1.6111550684999687,0,0,0,0,0,0,1500,1500,1500,1500,1500,1500
1748735607.7799683,0.0,-0.07,0.04,0.002181661564992912,0.001090830782496456,0.0,0.005550345120494604,0.7266628260897459,1.6111550684999687,0,0,0,0,0,0,1500,1500,1500,1500,1500,1500
1748735607.8801177,0.0,-0.07,0.04,0.002181661564992912,0.001090830782496456,0.0,0.005550345120494604,0.7266628260897459,1.6111550684999687,0,0,0,0,0,0,1500,1500,1500,1500,1500,1500
1748735607.9792807,0.01,-0.01,0.05,0.0,-0.00545415391248228,0.001090830782496456,0.005550345120494604,0.7266628260897459,1.6111550684999687,0,0,0,0,0,0,1500,1500,1500,1500,1500,1500
1748735608.0793092,0.01,0.01,0.03,0.001090830782496456,-0.003272492347489368,0.0,0.005550345120494604,0.7266628260897459,1.6111550684999687,0,0,0,0,0,0,1500,1500,1500,1500,1500,1500
1748735608.1630743,0.01,0.01,0.03,0.001090830782496456,-0.003272492347489368,0.0,0.005550345120494604,0.7266628260897459,1.6111550684999687,0,0,0,0,0,0,1500,1500,1500,1500,1500,1500
1748735608.2622883,0.01,-0.01,0.03,-0.001090830782496456,0.0,0.0,0.005550345120494604,0.7266628260897459,1.6111550684999687,0,0,0,0,0,0,1500,1500,1500,1500,1500,1500
1748735608.3628452,0.01,-0.01,0.03,-0.001090830782496456,0.0,0.0,0.005550345120494604,0.7266628260897459,1.6111550684999687,0,0,0,0,0,0,1500,1500,1500,1500,1500,1500
1748735608.4458334,0.01,-0.02,0.02,0.001090830782496456,-0.002181661564992912,0.0,0.005550345120494604,0.7266628260897459,1.6111550684999687,0,0,0,0,0,0,1500,1500,1500,1500,1500,1500
1748735608.5457046,0.01,-0.04,0.0,0.002181661564992912,-0.001090830782496456,0.002181661564992912,0.005550345120494604,0.7266628260897459,1.6111550684999687,0,0,0,0,0,0,1500,1500,1500,1500,1500,1500
1748735608.6461267,0.01,-0.04,0.0,0.002181661564992912,-0.001090830782496456,0.002181661564992912,0.005550345120494604,0.7266628260897459,1.6111550684999687,0,0,0,0,0,0,1500,1500,1500,1500,1500,1500
1748735608.7460072,0.0,-0.03,0.01,0.0,-0.003272492347489368,0.0,0.005550345120494604,0.7266628260897459,1.6111550684999687,0,0,0,0,0,0,1500,1500,1500,1500,1500,1500
1748735608.8460026,0.0,0.0,0.0,-0.001090830782496456,-0.002181661564992912,-0.002181661564992912,0.005550345120494604,0.7266628260897459,1.6111550684999687,0,0,0,0,0,0,1500,1500,1500,1500,1500,1500
1748735608.9298868,0.0,0.0,0.0,-0.001090830782496456,-0.002181661564992912,-0.002181661564992912,0.005550345120494604,0.7266628260897459,1.6111550684999687,0,0,0,0,0,0,1500,1500,1500,1500,1500,1500
1748735609.0293658,0.02,0.0,0.0,0.001090830782496456,0.004363323129985824,-0.002181661564992912,0.005550345120494604,0.7266628260897459,1.6111550684999687,0,0,0,0,0,0,1500,1500,1500,1500,1500,1500
1748735609.1295977,0.02,0.0,0.0,0.001090830782496456,0.004363323129985824,-0.002181661564992912,0.005550345120494604,0.7266628260897459,1.6111550684999687,0,0,0,0,0,0,1500,1500,1500,1500,1500,1500
1748735609.230187,0.01,0.0,0.03,0.0,-0.002181661564992912,0.0,0.005550345120494604,0.7266628260897459,1.6111550684999687,0,0,0,0,0,0,1500,1500,1500,1500,1500,1500
1748735609.324134,-0.01,-0.03,0.05,0.0,0.001090830782496456,0.0,0.005550345120494604,0.7266628260897459,1.6111550684999687,0,0,0,0,0,0,1500,1500,1500,1500,1500,1500
1748735609.4131029,-0.01,-0.03,0.05,0.0,0.001090830782496456,0.0,0.005550345120494604,0.7266628260897459,1.6111550684999687,0,0,0,0,0,0,1500,1500,1500,1500,1500,1500
1748735609.5125532,0.0,-0.03,0.04,0.0,0.002181661564992912,-0.001090830782496456,0.005550345120494604,0.7266628260897459,1.6111550684999687,0,0,0,0,0,0,1500,1500,1500,1500,1500,1500
1748735609.6127143,0.0,-0.03,0.04,0.0,0.002181661564992912,-0.001090830782496456,0.005550345120494604,0.7266628260897459,1.6111550684999687,0,0,0,0,0,0,1500,1500,1500,1500,1500,1500
1748735609.6950195,0.02,-0.02,0.0,0.0,0.001090830782496456,0.003272492347489368,0.005550345120494604,0.7266628260897459,1.6111550684999687,0,0,0,0,0,0,1500,1500,1500,1500,1500,1500
1748735609.7965288,0.0,0.0,0.02,0.0,-0.002181661564992912,-0.002181661564992912,0.005550345120494604,0.7266628260897459,1.6111550684999687,0,0,0,0,0,0,1500,1500,1500,1500,1500,1500
1748735609.89657,0.0,0.0,0.02,0.0,-0.002181661564992912,-0.002181661564992912,0.005550345120494604,0.7266628260897459,1.6111550684999687,0,0,0,0,0,0,1500,1500,1500,1500,1500,1500
1748735609.9955707,0.0,-0.01,0.05,0.003272492347489368,-0.001090830782496456,-0.002181661564992912,0.005550345120494604,0.7266628260897459,1.6111550684999687,0,0,0,0,0,0,1500,1500,1500,1500,1500,1500
1748735610.0955956,0.0,-0.01,0.05,0.003272492347489368,-0.001090830782496456,-0.002181661564992912,0.005550345120494604,0.7266628260897459,1.6111550684999687,0,0,0,0,0,0,1500,1500,1500,1500,1500,1500
1748735610.1794794,0.0,-0.03,0.04,0.0,0.001090830782496456,-0.001090830782496456,0.005550345120494604,0.7266628260897459,1.6111550684999687,0,0,0,0,0,0,1500,1500,1500,1500,1500,1500
1748735610.278652,0.01,-0.04,0.02,-0.003272492347489368,0.0,0.001090830782496456,0.005550345120494604,0.7266628260897459,1.6111550684999687,0,0,0,0,0,0,1500,1500,1500,1500,1500,1500
1748735610.3799963,0.01,-0.04,0.02,-0.003272492347489368,0.0,0.001090830782496456,0.005550345120494604,0.7266628260897459,1.6111550684999687,0,0,0,0,0,0,1500,1500,1500,1500,1500,1500
1748735610.4792712,0.0,-0.03,0.04,-0.002181661564992912,0.004363323129985824,0.0,0.005550345120494604,0.7266628260897459,1.6111550684999687,0,0,0,0,0,0,1500,1500,1500,1500,1500,1500
1748735610.5786183,0.0,-0.03,0.04,-0.002181661564992912,0.004363323129985824,0.0,0.005550345120494604,0.7266628260897459,1.6111550684999687,0,0,0,0,0,0,1500,1500,1500,1500,1500,1500
1748735610.6626983,0.01,-0.01,0.02,0.002181661564992912,0.0,-0.001090830782496456,0.005550345120494604,0.7266628260897459,1.6111550684999687,0,0,0,0,0,0,1500,1500,1500,1500,1500,1500
1748735610.761872,0.02,0.0,0.04,0.002181661564992912,0.004363323129985824,0.001090830782496456,0.005550345120494604,0.7266628260897459,1.6111550684999687,0,0,0,0,0,0,1500,1500,1500,1500,1500,1500
1748735610.8620613,0.02,0.0,0.04,0.002181661564992912,0.004363323129985824,0.001090830782496456,0.005550345120494604,0.7266628260897459,1.6111550684999687,0,0,0,0,0,0,1500,1500,1500,1500,1500,1500
1748735610.946282,0.0,-0.04,0.04,0.003272492347489368,0.002181661564992912,0.002181661564992912,0.005550345120494604,0.7266628260897459,1.6111550684999687,0,0,0,0,0,0,1500,1500,1500,1500,1500,1500
1748735611.0454385,0.0,-0.04,0.04,0.003272492347489368,0.002181661564992912,0.002181661564992912,0.005550345120494604,0.7266628260897459,1.6111550684999687,0,0,0,0,0,0,1500,1500,1500,1500,1500,1500
1748735611.1303139,0.0,-0.01,0.03,-0.002181661564992912,0.003272492347489368,0.0,0.005550345120494604,0.7266628260897459,1.6111550684999687,0,0,0,0,0,0,1500,1500,1500,1500,1500,1500
1748735611.2296908,0.0,-0.04,0.04,0.001090830782496456,0.006544984694978736,0.002181661564992912,0.005550345120494604,0.7266628260897459,1.6111550684999687,0,0,0,0,0,0,1500,1500,1500,1500,1500,1500
1748735611.3287635,0.0,-0.04,0.04,0.001090830782496456,0.006544984694978736,0.002181661564992912,0.005550345120494604,0.7266628260897459,1.6111550684999687,0,0,0,0,0,0,1500,1500,1500,1500,1500,1500
1748735611.4127116,-0.01,-0.02,0.01,0.001090830782496456,-0.003272492347489368,0.001090830782496456,0.005550345120494604,0.7266628260897459,1.6111550684999687,0,0,0,0,0,0,1500,1500,1500,1500,1500,1500
1748735611.5131097,-0.01,-0.02,0.01,0.001090830782496456,-0.003272492347489368,0.001090830782496456,0.005550345120494604,0.7266628260897459,1.6111550684999687,0,0,0,0,0,0,1500,1500,1500,1500,1500,1500
1748735611.6125414,0.0,0.0,0.01,0.0,0.0,-0.001090830782496456,0.005550345120494604,0.7266628260897459,1.6111550684999687,0,0,0,0,0,0,1500,1500,1500,1500,1500,1500
1748735611.6964183,0.0,0.0,0.01,0.0,0.0,-0.001090830782496456,0.005550345120494604,0.7266628260897459,1.6111550684999687,0,0,0,0,0,0,1500,1500,1500,1500,1500,1500
1748735611.7966576,-0.01,0.0,0.03,0.0,-0.001090830782496456,0.0,0.005550345120494604,0.7266628260897459,1.6111550684999687,0,0,0,0,0,0,1500,1500,1500,1500,1500,1500
1748735611.8957434,0.01,-0.05,0.04,-0.001090830782496456,0.00545415391248228,0.002181661564992912,0.005550345120494604,0.7266628260897459,1.6111550684999687,0,0,0,0,0,0,1500,1500,1500,1500,1500,1500
1748735611.9957116,0.01,-0.05,0.04,-0.001090830782496456,0.00545415391248228,0.002181661564992912,0.005550345120494604,0.7266628260897459,1.6111550684999687,0,0,0,0,0,0,1500,1500,1500,1500,1500,1500
1748735612.0965123,0.0,-0.04,0.01,0.0,0.003272492347489368,-0.002181661564992912,0.005550345120494604,0.7266628260897459,1.6111550684999687,0,0,0,0,0,0,1500,1500,1500,1500,1500,1500
1748735612.1787393,0.0,-0.04,0.01,0.0,0.003272492347489368,-0.002181661564992912,0.005550345120494604,0.7266628260897459,1.6111550684999687,0,0,0,0,0,0,1500,1500,1500,1500,1500,1500
1748735612.2794445,0.0,-0.02,0.03,-0.003272492347489368,0.0,-0.001090830782496456,0.005550345120494604,0.7266628260897459,1.6111550684999687,0,0,0,0,0,0,1500,1500,1500,1500,1500,1500
1748735612.3800836,0.0,-0.03,0.03,-0.001090830782496456,0.002181661564992912,0.002181661564992912,0.005550345120494604,0.7266628260897459,1.6111550684999687,0,0,0,0,0,0,1500,1500,1500,1500,1500,1500
1748735612.4793904,0.0,-0.03,0.03,-0.001090830782496456,0.002181661564992912,0.002181661564992912,0.005550345120494604,0.7266628260897459,1.6111550684999687,0,0,0,0,0,0,1500,1500,1500,1500,1500,1500
1748735612.5787363,-0.01,0.03,0.03,-0.002181661564992912,0.002181661564992912,0.0,0.005550345120494604,0.7266628260897459,1.6111550684999687,0,0,0,0,0,0,1500,1500,1500,1500,1500,1500
1748735612.6621668,0.0,-0.02,0.05,0.003272492347489368,0.00545415391248228,0.001090830782496456,0.005550345120494604,0.7266628260897459,1.6111550684999687,0,0,0,0,0,0,1500,1500,1500,1500,1500,1500
1748735612.7627056,0.0,-0.02,0.05,0.003272492347489368,0.00545415391248228,0.001090830782496456,0.005550345120494604,0.7266628260897459,1.6111550684999687,0,0,0,0,0,0,1500,1500,1500,1500,1500,1500
1748735612.8622248,0.0,-0.04,0.06,-0.001090830782496456,0.0,0.001090830782496456,0.005550345120494604,0.7266628260897459,1.6111550684999687,0,0,0,0,0,0,1500,1500,1500,1500,1500,1500
1748735612.9456594,0.0,-0.04,0.06,-0.001090830782496456,0.0,0.001090830782496456,0.005550345120494604,0.7266628260897459,1.6111550684999687,0,0,0,0,0,0,1500,1500,1500,1500,1500,1500
1748735613.0458553,0.0,-0.04,0.02,-0.001090830782496456,0.003272492347489368,-0.001090830782496456,0.005550345120494604,0.7266628260897459,1.6111550684999687,0,0,0,0,0,0,1500,1500,1500,1500,1500,1500
1748735613.145422,0.01,-0.03,0.03,0.002181661564992912,0.004363323129985824,-0.001090830782496456,0.005550345120494604,0.7266628260897459,1.6111550684999687,0,0,0,0,0,0,1500,1500,1500,1500,1500,1500
1748735613.2452955,0.01,-0.03,0.03,0.002181661564992912,0.004363323129985824,-0.001090830782496456,0.005550345120494604,0.7266628260897459,1.6111550684999687,0,0,0,0,0,0,1500,1500,1500,1500,1500,1500
1748735613.3456895,0.0,0.0,0.0,-0.002181661564992912,-0.004363323129985824,0.0,0.005550345120494604,0.7266628260897459,1.6111550684999687,0,0,0,0,0,0,1500,1500,1500,1500,1500,1500
1748735613.4293282,0.0,0.0,0.0,-0.002181661564992912,-0.004363323129985824,0.0,0.005550345120494604,0.7266628260897459,1.6111550684999687,0,0,0,0,0,0,1500,1500,1500,1500,1500,1500
1748735613.529415,0.0,0.01,0.02,0.001090830782496456,-0.001090830782496456,0.002181661564992912,0.005550345120494604,0.7266628260897459,1.6111550684999687,0,0,0,0,0,0,1500,1500,1500,1500,1500,1500
1748735613.6288252,0.0,-0.03,0.07,0.0,0.00545415391248228,0.001090830782496456,0.005550345120494604,0.7266628260897459,1.6111550684999687,0,0,0,0,0,0,1500,1500,1500,1500,1500,1500
1748735613.7126067,0.0,-0.03,0.07,0.0,0.00545415391248228,0.001090830782496456,0.005550345120494604,0.7266628260897459,1.6111550684999687,0,0,0,0,0,0,1500,1500,1500,1500,1500,1500
1748735613.8118026,0.0,-0.01,0.02,0.002181661564992912,-0.001090830782496456,-0.002181661564992912,0.005550345120494604,0.7266628260897459,1.6111550684999687,0,0,0,0,0,0,1500,1500,1500,1500,1500,1500
1748735613.8960423,0.0,-0.01,0.02,0.002181661564992912,-0.001090830782496456,-0.002181661564992912,0.005550345120494604,0.7266628260897459,1.6111550684999687,0,0,0,0,0,0,1500,1500,1500,1500,1500,1500
1748735613.9948559,-0.01,-0.02,0.04,0.00545415391248228,0.0,0.0,0.005550345120494604,0.7266628260897459,1.6111550684999687,0,0,0,0,0,0,1500,1500,1500,1500,1500,1500
1748735614.0848253,0.0,-0.03,0.0,0.0,-0.001090830782496456,-0.002181661564992912,0.005550345120494604,0.7266628260897459,1.6111550684999687,0,0,0,0,0,0,1500,1500,1500,1500,1500,1500
1748735614.1788065,0.0,-0.03,0.0,0.0,-0.001090830782496456,-0.002181661564992912,0.005550345120494604,0.7266628260897459,1.6111550684999687,0,0,0,0,0,0,1500,1500,1500,1500,1500,1500
1748735614.2791111,0.0,0.0,0.01,-0.002181661564992912,0.0,0.0,0.005550345120494604,0.7266628260897459,1.6111550684999687,0,0,0,0,0,0,1500,1500,1500,1500,1500,1500
1748735614.3790567,0.0,0.0,0.01,-0.002181661564992912,0.0,0.0,0.005550345120494604,0.7266628260897459,1.6111550684999687,0,0,0,0,0,0,1500,1500,1500,1500,1500,1500
1748735614.4795408,0.0,-0.01,0.06,0.001090830782496456,-0.002181661564992912,0.001090830782496456,0.005550345120494604,0.7266628260897459,1.6111550684999687,0,0,0,0,0,0,1500,1500,1500,1500,1500,1500
1748735614.5785415,0.0,-0.02,0.05,0.001090830782496456,0.001090830782496456,0.0,0.005550345120494604,0.7266628260897459,1.6111550684999687,0,0,0,0,0,0,1500,1500,1500,1500,1500,1500
1748735614.662297,0.0,-0.02,0.05,0.001090830782496456,0.001090830782496456,0.0,0.005550345120494604,0.7266628260897459,1.6111550684999687,0,0,0,0,0,0,1500,1500,1500,1500,1500,1500
1748735614.7626653,0.0,-0.04,0.03,-0.001090830782496456,-0.00545415391248228,0.0,0.005550345120494604,0.7266628260897459,1.6111550684999687,0,0,0,0,0,0,1500,1500,1500,1500,1500,1500
1748735614.8616984,0.0,-0.04,0.03,-0.001090830782496456,-0.00545415391248228,0.0,0.005550345120494604,0.7266628260897459,1.6111550684999687,0,0,0,0,0,0,1500,1500,1500,1500,1500,1500
1748735614.9455612,0.02,-0.02,0.03,0.0,0.002181661564992912,0.001090830782496456,0.005550345120494604,0.7266628260897459,1.6111550684999687,0,0,0,0,0,0,1500,1500,1500,1500,1500,1500
1748735615.0362606,0.01,-0.01,0.0,0.0,-0.001090830782496456,0.001090830782496456,0.005550345120494604,0.7266628260897459,1.6111550684999687,0,0,0,0,0,0,1500,1500,1500,1500,1500,1500
1748735615.1456563,0.01,-0.01,0.0,0.0,-0.001090830782496456,0.001090830782496456,0.005550345120494604,0.7266628260897459,1.6111550684999687,0,0,0,0,0,0,1500,1500,1500,1500,1500,1500
1748735615.2454536,0.0,-0.01,0.04,-0.001090830782496456,0.00545415391248228,-0.002181661564992912,0.005550345120494604,0.7266628260897459,1.6111550684999687,0,0,0,0,0,0,1500,1500,1500,1500,1500,1500
1748735615.3454032,0.0,-0.01,0.04,-0.001090830782496456,0.00545415391248228,-0.002181661564992912,0.005550345120494604,0.7266628260897459,1.6111550684999687,0,0,0,0,0,0,1500,1500,1500,1500,1500,1500
1748735615.4284375,0.01,-0.04,0.03,0.001090830782496456,0.001090830782496456,0.0,0.005550345120494604,0.7266628260897459,1.6111550684999687,0,0,0,0,0,0,1500,1500,1500,1500,1500,1500
1748735615.5286245,0.0,-0.01,0.03,0.0,0.002181661564992912,0.0,0.005550345120494604,0.7266628260897459,1.6111550684999687,0,0,0,0,0,0,1500,1500,1500,1500,1500,1500
1748735615.6295123,0.0,-0.01,0.03,0.0,0.002181661564992912,0.0,0.005550345120494604,0.7266628260897459,1.6111550684999687,0,0,0,0,0,0,1500,1500,1500,1500,1500,1500
1748735615.7289166,0.0,-0.04,0.02,0.0,-0.001090830782496456,-0.001090830782496456,0.005550345120494604,0.7266628260897459,1.6111550684999687,0,0,0,0,0,0,1500,1500,1500,1500,1500,1500
1748735615.8290448,0.0,-0.04,0.02,0.0,-0.001090830782496456,-0.001090830782496456,0.005550345120494604,0.7266628260897459,1.6111550684999687,0,0,0,0,0,0,1500,1500,1500,1500,1500,1500
1748735615.912625,0.0,-0.02,0.04,-0.001090830782496456,0.001090830782496456,0.0,0.005550345120494604,0.7266628260897459,1.6111550684999687,0,0,0,0,0,0,1500,1500,1500,1500,1500,1500
1748735616.0123615,0.02,-0.01,0.02,0.001090830782496456,-0.004363323129985824,0.0,0.005550345120494604,0.7266628260897459,1.6111550684999687,0,0,0,0,0,0,1500,1500,1500,1500,1500,1500
1748735616.112319,0.02,-0.01,0.02,0.001090830782496456,-0.004363323129985824,0.0,0.005550345120494604,0.7266628260897459,1.6111550684999687,0,0,0,0,0,0,1500,1500,1500,1500,1500,1500
1748735616.1953843,0.0,-0.02,0.05,0.001090830782496456,0.002181661564992912,0.0,0.005550345120494604,0.7266628260897459,1.6111550684999687,0,0,0,0,0,0,1500,1500,1500,1500,1500,1500
1748735616.2968674,0.0,-0.02,0.05,0.001090830782496456,0.002181661564992912,0.0,0.005550345120494604,0.7266628260897459,1.6111550684999687,0,0,0,0,0,0,1500,1500,1500,1500,1500,1500
1748735616.3964198,-0.01,0.0,0.01,0.004363323129985824,-0.002181661564992912,0.002181661564992912,0.005550345120494604,0.7266628260897459,1.6111550684999687,0,0,0,0,0,0,1500,1500,1500,1500,1500,1500
1748735616.4959252,0.01,0.0,0.04,-0.001090830782496456,0.0,0.002181661564992912,0.005550345120494604,0.7266628260897459,1.6111550684999687,0,0,0,0,0,0,1500,1500,1500,1500,1500,1500
1748735616.5952704,0.01,0.0,0.04,-0.001090830782496456,0.0,0.002181661564992912,0.005550345120494604,0.7266628260897459,1.6111550684999687,0,0,0,0,0,0,1500,1500,1500,1500,1500,1500
1748735616.6793196,0.02,-0.04,0.06,0.001090830782496456,-0.004363323129985824,0.001090830782496456,0.005550345120494604,0.7266628260897459,1.6111550684999687,0,0,0,0,0,0,1500,1500,1500,1500,1500,1500
1748735616.778641,0.02,-0.04,0.06,0.001090830782496456,-0.004363323129985824,0.001090830782496456,0.005550345120494604,0.7266628260897459,1.6111550684999687,0,0,0,0,0,0,1500,1500,1500,1500,1500,1500
1748735616.8789022,0.01,-0.03,0.03,-0.001090830782496456,0.0,-0.003272492347489368,0.005550345120494604,0.7266628260897459,1.6111550684999687,0,0,0,0,0,0,1500,1500,1500,1500,1500,1500
1748735616.9623568,0.0,0.01,0.01,0.003272492347489368,-0.001090830782496456,-0.001090830782496456,0.005550345120494604,0.7266628260897459,1.6111550684999687,0,0,0,0,0,0,1500,1500,1500,1500,1500,1500
1748735617.0616322,0.0,0.01,0.01,0.003272492347489368,-0.001090830782496456,-0.001090830782496456,0.005550345120494604,0.7266628260897459,1.6111550684999687,0,0,0,0,0,0,1500,1500,1500,1500,1500,1500
1748735617.1620965,0.01,0.0,0.02,0.002181661564992912,0.001090830782496456,0.001090830782496456,0.005550345120494604,0.7266628260897459,1.6111550684999687,0,0,0,0,0,0,1500,1500,1500,1500,1500,1500
1748735617.2626188,0.01,0.0,0.02,0.002181661564992912,0.001090830782496456,0.001090830782496456,0.005550345120494604,0.7266628260897459,1.6111550684999687,0,0,0,0,0,0,1500,1500,1500,1500,1500,1500
1748735617.3618014,0.0,0.0,0.0,0.002181661564992912,0.0,0.0,0.005550345120494604,0.7266628260897459,1.6111550684999687,0,0,0,0,0,0,1500,1500,1500,1500,1500,1500
1748735617.4453442,0.01,-0.05,0.06,0.001090830782496456,0.0,0.001090830782496456,0.005550345120494604,0.7266628260897459,1.6111550684999687,0,0,0,0,0,0,1500,1500,1500,1500,1500,1500
1748735617.5456064,0.01,-0.05,0.06,0.001090830782496456,0.0,0.001090830782496456,0.005550345120494604,0.7266628260897459,1.6111550684999687,0,0,0,0,0,0,1500,1500,1500,1500,1500,1500
1748735617.6452875,0.01,-0.04,0.02,0.001090830782496456,0.00545415391248228,0.0,0.005550345120494604,0.7266628260897459,1.6111550684999687,0,0,0,0,0,0,1500,1500,1500,1500,1500,1500
1748735617.745209,0.01,-0.04,0.02,0.001090830782496456,0.00545415391248228,0.0,0.005550345120494604,0.7266628260897459,1.6111550684999687,0,0,0,0,0,0,1500,1500,1500,1500,1500,1500
1748735617.8450365,0.0,0.0,0.02,-0.003272492347489368,-0.003272492347489368,0.0,0.005550345120494604,0.7266628260897459,1.6111550684999687,0,0,0,0,0,0,1500,1500,1500,1500,1500,1500
1748735617.929137,0.01,0.01,0.05,0.0,0.003272492347489368,-0.001090830782496456,0.005550345120494604,0.7266628260897459,1.6111550684999687,0,0,0,0,0,0,1500,1500,1500,1500,1500,1500
1748735618.0297701,0.01,0.01,0.05,0.0,0.003272492347489368,-0.001090830782496456,0.005550345120494604,0.7266628260897459,1.6111550684999687,0,0,0,0,0,0,1500,1500,1500,1500,1500,1500
1748735618.1299906,0.0,0.0,0.0,0.001090830782496456,-0.003272492347489368,-0.003272492347489368,0.005550345120494604,0.7266628260897459,1.6111550684999687,0,0,0,0,0,0,1500,1500,1500,1500,1500,1500
1748735618.227619,0.0,-0.01,0.03,-0.001090830782496456,-0.002181661564992912,0.0,0.005550345120494604,0.7266628260897459,1.6111550684999687,0,0,0,0,0,0,1500,1500,1500,1500,1500,1500
1748735618.328521,0.0,-0.01,0.03,-0.001090830782496456,-0.002181661564992912,0.0,0.005550345120494604,0.7266628260897459,1.6111550684999687,0,0,0,0,0,0,1500,1500,1500,1500,1500,1500
1748735618.41214,0.01,-0.01,0.06,-0.003272492347489368,-0.001090830782496456,0.001090830782496456,0.005550345120494604,0.7266628260897459,1.6111550684999687,0,0,0,0,0,0,1500,1500,1500,1500,1500,1500
1748735618.5116172,0.01,-0.01,0.06,-0.003272492347489368,-0.001090830782496456,0.001090830782496456,0.005550345120494604,0.7266628260897459,1.6111550684999687,0,0,0,0,0,0,1500,1500,1500,1500,1500,1500
1748735618.612089,0.0,-0.01,0.03,-0.001090830782496456,-0.003272492347489368,0.0,0.005550345120494604,0.7266628260897459,1.6111550684999687,0,0,0,0,0,0,1500,1500,1500,1500,1500,1500
1748735618.6959517,0.0,-0.01,0.03,-0.001090830782496456,-0.003272492347489368,0.0,0.005550345120494604,0.7266628260897459,1.6111550684999687,0,0,0,0,0,0,1500,1500,1500,1500,1500,1500
1748735618.7952697,0.0,0.02,0.0,-0.001090830782496456,0.002181661564992912,0.0,0.005550345120494604,0.7266628260897459,1.6111550684999687,0,0,0,0,0,0,1500,1500,1500,1500,1500,1500
1748735618.8952327,0.01,0.0,0.02,0.002181661564992912,-0.001090830782496456,0.001090830782496456,0.005550345120494604,0.7266628260897459,1.6111550684999687,0,0,0,0,0,0,1500,1500,1500,1500,1500,1500
1748735618.9954646,0.01,0.0,0.02,0.002181661564992912,-0.001090830782496456,0.001090830782496456,0.005550345120494604,0.7266628260897459,1.6111550684999687,0,0,0,0,0,0,1500,1500,1500,1500,1500,1500
1748735619.0954661,0.0,0.0,0.0,0.003272492347489368,0.00545415391248228,-0.001090830782496456,0.005550345120494604,0.7266628260897459,1.6111550684999687,0,0,0,0,0,0,1500,1500,1500,1500,1500,1500
1748735619.1789384,0.0,0.0,0.0,0.003272492347489368,0.00545415391248228,-0.001090830782496456,0.005550345120494604,0.7266628260897459,1.6111550684999687,0,0,0,0,0,0,1500,1500,1500,1500,1500,1500
1748735619.278547,0.01,0.0,0.04,0.0,0.002181661564992912,0.0,0.005550345120494604,0.7266628260897459,1.6111550684999687,0,0,0,0,0,0,1500,1500,1500,1500,1500,1500
1748735619.379771,-0.01,-0.04,0.05,-0.001090830782496456,0.0,0.001090830782496456,0.005550345120494604,0.7266628260897459,1.6111550684999687,0,0,0,0,0,0,1500,1500,1500,1500,1500,1500
1748735619.4789157,-0.01,-0.04,0.05,-0.001090830782496456,0.0,0.001090830782496456,0.005550345120494604,0.7266628260897459,1.6111550684999687,0,0,0,0,0,0,1500,1500,1500,1500,1500,1500
1748735619.5783913,0.0,-0.04,0.0,0.0,0.0,-0.001090830782496456,0.005550345120494604,0.7266628260897459,1.6111550684999687,0,0,0,0,0,0,1500,1500,1500,1500,1500,1500
1748735619.6742113,0.0,-0.04,0.0,0.0,0.0,-0.001090830782496456,0.005550345120494604,0.7266628260897459,1.6111550684999687,0,0,0,0,0,0,1500,1500,1500,1500,1500,1500
1748735619.7625606,0.0,-0.03,0.03,0.001090830782496456,0.002181661564992912,0.001090830782496456,0.005550345120494604,0.7266628260897459,1.6111550684999687,0,0,0,0,0,0,1500,1500,1500,1500,1500,1500
1748735619.8627384,0.0,0.0,0.01,-0.002181661564992912,-0.006544984694978736,0.0,0.005550345120494604,0.7266628260897459,1.6111550684999687,0,0,0,0,0,0,1500,1500,1500,1500,1500,1500
1748735619.9457304,0.0,0.0,0.01,-0.002181661564992912,-0.006544984694978736,0.0,0.005550345120494604,0.7266628260897459,1.6111550684999687,0,0,0,0,0,0,1500,1500,1500,1500,1500,1500
1748735620.0454526,0.0,0.02,0.01,0.0,0.006544984694978736,-0.002181661564992912,0.005550345120494604,0.7266628260897459,1.6111550684999687,0,0,0,0,0,0,1500,1500,1500,1500,1500,1500
1748735620.146213,0.0,0.02,0.01,0.0,0.006544984694978736,-0.002181661564992912,0.005550345120494604,0.7266628260897459,1.6111550684999687,0,0,0,0,0,0,1500,1500,1500,1500,1500,1500
1748735620.2456036,0.0,-0.01,0.04,0.001090830782496456,-0.001090830782496456,-0.001090830782496456,0.005550345120494604,0.7266628260897459,1.6111550684999687,0,0,0,0,0,0,1500,1500,1500,1500,1500,1500
1748735620.345332,0.0,-0.01,0.02,0.001090830782496456,-0.002181661564992912,0.0,0.005550345120494604,0.7266628260897459,1.6111550684999687,0,0,0,0,0,0,1500,1500,1500,1500,1500,1500
1748735620.4292333,0.0,-0.01,0.02,0.001090830782496456,-0.002181661564992912,0.0,0.005550345120494604,0.7266628260897459,1.6111550684999687,0,0,0,0,0,0,1500,1500,1500,1500,1500,1500
1748735620.529606,0.01,0.0,0.0,-0.001090830782496456,-0.001090830782496456,0.001090830782496456,0.005550345120494604,0.7266628260897459,1.6111550684999687,0,0,0,0,0,0,1500,1500,1500,1500,1500,1500
1748735620.62924,0.02,-0.01,0.01,0.003272492347489368,0.0,0.001090830782496456,0.005550345120494604,0.7266628260897459,1.6111550684999687,0,0,0,0,0,0,1500,1500,1500,1500,1500,1500
1748735620.7293923,0.02,-0.01,0.01,0.003272492347489368,0.0,0.001090830782496456,0.005550345120494604,0.7266628260897459,1.6111550684999687,0,0,0,0,0,0,1500,1500,1500,1500,1500,1500
1748735620.8287466,0.0,0.01,0.02,-0.001090830782496456,0.004363323129985824,0.0,0.005550345120494604,0.7266628260897459,1.6111550684999687,0,0,0,0,0,0,1500,1500,1500,1500,1500,1500
1748735620.91237,0.0,0.01,0.02,-0.001090830782496456,0.004363323129985824,0.0,0.005550345120494604,0.7266628260897459,1.6111550684999687,0,0,0,0,0,0,1500,1500,1500,1500,1500,1500
1748735621.0124269,0.01,-0.03,0.04,0.001090830782496456,0.004363323129985824,0.001090830782496456,0.005550345120494604,0.7266628260897459,1.6111550684999687,0,0,0,0,0,0,1500,1500,1500,1500,1500,1500
1748735621.1117682,0.01,-0.02,0.03,0.0,0.0,0.0,0.005550345120494604,0.7266628260897459,1.6111550684999687,0,0,0,0,0,0,1500,1500,1500,1500,1500,1500
1748735621.195457,0.01,-0.02,0.03,0.0,0.0,0.0,0.005550345120494604,0.7266628260897459,1.6111550684999687,0,0,0,0,0,0,1500,1500,1500,1500,1500,1500
1748735621.295335,0.0,-0.01,0.01,-0.001090830782496456,0.001090830782496456,-0.001090830782496456,0.005550345120494604,0.7266628260897459,1.6111550684999687,0,0,0,0,0,0,1500,1500,1500,1500,1500,1500
1748735621.3955731,0.0,-0.01,0.01,-0.001090830782496456,0.001090830782496456,-0.001090830782496456,0.005550345120494604,0.7266628260897459,1.6111550684999687,0,0,0,0,0,0,1500,1500,1500,1500,1500,1500
1748735621.494969,0.0,0.01,0.02,-0.002181661564992912,0.002181661564992912,0.0,0.005550345120494604,0.7266628260897459,1.6111550684999687,0,0,0,0,0,0,1500,1500,1500,1500,1500,1500
1748735621.5950768,0.01,0.02,0.03,-0.002181661564992912,0.001090830782496456,0.001090830782496456,0.005550345120494604,0.7266628260897459,1.6111550684999687,0,0,0,0,0,0,1500,1500,1500,1500,1500,1500
1748735621.6785452,0.01,0.02,0.03,-0.002181661564992912,0.001090830782496456,0.001090830782496456,0.005550345120494604,0.7266628260897459,1.6111550684999687,0,0,0,0,0,0,1500,1500,1500,1500,1500,1500
1748735621.778781,0.0,-0.04,0.01,0.002181661564992912,0.0,0.001090830782496456,0.005550345120494604,0.7266628260897459,1.6111550684999687,0,0,0,0,0,0,1500,1500,1500,1500,1500,1500
1748735621.8784583,0.0,-0.04,0.01,0.002181661564992912,0.0,0.001090830782496456,0.005550345120494604,0.7266628260897459,1.6111550684999687,0,0,0,0,0,0,1500,1500,1500,1500,1500,1500
1748735621.9625368,0.0,-0.04,0.06,0.002181661564992912,0.0,0.0,0.005550345120494604,0.7266628260897459,1.6111550684999687,0,0,0,0,0,0,1500,1500,1500,1500,1500,1500
1748735622.0620592,0.0,-0.01,0.03,-0.002181661564992912,-0.001090830782496456,0.0,0.005550345120494604,0.7266628260897459,1.6111550684999687,0,0,0,0,0,0,1500,1500,1500,1500,1500,1500
1748735622.161427,0.0,-0.01,0.03,-0.002181661564992912,-0.001090830782496456,0.0,0.005550345120494604,0.7266628260897459,1.6111550684999687,0,0,0,0,0,0,1500,1500,1500,1500,1500,1500
1748735622.262017,0.0,0.0,0.02,-0.002181661564992912,0.0,0.001090830782496456,0.005550345120494604,0.7266628260897459,1.6111550684999687,0,0,0,0,0,0,1500,1500,1500,1500,1500,1500
1748735622.3612764,0.0,-0.01,0.06,0.0,0.0,0.0,0.005550345120494604,0.7266628260897459,1.6111550684999687,0,0,0,0,0,0,1500,1500,1500,1500,1500,1500
1748735622.4454317,0.0,-0.01,0.06,0.0,0.0,0.0,0.005550345120494604,0.7266628260897459,1.6111550684999687,0,0,0,0,0,0,1500,1500,1500,1500,1500,1500
1748735622.5450134,0.01,-0.02,0.05,-0.003272492347489368,0.0,0.002181661564992912,0.005550345120494604,0.7266628260897459,1.6111550684999687,0,0,0,0,0,0,1500,1500,1500,1500,1500,1500
1748735622.645218,0.01,-0.02,0.05,-0.003272492347489368,0.0,0.002181661564992912,0.005550345120494604,0.7266628260897459,1.6111550684999687,0,0,0,0,0,0,1500,1500,1500,1500,1500,1500
1748735622.7452278,-0.02,-0.02,0.05,0.001090830782496456,0.006544984694978736,-0.002181661564992912,0.005550345120494604,0.7266628260897459,1.6111550684999687,0,0,0,0,0,0,1500,1500,1500,1500,1500,1500
1748735622.8430152,0.0,-0.02,0.06,-0.001090830782496456,0.004363323129985824,-0.001090830782496456,0.005550345120494604,0.7266628260897459,1.6111550684999687,0,0,0,0,0,0,1500,1500,1500,1500,1500,1500
1748735622.9288628,0.0,-0.02,0.06,-0.001090830782496456,0.004363323129985824,-0.001090830782496456,0.005550345120494604,0.7266628260897459,1.6111550684999687,0,0,0,0,0,0,1500,1500,1500,1500,1500,1500
1748735623.028811,0.0,-0.03,0.05,0.001090830782496456,0.002181661564992912,-0.001090830782496456,0.005550345120494604,0.7266628260897459,1.6111550684999687,0,0,0,0,0,0,1500,1500,1500,1500,1500,1500
1748735623.1284924,0.0,-0.03,0.05,0.001090830782496456,0.002181661564992912,-0.001090830782496456,0.005550345120494604,0.7266628260897459,1.6111550684999687,0,0,0,0,0,0,1500,1500,1500,1500,1500,1500
1748735623.2124214,0.02,-0.01,0.02,0.002181661564992912,-0.00545415391248228,0.001090830782496456,0.005550345120494604,0.7266628260897459,1.6111550684999687,0,0,0,0,0,0,1500,1500,1500,1500,1500,1500
1748735623.3115714,0.02,-0.01,0.02,0.002181661564992912,-0.00545415391248228,0.001090830782496456,0.005550345120494604,0.7266628260897459,1.6111550684999687,0,0,0,0,0,0,1500,1500,1500,1500,1500,1500
1748735623.4119644,0.0,0.02,0.04,-0.002181661564992912,0.001090830782496456,0.0,0.005550345120494604,0.7266628260897459,1.6111550684999687,0,0,0,0,0,0,1500,1500,1500,1500,1500,1500
1748735623.5127769,0.0,0.0,0.02,0.003272492347489368,0.003272492347489368,-0.001090830782496456,-0.00804189996814591,0.7410094842952621,1.6114546724323868,0,0,0,0,0,0,1500,1500,1500,1500,1500,1500
1748735623.6122797,0.0,0.0,0.02,0.003272492347489368,0.003272492347489368,-0.001090830782496456,-0.00804189996814591,0.7410094842952621,1.6114546724323868,0,0,0,0,0,0,1500,1500,1500,1500,1500,1500
1748735623.6958125,-0.01,-0.01,0.06,0.001090830782496456,0.004363323129985824,0.0,0.005596969688094218,0.7268381796216239,1.611243803410767,0,0,0,0,0,0,1500,1500,1500,1500,1500,1500
1748735623.795234,-0.01,-0.01,0.06,0.001090830782496456,0.004363323129985824,0.0,0.005596969688094218,0.7268381796216239,1.611243803410767,0,0,0,0,0,0,1500,1500,1500,1500,1500,1500
1748735623.8947058,0.0,-0.02,0.04,-0.004363323129985824,-0.002181661564992912,-0.002181661564992912,0.005596969688094218,0.7268381796216239,1.611243803410767,0,0,0,0,0,0,1500,1500,1500,1500,1500,1500
1748735623.9955695,-0.01,-0.04,0.03,0.0,-0.003272492347489368,0.001090830782496456,0.005596969688094218,0.7268381796216239,1.611243803410767,0,0,0,0,0,0,1500,1500,1500,1500,1500,1500
1748735624.095117,-0.01,-0.04,0.03,0.0,-0.003272492347489368,0.001090830782496456,0.005596969688094218,0.7268381796216239,1.611243803410767,0,0,0,0,0,0,1500,1500,1500,1500,1500,1500
1748735624.1783044,-0.01,-0.01,0.01,0.0,0.0,0.0,0.005596969688094218,0.7268381796216239,1.611243803410767,0,0,0,0,0,0,1500,1500,1500,1500,1500,1500
1748735624.2755482,0.0,0.0,-0.01,0.002181661564992912,0.003272492347489368,0.0,0.005596969688094218,0.7268381796216239,1.611243803410767,0,0,0,0,0,0,1500,1500,1500,1500,1500,1500
1748735624.379731,0.0,0.0,-0.01,0.002181661564992912,0.003272492347489368,0.0,0.005596969688094218,0.7268381796216239,1.611243803410767,0,0,0,0,0,0,1500,1500,1500,1500,1500,1500
1748735624.4789515,0.02,0.0,0.05,0.002181661564992912,0.002181661564992912,-0.001090830782496456,0.005596969688094218,0.7268381796216239,1.611243803410767,0,0,0,0,0,0,1500,1500,1500,1500,1500,1500
1748735624.5785139,0.02,0.0,0.05,0.002181661564992912,0.002181661564992912,-0.001090830782496456,0.005596969688094218,0.7268381796216239,1.611243803410767,0,0,0,0,0,0,1500,1500,1500,1500,1500,1500
1748735624.662354,0.0,-0.05,0.04,0.001090830782496456,0.0,0.002181661564992912,0.005596969688094218,0.7268381796216239,1.611243803410767,0,0,0,0,0,0,1500,1500,1500,1500,1500,1500
1748735624.7624042,0.0,-0.01,0.02,0.0,-0.002181661564992912,0.0,0.005596969688094218,0.7268381796216239,1.611243803410767,0,0,0,0,0,0,1500,1500,1500,1500,1500,1500
1748735624.8625314,0.0,-0.01,0.02,0.0,-0.002181661564992912,0.0,0.005596969688094218,0.7268381796216239,1.611243803410767,0,0,0,0,0,0,1500,1500,1500,1500,1500,1500
1748735624.9458604,0.0,-0.01,0.04,0.001090830782496456,0.001090830782496456,0.002181661564992912,0.005596969688094218,0.7268381796216239,1.611243803410767,0,0,0,0,0,0,1500,1500,1500,1500,1500,1500
1748735625.0457263,0.0,-0.01,0.04,0.001090830782496456,0.001090830782496456,0.002181661564992912,0.005596969688094218,0.7268381796216239,1.611243803410767,0,0,0,0,0,0,1500,1500,1500,1500,1500,1500
1748735625.1449094,0.0,0.0,0.05,0.0,0.001090830782496456,0.001090830782496456,0.005596969688094218,0.7268381796216239,1.611243803410767,0,0,0,0,0,0,1500,1500,1500,1500,1500,1500
1748735625.2459397,0.0,0.01,0.0,-0.001090830782496456,0.0,0.001090830782496456,0.005596969688094218,0.7268381796216239,1.611243803410767,0,0,0,0,0,0,1500,1500,1500,1500,1500,1500
1748735625.3459744,0.0,0.01,0.0,-0.001090830782496456,0.0,0.001090830782496456,0.005596969688094218,0.7268381796216239,1.611243803410767,0,0,0,0,0,0,1500,1500,1500,1500,1500,1500
1748735625.4300935,0.01,-0.03,0.02,0.0,-0.004363323129985824,0.0,0.005596969688094218,0.7268381796216239,1.611243803410767,0,0,0,0,0,0,1500,1500,1500,1500,1500,1500
1748735625.5283682,0.01,-0.03,0.02,0.0,-0.004363323129985824,0.0,0.005596969688094218,0.7268381796216239,1.611243803410767,0,0,0,0,0,0,1500,1500,1500,1500,1500,1500
1748735625.6285489,0.01,-0.03,0.05,-0.001090830782496456,-0.001090830782496456,0.001090830782496456,0.005596969688094218,0.7268381796216239,1.611243803410767,0,0,0,0,0,0,1500,1500,1500,1500,1500,1500
1748735625.7120643,0.0,-0.03,0.04,-0.001090830782496456,0.002181661564992912,0.001090830782496456,0.005596969688094218,0.7268381796216239,1.611243803410767,0,0,0,0,0,0,1500,1500,1500,1500,1500,1500
1748735625.8121488,0.0,-0.03,0.04,-0.001090830782496456,0.002181661564992912,0.001090830782496456,0.005596969688094218,0.7268381796216239,1.611243803410767,0,0,0,0,0,0,1500,1500,1500,1500,1500,1500
1748735625.912994,0.01,0.0,0.03,0.003272492347489368,0.001090830782496456,0.0,0.005596969688094218,0.7268381796216239,1.611243803410767,0,0,0,0,0,0,1500,1500,1500,1500,1500,1500
1748735626.0119922,0.01,0.0,0.03,0.003272492347489368,0.001090830782496456,0.0,0.005596969688094218,0.7268381796216239,1.611243803410767,0,0,0,0,0,0,1500,1500,1500,1500,1500,1500
1748735626.112111,0.0,0.01,0.0,-0.001090830782496456,-0.002181661564992912,0.0,0.005596969688094218,0.7268381796216239,1.611243803410767,0,0,0,0,0,0,1500,1500,1500,1500,1500,1500
1748735626.1962347,0.0,0.01,0.04,0.002181661564992912,0.003272492347489368,0.001090830782496456,0.005596969688094218,0.7268381796216239,1.611243803410767,0,0,0,0,0,0,1500,1500,1500,1500,1500,1500
1748735626.295119,0.0,0.01,0.04,0.002181661564992912,0.003272492347489368,0.001090830782496456,0.005596969688094218,0.7268381796216239,1.611243803410767,0,0,0,0,0,0,1500,1500,1500,1500,1500,1500
1748735626.3960185,0.0,-0.01,0.02,-0.002181661564992912,0.001090830782496456,0.001090830782496456,0.005596969688094218,0.7268381796216239,1.611243803410767,0,0,0,0,0,0,1500,1500,1500,1500,1500,1500
1748735626.495309,0.0,-0.01,0.02,-0.002181661564992912,0.001090830782496456,0.001090830782496456,0.005596969688094218,0.7268381796216239,1.611243803410767,0,0,0,0,0,0,1500,1500,1500,1500,1500,1500
1748735626.595121,0.01,-0.03,0.06,0.002181661564992912,0.0,0.001090830782496456,0.005596969688094218,0.7268381796216239,1.611243803410767,0,0,0,0,0,0,1500,1500,1500,1500,1500,1500
1748735626.6785889,0.01,-0.01,0.03,0.0,-0.001090830782496456,-0.001090830782496456,0.005596969688094218,0.7268381796216239,1.611243803410767,0,0,0,0,0,0,1500,1500,1500,1500,1500,1500
1748735626.7783277,0.01,-0.01,0.03,0.0,-0.001090830782496456,-0.001090830782496456,0.005596969688094218,0.7268381796216239,1.611243803410767,0,0,0,0,0,0,1500,1500,1500,1500,1500,1500
1748735626.8790395,0.01,-0.02,0.0,-0.002181661564992912,-0.001090830782496456,0.0,0.005596969688094218,0.7268381796216239,1.611243803410767,0,0,0,0,0,0,1500,1500,1500,1500,1500,1500
1748735626.978422,0.01,-0.02,0.0,-0.002181661564992912,-0.001090830782496456,0.0,0.005596969688094218,0.7268381796216239,1.611243803410767,0,0,0,0,0,0,1500,1500,1500,1500,1500,1500
1748735627.0785193,0.0,0.01,0.01,-0.002181661564992912,0.002181661564992912,-0.001090830782496456,0.005596969688094218,0.7268381796216239,1.611243803410767,0,0,0,0,0,0,1500,1500,1500,1500,1500,1500
1748735627.162514,0.01,0.02,0.04,-0.001090830782496456,-0.003272492347489368,0.003272492347489368,0.005596969688094218,0.7268381796216239,1.611243803410767,0,0,0,0,0,0,1500,1500,1500,1500,1500,1500
1748735627.2620287,0.01,0.02,0.04,-0.001090830782496456,-0.003272492347489368,0.003272492347489368,0.005596969688094218,0.7268381796216239,1.611243803410767,0,0,0,0,0,0,1500,1500,1500,1500,1500,1500
1748735627.361473,-0.01,-0.03,0.05,0.001090830782496456,0.002181661564992912,0.002181661564992912,0.005596969688094218,0.7268381796216239,1.611243803410767,0,0,0,0,0,0,1500,1500,1500,1500,1500,1500
1748735627.44484,-0.01,-0.03,0.05,0.001090830782496456,0.002181661564992912,0.002181661564992912,0.005596969688094218,0.7268381796216239,1.611243803410767,0,0,0,0,0,0,1500,1500,1500,1500,1500,1500
1748735627.5452697,0.0,-0.03,0.05,-0.002181661564992912,0.001090830782496456,0.0,0.005596969688094218,0.7268381796216239,1.611243803410767,0,0,0,0,0,0,1500,1500,1500,1500,1500,1500
1748735627.6452863,-0.01,-0.02,0.04,0.0,0.00545415391248228,0.002181661564992912,0.005596969688094218,0.7268381796216239,1.611243803410767,0,0,0,0,0,0,1500,1500,1500,1500,1500,1500
1748735627.7456,-0.01,-0.02,0.04,0.0,0.00545415391248228,0.002181661564992912,0.005596969688094218,0.7268381796216239,1.611243803410767,0,0,0,0,0,0,1500,1500,1500,1500,1500,1500
1748735627.8455317,0.01,0.0,-0.01,-0.001090830782496456,-0.003272492347489368,0.0,0.005596969688094218,0.7268381796216239,1.611243803410767,0,0,0,0,0,0,1500,1500,1500,1500,1500,1500
1748735627.928379,0.01,0.0,-0.01,-0.001090830782496456,-0.003272492347489368,0.0,0.005596969688094218,0.7268381796216239,1.611243803410767,0,0,0,0,0,0,1500,1500,1500,1500,1500,1500
1748735628.0284357,0.0,0.0,0.0,-0.001090830782496456,0.002181661564992912,-0.002181661564992912,0.005596969688094218,0.7268381796216239,1.611243803410767,0,0,0,0,0,0,1500,1500,1500,1500,1500,1500
1748735628.1289468,0.02,0.0,0.01,0.0,-0.006544984694978736,0.0,0.005596969688094218,0.7268381796216239,1.611243803410767,0,0,0,0,0,0,1500,1500,1500,1500,1500,1500
1748735628.2116983,0.02,0.0,0.01,0.0,-0.006544984694978736,0.0,0.005596969688094218,0.7268381796216239,1.611243803410767,0,0,0,0,0,0,1500,1500,1500,1500,1500,1500
1748735628.3117557,0.01,-0.01,0.06,-0.002181661564992912,-0.004363323129985824,0.0,0.005596969688094218,0.7268381796216239,1.611243803410767,0,0,0,0,0,0,1500,1500,1500,1500,1500,1500
1748735628.3956008,0.01,-0.01,0.06,-0.002181661564992912,-0.004363323129985824,0.0,0.005596969688094218,0.7268381796216239,1.611243803410767,0,0,0,0,0,0,1500,1500,1500,1500,1500,1500
1748735628.4957197,0.0,-0.01,0.06,0.0,-0.001090830782496456,-0.001090830782496456,0.005596969688094218,0.7268381796216239,1.611243803410767,0,0,0,0,0,0,1500,1500,1500,1500,1500,1500
1748735628.5944114,0.0,0.0,0.01,0.00545415391248228,0.001090830782496456,0.002181661564992912,0.005596969688094218,0.7268381796216239,1.611243803410767,0,0,0,0,0,0,1500,1500,1500,1500,1500,1500
1748735628.6790335,0.0,0.0,0.01,0.00545415391248228,0.001090830782496456,0.002181661564992912,0.005596969688094218,0.7268381796216239,1.611243803410767,0,0,0,0,0,0,1500,1500,1500,1500,1500,1500
1748735628.7814655,0.0,0.0,0.0,0.001090830782496456,-0.001090830782496456,0.002181661564992912,0.005596969688094218,0.7268381796216239,1.611243803410767,0,0,0,0,0,0,1500,1500,1500,1500,1500,1500
1748735628.865062,0.0,0.0,0.0,0.001090830782496456,-0.001090830782496456,0.002181661564992912,0.005596969688094218,0.7268381796216239,1.611243803410767,0,0,0,0,0,0,1500,1500,1500,1500,1500,1500
1748735628.9626148,0.02,0.0,0.03,0.0,-0.002181661564992912,0.002181661564992912,0.005596969688094218,0.7268381796216239,1.611243803410767,0,0,0,0,0,0,1500,1500,1500,1500,1500,1500
1748735629.0572555,0.01,-0.01,0.06,0.003272492347489368,-0.001090830782496456,0.0,0.005596969688094218,0.7268381796216239,1.611243803410767,0,0,0,0,0,0,1500,1500,1500,1500,1500,1500
1748735629.1622038,0.01,-0.01,0.06,0.003272492347489368,-0.001090830782496456,0.0,0.005596969688094218,0.7268381796216239,1.611243803410767,0,0,0,0,0,0,1500,1500,1500,1500,1500,1500
1748735629.2624059,0.0,-0.05,0.05,0.0,0.0,0.002181661564992912,0.005596969688094218,0.7268381796216239,1.611243803410767,0,0,0,0,0,0,1500,1500,1500,1500,1500,1500
1748735629.36272,0.0,-0.05,0.05,0.0,0.0,0.002181661564992912,0.005596969688094218,0.7268381796216239,1.611243803410767,0,0,0,0,0,0,1500,1500,1500,1500,1500,1500
1748735629.445733,0.0,-0.01,0.02,-0.003272492347489368,-0.001090830782496456,0.002181661564992912,0.005596969688094218,0.7268381796216239,1.611243803410767,0,0,0,0,0,0,1500,1500,1500,1500,1500,1500
1748735629.5422354,0.0,0.0,-0.01,-0.002181661564992912,0.003272492347489368,0.001090830782496456,0.005596969688094218,0.7268381796216239,1.611243803410767,0,0,0,0,0,0,1500,1500,1500,1500,1500,1500
1748735629.6453757,0.0,0.0,-0.01,-0.002181661564992912,0.003272492347489368,0.001090830782496456,0.005596969688094218,0.7268381796216239,1.611243803410767,0,0,0,0,0,0,1500,1500,1500,1500,1500,1500
1748735629.7461462,0.02,0.01,0.01,-0.002181661564992912,-0.004363323129985824,-0.001090830782496456,0.005596969688094218,0.7268381796216239,1.611243803410767,0,0,0,0,0,0,1500,1500,1500,1500,1500,1500
1748735629.8458283,0.02,0.01,0.01,-0.002181661564992912,-0.004363323129985824,-0.001090830782496456,0.005596969688094218,0.7268381796216239,1.611243803410767,0,0,0,0,0,0,1500,1500,1500,1500,1500,1500
1748735629.9283724,0.0,0.0,0.02,-0.001090830782496456,0.002181661564992912,-0.001090830782496456,0.005596969688094218,0.7268381796216239,1.611243803410767,0,0,0,0,0,0,1500,1500,1500,1500,1500,1500
1748735630.0280805,0.0,-0.01,0.04,0.001090830782496456,0.001090830782496456,0.001090830782496456,0.005596969688094218,0.7268381796216239,1.611243803410767,0,0,0,0,0,0,1500,1500,1500,1500,1500,1500
1748735630.128187,0.0,-0.01,0.04,0.001090830782496456,0.001090830782496456,0.001090830782496456,0.005596969688094218,0.7268381796216239,1.611243803410767,0,0,0,0,0,0,1500,1500,1500,1500,1500,1500
1748735630.2111897,0.0,-0.03,0.05,-0.002181661564992912,0.0,0.001090830782496456,0.005596969688094218,0.7268381796216239,1.611243803410767,0,0,0,0,0,0,1500,1500,1500,1500,1500,1500
1748735630.3121355,0.0,-0.03,0.05,-0.002181661564992912,0.0,0.001090830782496456,0.005596969688094218,0.7268381796216239,1.611243803410767,0,0,0,0,0,0,1500,1500,1500,1500,1500,1500
1748735630.4112701,0.0,-0.01,0.02,-0.002181661564992912,0.001090830782496456,-0.001090830782496456,0.005596969688094218,0.7268381796216239,1.611243803410767,0,0,0,0,0,0,1500,1500,1500,1500,1500,1500
1748735630.5123866,-0.01,-0.02,0.05,0.001090830782496456,-0.007635815477475192,-0.001090830782496456,0.005596969688094218,0.7268381796216239,1.611243803410767,0,0,0,0,0,0,1500,1500,1500,1500,1500,1500
1748735630.6113393,-0.01,-0.02,0.05,0.001090830782496456,-0.007635815477475192,-0.001090830782496456,0.005596969688094218,0.7268381796216239,1.611243803410767,0,0,0,0,0,0,1500,1500,1500,1500,1500,1500
1748735630.6950364,0.0,-0.01,0.03,0.002181661564992912,0.001090830782496456,0.001090830782496456,0.005596969688094218,0.7268381796216239,1.611243803410767,0,0,0,0,0,0,1500,1500,1500,1500,1500,1500
1748735630.7956195,0.0,-0.01,0.03,0.002181661564992912,0.001090830782496456,0.001090830782496456,0.005596969688094218,0.7268381796216239,1.611243803410767,0,0,0,0,0,0,1500,1500,1500,1500,1500,1500
1748735630.8966103,0.0,0.01,0.03,-0.001090830782496456,0.003272492347489368,0.001090830782496456,0.005596969688094218,0.7268381796216239,1.611243803410767,0,0,0,0,0,0,1500,1500,1500,1500,1500,1500
1748735630.9949567,0.0,-0.02,0.05,-0.001090830782496456,0.002181661564992912,-0.001090830782496456,0.005596969688094218,0.7268381796216239,1.611243803410767,0,0,0,0,0,0,1500,1500,1500,1500,1500,1500
1748735631.094877,0.0,-0.02,0.05,-0.001090830782496456,0.002181661564992912,-0.001090830782496456,0.005596969688094218,0.7268381796216239,1.611243803410767,0,0,0,0,0,0,1500,1500,1500,1500,1500,1500
1748735631.1783495,0.01,-0.04,0.05,0.003272492347489368,-0.002181661564992912,0.001090830782496456,0.005596969688094218,0.7268381796216239,1.611243803410767,0,0,0,0,0,0,1500,1500,1500,1500,1500,1500
1748735631.2779274,0.01,-0.04,0.05,0.003272492347489368,-0.002181661564992912,0.001090830782496456,0.005596969688094218,0.7268381796216239,1.611243803410767,0,0,0,0,0,0,1500,1500,1500,1500,1500,1500
1748735631.3783293,0.01,-0.04,0.05,0.0,-0.001090830782496456,0.0,0.005596969688094218,0.7268381796216239,1.611243803410767,0,0,0,0,0,0,1500,1500,1500,1500,1500,1500
1748735631.4612994,0.01,-0.03,0.02,0.002181661564992912,0.002181661564992912,0.0,0.005596969688094218,0.7268381796216239,1.611243803410767,0,0,0,0,0,0,1500,1500,1500,1500,1500,1500
1748735631.5614305,0.01,-0.03,0.02,0.002181661564992912,0.002181661564992912,0.0,0.005596969688094218,0.7268381796216239,1.611243803410767,0,0,0,0,0,0,1500,1500,1500,1500,1500,1500
1748735631.6607153,0.0,0.0,0.0,0.002181661564992912,-0.002181661564992912,-0.002181661564992912,0.005596969688094218,0.7268381796216239,1.611243803410767,0,0,0,0,0,0,1500,1500,1500,1500,1500,1500
1748735631.7591639,0.01,0.0,0.05,0.0,0.0,0.0,0.005596969688094218,0.7268381796216239,1.611243803410767,0,0,0,0,0,0,1500,1500,1500,1500,1500,1500
1748735631.862379,0.01,0.0,0.05,0.0,0.0,0.0,0.005596969688094218,0.7268381796216239,1.611243803410767,0,0,0,0,0,0,1500,1500,1500,1500,1500,1500
1748735631.945264,-0.01,-0.03,0.06,-0.001090830782496456,0.001090830782496456,0.003272492347489368,0.005596969688094218,0.7268381796216239,1.611243803410767,0,0,0,0,0,0,1500,1500,1500,1500,1500,1500
1748735632.0445855,-0.01,-0.03,0.06,-0.001090830782496456,0.001090830782496456,0.003272492347489368,0.005596969688094218,0.7268381796216239,1.611243803410767,0,0,0,0,0,0,1500,1500,1500,1500,1500,1500
1748735632.1445749,0.0,-0.02,0.03,-0.002181661564992912,-0.003272492347489368,0.0,0.005596969688094218,0.7268381796216239,1.611243803410767,0,0,0,0,0,0,1500,1500,1500,1500,1500,1500
1748735632.2286627,0.0,-0.02,0.03,-0.002181661564992912,-0.003272492347489368,0.0,0.005596969688094218,0.7268381796216239,1.611243803410767,0,0,0,0,0,0,1500,1500,1500,1500,1500,1500
1748735632.3281431,0.01,-0.04,0.02,0.001090830782496456,-0.001090830782496456,-0.002181661564992912,0.005596969688094218,0.7268381796216239,1.611243803410767,0,0,0,0,0,0,1500,1500,1500,1500,1500,1500
1748735632.4141843,0.0,-0.01,0.0,0.001090830782496456,-0.002181661564992912,-0.002181661564992912,0.005596969688094218,0.7268381796216239,1.611243803410767,0,0,0,0,0,0,1500,1500,1500,1500,1500,1500
1748735632.5117002,0.0,-0.01,0.0,0.001090830782496456,-0.002181661564992912,-0.002181661564992912,0.005596969688094218,0.7268381796216239,1.611243803410767,0,0,0,0,0,0,1500,1500,1500,1500,1500,1500
1748735632.6118307,0.0,0.0,0.07,0.0,0.002181661564992912,-0.001090830782496456,-2.6695175987904087,-1.5707963267948966,2.857533030370897,0,0,0,0,0,0,1500,1500,1500,1500,1500,1500
1748735632.694526,0.0,0.0,0.07,0.0,0.002181661564992912,-0.001090830782496456,-2.6695175987904087,-1.5707963267948966,2.857533030370897,0,0,0,0,0,0,1500,1500,1500,1500,1500,1500
1748735632.7945724,0.01,-0.02,0.06,0.001090830782496456,0.001090830782496456,0.002181661564992912,0.005596969688094218,0.7268381796216239,1.611243803410767,0,0,0,0,0,0,1500,1500,1500,1500,1500,1500
1748735632.8945343,0.0,-0.03,0.03,0.004363323129985824,0.0,0.0,0.005596969688094218,0.7268381796216239,1.611243803410767,0,0,0,0,0,0,1500,1500,1500,1500,1500,1500
1748735632.994976,0.0,-0.03,0.03,0.004363323129985824,0.0,0.0,0.005596969688094218,0.7268381796216239,1.611243803410767,0,0,0,0,0,0,1500,1500,1500,1500,1500,1500
1748735633.0946534,0.02,-0.01,0.0,-0.001090830782496456,0.0,0.002181661564992912,0.005596969688094218,0.7268381796216239,1.611243803410767,0,0,0,0,0,0,1500,1500,1500,1500,1500,1500
1748735633.1794534,0.02,-0.01,0.0,-0.001090830782496456,0.0,0.002181661564992912,0.005596969688094218,0.7268381796216239,1.611243803410767,0,0,0,0,0,0,1500,1500,1500,1500,1500,1500
1748735633.2783887,0.01,-0.01,0.0,-0.001090830782496456,-0.003272492347489368,0.0,0.005596969688094218,0.7268381796216239,1.611243803410767,0,0,0,0,0,0,1500,1500,1500,1500,1500,1500
1748735633.3792057,0.02,0.01,0.01,-0.001090830782496456,0.0,0.001090830782496456,0.005596969688094218,0.7268381796216239,1.611243803410767,0,0,0,0,0,0,1500,1500,1500,1500,1500,1500
1748735633.4789243,0.02,0.01,0.01,-0.001090830782496456,0.0,0.001090830782496456,0.005596969688094218,0.7268381796216239,1.611243803410767,0,0,0,0,0,0,1500,1500,1500,1500,1500,1500
1748735633.578012,0.0,-0.01,0.04,0.0,0.007635815477475192,-0.001090830782496456,0.005596969688094218,0.7268381796216239,1.611243803410767,0,0,0,0,0,0,1500,1500,1500,1500,1500,1500
1748735633.6618001,0.0,-0.01,0.04,0.0,0.007635815477475192,-0.001090830782496456,0.005596969688094218,0.7268381796216239,1.611243803410767,0,0,0,0,0,0,1500,1500,1500,1500,1500,1500
1748735633.7612185,0.0,-0.02,0.04,0.002181661564992912,0.002181661564992912,0.001090830782496456,0.005596969688094218,0.7268381796216239,1.611243803410767,0,0,0,0,0,0,1500,1500,1500,1500,1500,1500
1748735633.8625176,-0.01,-0.01,0.04,-0.001090830782496456,-0.003272492347489368,0.0,0.005596969688094218,0.7268381796216239,1.611243803410767,0,0,0,0,0,0,1500,1500,1500,1500,1500,1500
1748735633.9447737,-0.01,-0.01,0.04,-0.001090830782496456,-0.003272492347489368,0.0,0.005596969688094218,0.7268381796216239,1.611243803410767,0,0,0,0,0,0,1500,1500,1500,1500,1500,1500
1748735634.0449758,0.0,-0.02,0.03,-0.003272492347489368,-0.003272492347489368,0.001090830782496456,0.005596969688094218,0.7268381796216239,1.611243803410767,0,0,0,0,0,0,1500,1500,1500,1500,1500,1500
1748735634.1442146,0.0,-0.02,0.03,-0.003272492347489368,-0.003272492347489368,0.001090830782496456,0.005596969688094218,0.7268381796216239,1.611243803410767,0,0,0,0,0,0,1500,1500,1500,1500,1500,1500
1748735634.2292948,0.0,0.0,0.02,0.002181661564992912,0.001090830782496456,-0.002181661564992912,0.005596969688094218,0.7268381796216239,1.611243803410767,0,0,0,0,0,0,1500,1500,1500,1500,1500,1500
1748735634.3292701,0.0,0.0,0.04,0.003272492347489368,-0.003272492347489368,0.001090830782496456,0.005596969688094218,0.7268381796216239,1.611243803410767,0,0,0,0,0,0,1500,1500,1500,1500,1500,1500
1748735634.4118807,0.0,0.0,0.04,0.003272492347489368,-0.003272492347489368,0.001090830782496456,0.005596969688094218,0.7268381796216239,1.611243803410767,0,0,0,0,0,0,1500,1500,1500,1500,1500,1500
1748735634.5113888,0.0,-0.02,0.05,0.001090830782496456,0.0,-0.004363323129985824,0.005596969688094218,0.7268381796216239,1.611243803410767,0,0,0,0,0,0,1500,1500,1500,1500,1500,1500
1748735634.6114998,0.0,-0.02,0.05,0.001090830782496456,0.0,-0.004363323129985824,0.005596969688094218,0.7268381796216239,1.611243803410767,0,0,0,0,0,0,1500,1500,1500,1500,1500,1500
1748735634.6942518,0.02,-0.06,0.03,0.0,0.0,0.0,0.005596969688094218,0.7268381796216239,1.611243803410767,0,0,0,0,0,0,1500,1500,1500,1500,1500,1500
1748735634.7946484,0.0,-0.01,0.03,0.0,0.001090830782496456,0.0,0.005596969688094218,0.7268381796216239,1.611243803410767,0,0,0,0,0,0,1500,1500,1500,1500,1500,1500
1748735634.8952627,0.0,-0.01,0.03,0.0,0.001090830782496456,0.0,0.005596969688094218,0.7268381796216239,1.611243803410767,0,0,0,0,0,0,1500,1500,1500,1500,1500,1500
1748735634.9947646,0.0,0.0,0.04,0.002181661564992912,0.0,0.001090830782496456,0.005596969688094218,0.7268381796216239,1.611243803410767,0,0,0,0,0,0,1500,1500,1500,1500,1500,1500
1748735635.094172,0.0,0.0,0.04,0.002181661564992912,0.0,0.001090830782496456,0.005596969688094218,0.7268381796216239,1.611243803410767,0,0,0,0,0,0,1500,1500,1500,1500,1500,1500
1748735635.1773536,0.01,-0.01,0.01,-0.001090830782496456,-0.002181661564992912,-0.001090830782496456,0.005596969688094218,0.7268381796216239,1.611243803410767,0,0,0,0,0,0,1500,1500,1500,1500,1500,1500
1748735635.2770934,0.01,-0.03,0.01,0.001090830782496456,-0.001090830782496456,0.001090830782496456,0.005596969688094218,0.7268381796216239,1.611243803410767,0,0,0,0,0,0,1500,1500,1500,1500,1500,1500
1748735635.3779037,0.01,-0.03,0.01,0.001090830782496456,-0.001090830782496456,0.001090830782496456,0.005596969688094218,0.7268381796216239,1.611243803410767,0,0,0,0,0,0,1500,1500,1500,1500,1500,1500
1748735635.460902,0.02,-0.03,0.04,-0.001090830782496456,-0.003272492347489368,-0.001090830782496456,0.005596969688094218,0.7268381796216239,1.611243803410767,0,0,0,0,0,0,1500,1500,1500,1500,1500,1500
1748735635.5610416,0.02,-0.03,0.04,-0.001090830782496456,-0.003272492347489368,-0.001090830782496456,0.005596969688094218,0.7268381796216239,1.611243803410767,0,0,0,0,0,0,1500,1500,1500,1500,1500,1500
1748735635.6616778,0.01,-0.01,0.03,-0.001090830782496456,-0.00545415391248228,0.0,0.005596969688094218,0.7268381796216239,1.611243803410767,0,0,0,0,0,0,1500,1500,1500,1500,1500,1500
1748735635.763582,0.0,-0.01,0.0,0.001090830782496456,0.0,0.002181661564992912,0.005596969688094218,0.7268381796216239,1.611243803410767,0,0,0,0,0,0,1500,1500,1500,1500,1500,1500
1748735635.8610072,0.0,-0.01,0.0,0.001090830782496456,0.0,0.002181661564992912,0.005596969688094218,0.7268381796216239,1.611243803410767,0,0,0,0,0,0,1500,1500,1500,1500,1500,1500
1748735635.9447389,0.0,0.0,0.0,0.0,-0.001090830782496456,0.001090830782496456,0.005596969688094218,0.7268381796216239,1.611243803410767,0,0,0,0,0,0,1500,1500,1500,1500,1500,1500
1748735636.0446138,0.0,0.0,0.0,0.0,-0.001090830782496456,0.001090830782496456,0.005596969688094218,0.7268381796216239,1.611243803410767,0,0,0,0,0,0,1500,1500,1500,1500,1500,1500
1748735636.1441438,0.01,0.0,0.02,0.0,0.004363323129985824,0.001090830782496456,0.005596969688094218,0.7268381796216239,1.611243803410767,0,0,0,0,0,0,1500,1500,1500,1500,1500,1500
1748735636.2457857,0.0,-0.01,0.02,-0.001090830782496456,0.001090830782496456,0.0,0.005596969688094218,0.7268381796216239,1.611243803410767,0,0,0,0,0,0,1500,1500,1500,1500,1500,1500
1748735636.345589,0.0,-0.01,0.02,-0.001090830782496456,0.001090830782496456,0.0,0.005596969688094218,0.7268381796216239,1.611243803410767,0,0,0,0,0,0,1500,1500,1500,1500,1500,1500
1748735636.4305444,0.0,-0.01,0.05,0.003272492347489368,-0.004363323129985824,0.0,0.005596969688094218,0.7268381796216239,1.611243803410767,0,0,0,0,0,0,1500,1500,1500,1500,1500,1500
1748735636.5232134,0.0,0.0,0.05,0.0,0.0,-0.002181661564992912,0.005596969688094218,0.7268381796216239,1.611243803410767,0,0,0,0,0,0,1500,1500,1500,1500,1500,1500
1748735636.6284678,0.0,0.0,0.05,0.0,0.0,-0.002181661564992912,0.005596969688094218,0.7268381796216239,1.611243803410767,0,0,0,0,0,0,1500,1500,1500,1500,1500,1500
1748735636.7277033,0.0,0.01,0.04,-0.003272492347489368,-0.002181661564992912,0.0,0.005596969688094218,0.7268381796216239,1.611243803410767,0,0,0,0,0,0,1500,1500,1500,1500,1500,1500
1748735636.8275578,0.0,0.01,0.04,-0.003272492347489368,-0.002181661564992912,0.0,0.005596969688094218,0.7268381796216239,1.611243803410767,0,0,0,0,0,0,1500,1500,1500,1500,1500,1500
1748735636.9115112,0.0,-0.01,0.02,-0.002181661564992912,0.00545415391248228,0.0,0.005596969688094218,0.7268381796216239,1.611243803410767,0,0,0,0,0,0,1500,1500,1500,1500,1500,1500
1748735637.011742,-0.01,-0.04,0.04,-0.001090830782496456,0.0,0.001090830782496456,0.005596969688094218,0.7268381796216239,1.611243803410767,0,0,0,0,0,0,1500,1500,1500,1500,1500,1500
1748735637.1111412,-0.01,-0.04,0.04,-0.001090830782496456,0.0,0.001090830782496456,0.005596969688094218,0.7268381796216239,1.611243803410767,0,0,0,0,0,0,1500,1500,1500,1500,1500,1500
1748735637.1944962,0.0,-0.02,0.03,-0.003272492347489368,-0.003272492347489368,0.002181661564992912,0.005596969688094218,0.7268381796216239,1.611243803410767,0,0,0,0,0,0,1500,1500,1500,1500,1500,1500
1748735637.2941449,0.0,-0.02,0.03,-0.003272492347489368,-0.003272492347489368,0.002181661564992912,0.005596969688094218,0.7268381796216239,1.611243803410767,0,0,0,0,0,0,1500,1500,1500,1500,1500,1500
1748735637.3943324,0.0,0.0,0.03,-0.001090830782496456,-0.003272492347489368,0.0,0.005596969688094218,0.7268381796216239,1.611243803410767,0,0,0,0,0,0,1500,1500,1500,1500,1500,1500
1748735637.4962876,0.0,0.0,0.04,0.001090830782496456,-0.003272492347489368,-0.002181661564992912,0.005596969688094218,0.7268381796216239,1.611243803410767,0,0,0,0,0,0,1500,1500,1500,1500,1500,1500
1748735637.595564,0.0,0.0,0.04,0.001090830782496456,-0.003272492347489368,-0.002181661564992912,0.005596969688094218,0.7268381796216239,1.611243803410767,0,0,0,0,0,0,1500,1500,1500,1500,1500,1500
1748735637.6774473,0.0,-0.01,0.03,-0.002181661564992912,0.001090830782496456,-0.001090830782496456,0.005596969688094218,0.7268381796216239,1.611243803410767,0,0,0,0,0,0,1500,1500,1500,1500,1500,1500
1748735637.7782052,0.0,-0.01,0.03,-0.002181661564992912,0.001090830782496456,-0.001090830782496456,0.005596969688094218,0.7268381796216239,1.611243803410767,0,0,0,0,0,0,1500,1500,1500,1500,1500,1500
1748735637.877249,-0.01,0.0,0.05,-0.001090830782496456,0.0,-0.002181661564992912,0.005596969688094218,0.7268381796216239,1.611243803410767,0,0,0,0,0,0,1500,1500,1500,1500,1500,1500
