time,ay,ax,az,gy,gx,gz,roll,pitch,yaw,cmd_fx,cmd_fy,cmd_fz,cmd_tx,cmd_ty,cmd_tz,pwm_1,pwm_2,pwm_3,pwm_4,pwm_5,pwm_6
1747547304.5759559,0.0,0.0,0.0,0.0,0.0,0.0,0.0,0.0,0.0,0,0,0,0,0,0,1500,1500,1500,1500,1500,1500
1747547304.663453,-0.32,0.07,0.0,-0.001090830782496456,-0.003272492347489368,-0.003272492347489368,-2.7118933894581976,-1.4728636548712672,2.668233945075105,0,0,0,0,0,0,1500,1500,1500,1500,1500,1500
1747547304.7639556,-0.32,0.07,0.0,-0.001090830782496456,-0.003272492347489368,-0.003272492347489368,-2.7118933894581976,-1.4728636548712672,2.668233945075105,0,0,0,0,0,0,1500,1500,1500,1500,1500,1500
1747547304.8639252,-0.38,-0.01,0.04,-0.001090830782496456,-0.002181661564992912,-0.001090830782496456,-2.714313130380251,-1.4729391221982349,2.670565766323476,0,0,0,0,0,0,1500,1500,1500,1500,1500,1500
1747547304.9473524,-0.38,-0.01,0.04,-0.001090830782496456,-0.002181661564992912,-0.001090830782496456,-2.714313130380251,-1.4729391221982349,2.670565766323476,0,0,0,0,0,0,1500,1500,1500,1500,1500,1500
1747547305.0474584,-0.33,0.06,0.0,-0.00545415391248228,-0.004363323129985824,-0.002181661564992912,-2.7166362577370213,-1.4729757333081832,2.6729723143994284,0,0,0,0,0,0,1500,1500,1500,1500,1500,1500
1747547305.1472516,-0.38,0.05,0.01,-0.003272492347489368,-0.004363323129985824,-0.004363323129985824,-2.7166362577370213,-1.4729757333081832,2.6729723143994284,0,0,0,0,0,0,1500,1500,1500,1500,1500,1500
1747547305.2310414,-0.38,0.05,0.01,-0.003272492347489368,-0.004363323129985824,-0.004363323129985824,-2.7166362577370213,-1.4729757333081832,2.6729723143994284,0,0,0,0,0,0,1500,1500,1500,1500,1500,1500
1747547305.3305192,-0.37,0.08,0.05,0.0,-0.003272492347489368,-0.004363323129985824,-2.7166362577370213,-1.4729757333081832,2.6729723143994284,0,0,0,0,0,0,1500,1500,1500,1500,1500,1500
1747547305.4288967,-0.35000000000000003,0.07,0.06,0.001090830782496456,-0.002181661564992912,0.001090830782496456,-2.7166362577370213,-1.4729757333081832,2.6729723143994284,0,0,0,0,0,0,1500,1500,1500,1500,1500,1500
1747547305.5143802,-0.35000000000000003,0.07,0.06,0.001090830782496456,-0.002181661564992912,0.001090830782496456,-2.7166362577370213,-1.4729757333081832,2.6729723143994284,0,0,0,0,0,0,1500,1500,1500,1500,1500,1500
1747547305.613974,-0.37,0.07,0.03,-0.004363323129985824,-0.001090830782496456,0.0,-2.7166362577370213,-1.4729757333081832,2.6729723143994284,0,0,0,0,0,0,1500,1500,1500,1500,1500,1500
1747547305.6971498,-0.37,0.07,0.03,-0.004363323129985824,-0.001090830782496456,0.0,-2.7166362577370213,-1.4729757333081832,2.6729723143994284,0,0,0,0,0,0,1500,1500,1500,1500,1500,1500
1747547305.7973993,-0.36,0.06,0.02,0.001090830782496456,0.0,-0.001090830782496456,-2.7166362577370213,-1.4729757333081832,2.6729723143994284,0,0,0,0,0,0,1500,1500,1500,1500,1500,1500
1747547305.8965242,-0.36,0.06,0.02,0.001090830782496456,0.0,-0.001090830782496456,-2.7166362577370213,-1.4729757333081832,2.6729723143994284,0,0,0,0,0,0,1500,1500,1500,1500,1500,1500
1747547305.9805253,-0.34,0.09,0.01,0.0,0.00545415391248228,0.001090830782496456,-2.7166362577370213,-1.4729757333081832,2.6729723143994284,0,0,0,0,0,0,1500,1500,1500,1500,1500,1500
1747547306.080513,-0.36,0.06,0.04,0.004363323129985824,0.002181661564992912,0.0,-2.7166362577370213,-1.4729757333081832,2.6729723143994284,0,0,0,0,0,0,1500,1500,1500,1500,1500,1500
1747547306.1807723,-0.36,0.06,0.04,0.004363323129985824,0.002181661564992912,0.0,-2.7166362577370213,-1.4729757333081832,2.6729723143994284,0,0,0,0,0,0,1500,1500,1500,1500,1500,1500
1747547306.2810645,-0.36,0.07,0.04,0.003272492347489368,-0.001090830782496456,0.0,-2.7166362577370213,-1.4729757333081832,2.6729723143994284,0,0,0,0,0,0,1500,1500,1500,1500,1500,1500
1747547306.3799632,-0.36,0.08,0.04,-0.003272492347489368,0.0,0.002181661564992912,-2.7166362577370213,-1.4729757333081832,2.6729723143994284,0,0,0,0,0,0,1500,1500,1500,1500,1500,1500
1747547306.465283,-0.36,0.08,0.04,-0.003272492347489368,0.0,0.002181661564992912,-2.7166362577370213,-1.4729757333081832,2.6729723143994284,0,0,0,0,0,0,1500,1500,1500,1500,1500,1500
1747547306.5658684,-0.35000000000000003,0.08,0.0,0.0,0.003272492347489368,0.001090830782496456,-2.7166362577370213,-1.4729757333081832,2.6729723143994284,0,0,0,0,0,0,1500,1500,1500,1500,1500,1500
1747547306.6633549,-0.35000000000000003,0.08,0.0,0.0,0.003272492347489368,0.001090830782496456,-2.7166362577370213,-1.4729757333081832,2.6729723143994284,0,0,0,0,0,0,1500,1500,1500,1500,1500,1500
1747547306.7635882,-0.36,0.09,0.0,-0.003272492347489368,0.003272492347489368,0.0,-2.7166362577370213,-1.4729757333081832,2.6729723143994284,0,0,0,0,0,0,1500,1500,1500,1500,1500,1500
1747547306.8641012,-0.35000000000000003,0.04,-0.01,-0.003272492347489368,0.001090830782496456,-0.001090830782496456,-2.7166362577370213,-1.4729757333081832,2.6729723143994284,0,0,0,0,0,0,1500,1500,1500,1500,1500,1500
1747547306.9472227,-0.35000000000000003,0.04,-0.01,-0.003272492347489368,0.001090830782496456,-0.001090830782496456,-2.7166362577370213,-1.4729757333081832,2.6729723143994284,0,0,0,0,0,0,1500,1500,1500,1500,1500,1500
1747547307.0476766,-0.36,0.05,0.03,0.0,0.0,0.002181661564992912,-2.7166362577370213,-1.4729757333081832,2.6729723143994284,0,0,0,0,0,0,1500,1500,1500,1500,1500,1500
1747547307.1473696,-0.36,0.05,0.03,0.0,0.0,0.002181661564992912,-2.7166362577370213,-1.4729757333081832,2.6729723143994284,0,0,0,0,0,0,1500,1500,1500,1500,1500,1500
1747547307.2305484,-0.36,0.06,0.03,0.001090830782496456,-0.002181661564992912,0.001090830782496456,-2.7166362577370213,-1.4729757333081832,2.6729723143994284,0,0,0,0,0,0,1500,1500,1500,1500,1500,1500
1747547307.3294523,-0.36,0.05,0.04,0.0,-0.00545415391248228,0.0,-2.7166362577370213,-1.4729757333081832,2.6729723143994284,0,0,0,0,0,0,1500,1500,1500,1500,1500,1500
1747547307.4301257,-0.36,0.05,0.04,0.0,-0.00545415391248228,0.0,-2.7166362577370213,-1.4729757333081832,2.6729723143994284,0,0,0,0,0,0,1500,1500,1500,1500,1500,1500
1747547307.5306826,-0.37,0.05,0.04,0.004363323129985824,-0.001090830782496456,0.0,-2.7166362577370213,-1.4729757333081832,2.6729723143994284,0,-0.125224,0,0,0,-1e-06,1500,1500,1500,1500,1500,1500
1747547307.6300085,-0.37,0.05,0.04,0.004363323129985824,-0.001090830782496456,0.0,-2.7166362577370213,-1.4729757333081832,2.6729723143994284,0,-12.29445,0,0,0,0,1460,1460,1460,1500,1500,1500
1747547307.7133615,-0.36,0.09,0.03,0.001090830782496456,0.001090830782496456,0.0,-2.7166362577370213,-1.4729757333081832,2.6729723143994284,0,-12.5,0,0,0,0,1432,1433,1441,1500,1500,1500
1747547307.8144033,-0.36,0.07,0.02,0.0,-0.001090830782496456,-0.001090830782496456,-2.7166362577370213,-1.4729757333081832,2.6729723143994284,0,-12.5,0,0,0,0,1432,1433,1441,1500,1500,1500
1747547307.9139767,-0.36,0.07,0.02,0.0,-0.001090830782496456,-0.001090830782496456,-2.7166362577370213,-1.4729757333081832,2.6729723143994284,0,-12.5,0,0,0,0,1432,1433,1441,1500,1500,1500
1747547308.01357,-0.27,-0.1,0.05,-0.003272492347489368,0.002181661564992912,0.001090830782496456,-2.719776567401253,-1.4739761542102916,2.6761449991312936,0,-12.5,0,0,0,0,1432,1433,1441,1500,1500,1500
1747547308.113211,-0.27,-0.1,0.05,-0.003272492347489368,0.002181661564992912,0.001090830782496456,-2.719776567401253,-1.4739761542102916,2.6761449991312936,0,-12.5,0,0,0,0,1432,1433,1441,1500,1500,1500
1747547308.1974766,-0.38,0.1,0.01,0.001090830782496456,0.004363323129985824,-0.001090830782496456,-2.7222157028367304,-1.4740513296062243,2.6784963649169087,0,-12.5,0,0,0,0,1432,1433,1441,1500,1500,1500
1747547308.2972114,-0.41000000000000003,0.05,0.03,-0.001090830782496456,0.003272492347489368,-0.001090830782496456,-2.723810946770204,-1.4740882832687532,2.680090167848656,0,-12.5,0,0,0,0,1432,1433,1441,1500,1500,1500
1747547308.397259,-0.41000000000000003,0.05,0.03,-0.001090830782496456,0.003272492347489368,-0.001090830782496456,-2.723810946770204,-1.4740882832687532,2.680090167848656,0,-12.5,0,0,0,0,1432,1433,1441,1500,1500,1500
1747547308.4804668,-0.3,0.04,0.0,-0.003272492347489368,0.0,0.0,-2.7238455488988214,-1.4731608284611668,2.6800892032905312,0,-12.5,0,0,0,0,1432,1433,1441,1500,1500,1500
1747547308.5806272,-0.3,0.04,0.0,-0.003272492347489368,0.0,0.0,-2.7238455488988214,-1.4731608284611668,2.6800892032905312,0,-12.5,0,0,0,0,1432,1433,1441,1500,1500,1500
1747547308.6807003,-0.34,0.07,0.07,0.001090830782496456,0.003272492347489368,0.003272492347489368,-2.7254087806748237,-1.4741250966300372,2.6816865623377186,0,0,0,0,0,0,1472,1473,1481,1500,1500,1500
1747547308.780101,-0.42,0.02,0.03,-0.002181661564992912,0.002181661564992912,0.0,-2.726259730646811,-1.4741630050695156,2.6824511861099394,0,0,0,0,0,0,1500,1500,1500,1500,1500,1500
1747547308.8803284,-0.42,0.02,0.03,-0.002181661564992912,0.002181661564992912,0.0,-2.726259730646811,-1.4741630050695156,2.6824511861099394,0,0,0,0,0,0,1500,1500,1500,1500,1500,1500
1747547308.9636307,-0.43,0.0,0.06,0.001090830782496456,0.001090830782496456,0.001090830782496456,-2.727009201856253,-1.4741617695302813,2.6832855457245044,0,0,0,0,0,0,1500,1500,1500,1500,1500,1500
1747547309.064085,-0.38,0.0,0.02,0.002181661564992912,0.00545415391248228,0.002181661564992912,-2.727009201856253,-1.4741617695302813,2.6832855457245044,0,0,0,0,0,0,1500,1500,1500,1500,1500,1500
1747547309.1630716,-0.38,0.0,0.02,0.002181661564992912,0.00545415391248228,0.002181661564992912,-2.727009201856253,-1.4741617695302813,2.6832855457245044,0,0,0,0,0,0,1500,1500,1500,1500,1500,1500
1747547309.2471468,-0.33,0.05,0.06,0.0,0.003272492347489368,0.0,-2.727009201856253,-1.4741617695302813,2.6832855457245044,0,6.767781,0,0,0,0,1540,1540,1540,1500,1500,1500
1747547309.347253,-0.33,0.05,0.06,0.0,0.003272492347489368,0.0,-2.727009201856253,-1.4741617695302813,2.6832855457245044,0,12.5,0,0,0,0,1561,1560,1553,1500,1500,1500
1747547309.4472368,-0.36,0.06,0.0,0.0,0.002181661564992912,0.0,-2.727009201856253,-1.4741617695302813,2.6832855457245044,0,12.5,0,0,0,0,1561,1560,1553,1500,1500,1500
1747547309.5475903,-0.47000000000000003,0.11,0.08,-0.003272492347489368,0.0,0.003272492347489368,-2.727009201856253,-1.4741617695302813,2.6832855457245044,0,12.5,0,0,0,0,1561,1560,1553,1500,1500,1500
1747547309.6474378,-0.47000000000000003,0.11,0.08,-0.003272492347489368,0.0,0.003272492347489368,-2.727009201856253,-1.4741617695302813,2.6832855457245044,0,12.5,0,0,0,0,1561,1560,1553,1500,1500,1500
1747547309.7342763,-0.35000000000000003,0.08,0.0,0.001090830782496456,0.001090830782496456,0.0,-2.727009201856253,-1.4741617695302813,2.6832855457245044,0,12.5,0,0,0,0,1561,1560,1553,1500,1500,1500
1747547309.830837,-0.35000000000000003,0.08,0.0,0.001090830782496456,0.001090830782496456,0.0,-2.727009201856253,-1.4741617695302813,2.6832855457245044,0,12.5,0,0,0,0,1561,1560,1553,1500,1500,1500
1747547309.9308298,-0.34,0.04,0.03,0.0,0.0,0.001090830782496456,-2.727009201856253,-1.4741617695302813,2.6832855457245044,0,12.5,0,0,0,0,1561,1560,1553,1500,1500,1500
1747547310.0301843,-0.4,0.01,0.03,0.0,0.001090830782496456,-0.001090830782496456,-2.727009201856253,-1.4741617695302813,2.6832855457245044,0,12.5,0,0,0,0,1561,1560,1553,1500,1500,1500
1747547310.1305857,-0.4,0.01,0.03,0.0,0.001090830782496456,-0.001090830782496456,-2.727009201856253,-1.4741617695302813,2.6832855457245044,0,12.5,0,0,0,0,1561,1560,1553,1500,1500,1500
1747547310.217405,-0.38,0.06,0.06,0.0,-0.001090830782496456,0.0,-2.727009201856253,-1.4741617695302813,2.6832855457245044,0,12.5,0,0,0,0,1561,1560,1553,1500,1500,1500
1747547310.3138733,-0.38,0.06,0.06,0.0,-0.001090830782496456,0.0,-2.727009201856253,-1.4741617695302813,2.6832855457245044,0,12.5,0,0,0,0,1561,1560,1553,1500,1500,1500
1747547310.4136143,-0.35000000000000003,0.06,0.05,-0.001090830782496456,0.001090830782496456,0.0,-2.727009201856253,-1.4741617695302813,2.6832855457245044,0,12.5,0,0,0,0,1561,1560,1553,1500,1500,1500
1747547310.5136008,-0.38,0.05,0.05,0.003272492347489368,0.003272492347489368,0.002181661564992912,-2.727009201856253,-1.4741617695302813,2.6832855457245044,0,12.5,0,0,0,0,1564,1563,1556,1500,1500,1500
1747547310.6138077,-0.38,0.05,0.05,0.003272492347489368,0.003272492347489368,0.002181661564992912,-2.727009201856253,-1.4741617695302813,2.6832855457245044,0,12.5,0,0,0,0,1567,1565,1558,1500,1500,1500
1747547310.6971645,-0.31,0.07,0.06,0.002181661564992912,-0.001090830782496456,0.001090830782496456,-2.727009201856253,-1.4741617695302813,2.6832855457245044,0,12.5,0,0,0,0,1567,1565,1558,1500,1500,1500
1747547310.797398,-0.31,0.07,0.06,0.002181661564992912,-0.001090830782496456,0.001090830782496456,-2.727009201856253,-1.4741617695302813,2.6832855457245044,0,12.5,0,0,0,0,1570,1568,1561,1500,1500,1500
1747547310.897213,-0.41000000000000003,0.02,0.06,0.002181661564992912,-0.001090830782496456,0.001090830782496456,-2.727009201856253,-1.4741617695302813,2.6832855457245044,0,12.5,0,0,0,0,1573,1572,1563,1500,1500,1500
1747547310.9800038,-0.32,0.07,0.0,0.002181661564992912,0.002181661564992912,0.001090830782496456,-2.727009201856253,-1.4741617695302813,2.6832855457245044,0,12.5,0,0,0,0,1576,1575,1566,1500,1500,1500
1747547311.0808277,-0.32,0.07,0.0,0.002181661564992912,0.002181661564992912,0.001090830782496456,-2.727009201856253,-1.4741617695302813,2.6832855457245044,0,12.5,0,0,0,0,1579,1578,1569,1500,1500,1500
1747547311.1803274,-0.37,0.01,0.02,0.001090830782496456,0.0,0.002181661564992912,-2.727009201856253,-1.4741617695302813,2.6832855457245044,0,12.5,0,0,0,0,1579,1578,1569,1500,1500,1500
1747547311.2805064,-0.37,0.01,0.02,0.001090830782496456,0.0,0.002181661564992912,-2.727009201856253,-1.4741617695302813,2.6832855457245044,0,12.5,0,0,0,0,1584,1582,1572,1500,1500,1500
1747547311.380003,-0.4,0.02,0.03,0.001090830782496456,0.0,0.001090830782496456,-2.727009201856253,-1.4741617695302813,2.6832855457245044,0,12.5,0,0,0,0,1587,1586,1575,1500,1500,1500
1747547311.463922,-0.3,0.05,0.02,0.003272492347489368,-0.004363323129985824,-0.003272492347489368,-2.727009201856253,-1.4741617695302813,2.6832855457245044,0,12.5,0,0,0,0,1592,1590,1578,1500,1500,1500
1747547311.5641327,-0.3,0.05,0.02,0.003272492347489368,-0.004363323129985824,-0.003272492347489368,-2.727009201856253,-1.4741617695302813,2.6832855457245044,0,12.5,0,0,0,0,1596,1594,1582,1500,1500,1500
1747547311.6644819,-0.36,0.07,0.0,0.003272492347489368,-0.001090830782496456,0.003272492347489368,-2.727009201856253,-1.4741617695302813,2.6832855457245044,0,12.5,0,0,0,0,1597,1595,1583,1500,1500,1500
1747547311.7642112,-0.41000000000000003,0.07,0.09,-0.001090830782496456,-0.002181661564992912,-0.003272492347489368,-2.727009201856253,-1.4741617695302813,2.6832855457245044,0,12.5,0,0,0,0,1597,1595,1583,1500,1500,1500
1747547311.8637395,-0.41000000000000003,0.07,0.09,-0.001090830782496456,-0.002181661564992912,-0.003272492347489368,-2.727009201856253,-1.4741617695302813,2.6832855457245044,0,12.5,0,0,0,0,1597,1595,1583,1500,1500,1500
1747547311.9472888,-0.36,0.05,0.03,0.002181661564992912,-0.001090830782496456,0.001090830782496456,-2.727009201856253,-1.4741617695302813,2.6832855457245044,0,12.5,0,0,0,0,1597,1595,1583,1500,1500,1500
1747547312.0474746,-0.36,0.05,0.03,0.002181661564992912,-0.001090830782496456,0.001090830782496456,-2.727009201856253,-1.4741617695302813,2.6832855457245044,0,10.332742,0,0,0,0,1588,1587,1576,1500,1500,1500
1747547312.145675,-0.34,0.06,0.01,0.001090830782496456,-0.003272492347489368,0.003272492347489368,-2.727009201856253,-1.4741617695302813,2.6832855457245044,0,0,0,0,0,0,1548,1547,1536,1500,1500,1500
1747547312.2301712,-0.3,0.02,0.03,0.001090830782496456,0.002181661564992912,-0.002181661564992912,-2.727009201856253,-1.4741617695302813,2.6832855457245044,0,0,0,0,0,0,1508,1507,1500,1500,1500,1500
1747547312.3306742,-0.3,0.02,0.03,0.001090830782496456,0.002181661564992912,-0.002181661564992912,-2.727009201856253,-1.4741617695302813,2.6832855457245044,0,0,0,0,0,0,1500,1500,1500,1500,1500,1500
1747547312.4296303,-0.07,0.03,-0.09,0.0,-0.001090830782496456,0.002181661564992912,-2.7286122075557904,-1.4741983018100575,2.68488711528522,0,0,0,0,0,0,1500,1500,1500,1500,1500,1500
1747547312.5302668,-0.07,0.03,-0.09,0.0,-0.001090830782496456,0.002181661564992912,-2.7286122075557904,-1.4741983018100575,2.68488711528522,0,0,0,0,0,0,1500,1500,1500,1500,1500,1500
1747547312.630667,-0.38,0.01,0.09,0.0,0.0,0.0,-2.730997833181491,-1.4741561325823465,2.6872744124086636,0,0,0,0,0,0,1500,1500,1500,1500,1500,1500
1747547312.7135167,-0.31,0.04,0.0,-0.002181661564992912,0.0,-0.001090830782496456,-2.730997833181491,-1.4741561325823465,2.6872744124086636,0,0,0,0,0,0,1500,1500,1500,1500,1500,1500
1747547312.813777,-0.31,0.04,0.0,-0.002181661564992912,0.0,-0.001090830782496456,-2.730997833181491,-1.4741561325823465,2.6872744124086636,0,0,0,0,0,0,1500,1500,1500,1500,1500,1500
1747547312.9136665,-0.32,0.05,0.03,0.0,-0.002181661564992912,0.0,-2.7318515079514656,-1.4741938214238997,2.6880417669901537,0,0,0,0,0,0,1500,1500,1500,1500,1500,1500
1747547313.0137877,-0.32,0.05,0.03,0.0,-0.002181661564992912,0.0,-2.7318515079514656,-1.4741938214238997,2.6880417669901537,0,0,0,0,0,0,1500,1500,1500,1500,1500,1500
1747547313.1139858,-0.34,0.05,0.0,0.002181661564992912,0.00545415391248228,0.0,-2.7326038860379,-1.4741923537562371,2.6888790391634756,0,0,0,0,0,0,1500,1500,1500,1500,1500,1500
1747547313.1973271,-0.36,0.06,0.02,0.001090830782496456,0.004363323129985824,0.003272492347489368,-2.733458821890151,-1.4742299794154126,2.6896476540917997,0,0,0,0,0,0,1500,1500,1500,1500,1500,1500
1747547313.2964883,-0.36,0.06,0.02,0.001090830782496456,0.004363323129985824,0.003272492347489368,-2.733458821890151,-1.4742299794154126,2.6896476540917997,0,0,0,0,0,0,1500,1500,1500,1500,1500,1500
1747547313.396342,-0.39,0.05,0.03,-0.002181661564992912,-0.001090830782496456,-0.002181661564992912,-2.733458821890151,-1.4742299794154126,2.6896476540917997,0,0,0,0,0,0,1500,1500,1500,1500,1500,1500
1747547313.4805784,-0.39,0.05,0.03,-0.002181661564992912,-0.001090830782496456,-0.002181661564992912,-2.733458821890151,-1.4742299794154126,2.6896476540917997,0,0,0,0,0,0,1500,1500,1500,1500,1500,1500
1747547313.5807571,-0.32,0.05,0.02,0.00545415391248228,-0.002181661564992912,0.0,-2.733458821890151,-1.4742299794154126,2.6896476540917997,0,0,0,0,0,0,1500,1500,1500,1500,1500,1500
1747547313.68023,-0.35000000000000003,0.05,0.06,0.001090830782496456,-0.004363323129985824,-0.001090830782496456,-2.733458821890151,-1.4742299794154126,2.6896476540917997,0,8.886056,0,0,0,0,1540,1540,1540,1500,1500,1500
1747547313.7801154,-0.35000000000000003,0.05,0.06,0.001090830782496456,-0.004363323129985824,-0.001090830782496456,-2.733458821890151,-1.4742299794154126,2.6896476540917997,0,12.5,0,0,0,0,1580,1580,1580,1500,1500,1500
1747547313.8803751,-0.33,0.04,0.01,0.001090830782496456,0.002181661564992912,0.0,-2.733458821890151,-1.4742299794154126,2.6896476540917997,0,12.5,0,0,0,0,1597,1595,1583,1500,1500,1500
1747547313.9632537,-0.54,-0.02,0.21,0.0,0.0,-0.001090830782496456,-2.733458821890151,-1.4742299794154126,2.6896476540917997,0,12.5,0,0,0,0,1597,1595,1583,1500,1500,1500
1747547314.0631826,-0.54,-0.02,0.21,0.0,0.0,-0.001090830782496456,-2.733458821890151,-1.4742299794154126,2.6896476540917997,0,12.5,0,0,0,0,1597,1595,1583,1500,1500,1500
1747547314.1638122,-0.37,0.04,-0.06,0.002181661564992912,0.002181661564992912,-0.001090830782496456,-2.733458821890151,-1.4742299794154126,2.6896476540917997,0,12.5,0,0,0,0,1597,1595,1583,1500,1500,1500
1747547314.263382,-0.37,0.04,-0.06,0.002181661564992912,0.002181661564992912,-0.001090830782496456,-2.733458821890151,-1.4742299794154126,2.6896476540917997,0,12.5,0,0,0,0,1597,1595,1583,1500,1500,1500
1747547314.3655887,-0.3,0.04,0.02,-0.00545415391248228,0.002181661564992912,-0.001090830782496456,-2.733458821890151,-1.4742299794154126,2.6896476540917997,0,12.5,0,0,0,0,1597,1595,1583,1500,1500,1500
1747547314.4457135,-0.41000000000000003,0.05,0.06,0.0,-0.002181661564992912,-0.001090830782496456,-2.733458821890151,-1.4742299794154126,2.6896476540917997,0,12.5,0,0,0,0,1597,1595,1583,1500,1500,1500
1747547314.5472548,-0.41000000000000003,0.05,0.06,0.0,-0.002181661564992912,-0.001090830782496456,-2.733458821890151,-1.4742299794154126,2.6896476540917997,0,0,0,0,0,0,1557,1555,1543,1500,1500,1500
1747547314.6474686,-0.32,0.06,0.02,-0.001090830782496456,-0.002181661564992912,0.0,-2.733458821890151,-1.4742299794154126,2.6896476540917997,0,0,0,0,0,0,1517,1515,1503,1500,1500,1500
1747547314.7300122,-0.32,0.06,0.02,-0.001090830782496456,-0.002181661564992912,0.0,-2.733458821890151,-1.4742299794154126,2.6896476540917997,0,0,0,0,0,0,1500,1500,1500,1500,1500,1500
1747547314.8303297,-0.29,-0.08,-0.03,-0.001090830782496456,-0.002181661564992912,0.0,-2.733458821890151,-1.4742299794154126,2.6896476540917997,0,0,0,0,0,0,1500,1500,1500,1500,1500,1500
1747547314.9299443,-0.21,0.05,-0.07,-0.001090830782496456,0.0,0.0,-2.733458821890151,-1.4742299794154126,2.6896476540917997,0,0,0,0,0,0,1500,1500,1500,1500,1500,1500
1747547315.0305226,-0.21,0.05,-0.07,-0.001090830782496456,0.0,0.0,-2.733458821890151,-1.4742299794154126,2.6896476540917997,0,0,0,0,0,0,1500,1500,1500,1500,1500,1500
1747547315.1304736,-0.36,0.06,0.05,0.0,-0.001090830782496456,0.0,-2.733458821890151,-1.4742299794154126,2.6896476540917997,0,0,0,0,0,0,1500,1500,1500,1500,1500,1500
1747547315.2132785,-0.34,0.03,0.0,0.002181661564992912,-0.001090830782496456,0.0,-2.733458821890151,-1.4742299794154126,2.6896476540917997,0,-0.070916,0,0,0,0,1500,1500,1500,1500,1500,1500
1747547315.313775,-0.34,0.03,0.0,0.002181661564992912,-0.001090830782496456,0.0,-2.733458821890151,-1.4742299794154126,2.6896476540917997,0,-12.5,0,0,0,0,1460,1460,1460,1500,1500,1500
1747547315.4135475,-0.35000000000000003,0.04,0.0,0.001090830782496456,-0.00545415391248228,-0.001090830782496456,-2.733458821890151,-1.4742299794154126,2.6896476540917997,0,-12.5,0,0,0,0,1420,1420,1420,1500,1500,1500
1747547315.5133758,-0.35000000000000003,0.04,0.0,0.001090830782496456,-0.00545415391248228,-0.001090830782496456,-2.733458821890151,-1.4742299794154126,2.6896476540917997,0,-12.5,0,0,0,0,1389,1392,1406,1500,1500,1500
1747547315.6137664,-0.35000000000000003,0.04,0.04,-0.001090830782496456,-0.006544984694978736,-0.001090830782496456,-2.733458821890151,-1.4742299794154126,2.6896476540917997,0,-12.5,0,0,0,0,1389,1392,1406,1500,1500,1500
1747547315.6966858,-0.24,-0.19,-0.1,-0.006544984694978736,0.001090830782496456,0.001090830782496456,-2.735068698253591,-1.4742659963009586,2.6912561054062656,0,-12.5,0,0,0,0,1389,1392,1406,1500,1500,1500
1747547315.7969677,-0.24,-0.19,-0.1,-0.006544984694978736,0.001090830782496456,0.001090830782496456,-2.735068698253591,-1.4742659963009586,2.6912561054062656,0,-12.5,0,0,0,0,1389,1392,1406,1500,1500,1500
1747547315.8965216,-0.33,0.01,0.01,0.003272492347489368,0.0,-0.001090830782496456,-2.734328507992649,-1.4734147574583947,2.690476813660605,0,-12.5,0,0,0,0,1389,1392,1406,1500,1500,1500
1747547315.979702,-0.33,0.01,0.01,0.003272492347489368,0.0,-0.001090830782496456,-2.734328507992649,-1.4734147574583947,2.690476813660605,0,-12.5,0,0,0,0,1389,1392,1406,1500,1500,1500
1747547316.080231,-0.45,0.08,0.15,0.001090830782496456,-0.001090830782496456,-0.003272492347489368,-2.735050018091763,-1.4743430215489575,2.6913191985278435,0,-12.5,0,0,0,0,1389,1392,1406,1500,1500,1500
1747547316.1801193,-0.38,0.04,0.0,0.002181661564992912,0.001090830782496456,0.0,-2.7359085742771914,-1.4743805510316386,2.692091423978199,0,-12.5,0,0,0,0,1389,1392,1406,1500,1500,1500
1747547316.280481,-0.38,0.04,0.0,0.002181661564992912,0.001090830782496456,0.0,-2.7359085742771914,-1.4743805510316386,2.692091423978199,0,-12.5,0,0,0,0,1389,1392,1406,1500,1500,1500
1747547316.379696,-0.31,0.08,-0.03,0.0,0.001090830782496456,-0.002181661564992912,-2.7366659027279883,-1.474378848348047,2.69293365583353,0,-12.5,0,0,0,0,1389,1392,1406,1500,1500,1500
1747547316.46328,-0.31,0.08,-0.03,0.0,0.001090830782496456,-0.002181661564992912,-2.7366659027279883,-1.474378848348047,2.69293365583353,0,-12.5,0,0,0,0,1389,1392,1406,1500,1500,1500
1747547316.5630977,-0.46,0.01,0.19,-0.001090830782496456,0.001090830782496456,0.001090830782496456,-2.7375257208830663,-1.4744163143140385,2.6937071425678276,0,-12.5,0,0,0,0,1389,1392,1406,1500,1500,1500
1747547316.6633685,-0.31,0.0,-0.06,0.0,0.003272492347489368,-0.001090830782496456,-2.7375257208830663,-1.4744163143140385,2.6937071425678276,0,-12.5,0,0,0,0,1389,1392,1406,1500,1500,1500
1747547316.7638848,-0.31,0.0,-0.06,0.0,0.003272492347489368,-0.001090830782496456,-2.7375257208830663,-1.4744163143140385,2.6937071425678276,0,-12.5,0,0,0,0,1389,1392,1406,1500,1500,1500
1747547316.8640249,-0.29,0.06,-0.02,0.003272492347489368,0.003272492347489368,-0.001090830782496456,-2.7375257208830663,-1.4744163143140385,2.6937071425678276,0,-1.371658,0,0,0,0,1429,1432,1446,1500,1500,1500
1747547316.9460735,-0.14,0.21,0.01,-0.001090830782496456,-0.002181661564992912,-0.001090830782496456,-2.7375257208830663,-1.4744163143140385,2.6937071425678276,0,0,0,0,0,0,1469,1472,1486,1500,1500,1500
1747547317.0463948,-0.14,0.21,0.01,-0.001090830782496456,-0.002181661564992912,-0.001090830782496456,-2.7375257208830663,-1.4744163143140385,2.6937071425678276,0,0,0,0,0,0,1500,1500,1500,1500,1500,1500
1747547317.1466122,-0.52,-0.1,0.08,0.002181661564992912,-0.002181661564992912,-0.004363323129985824,-2.7375257208830663,-1.4744163143140385,2.6937071425678276,0,0,0,0,0,0,1500,1500,1500,1500,1500,1500
1747547317.2303905,-0.52,-0.1,0.08,0.002181661564992912,-0.002181661564992912,-0.004363323129985824,-2.7375257208830663,-1.4744163143140385,2.6937071425678276,0,0,0,0,0,0,1500,1500,1500,1500,1500,1500
1747547317.3290935,-0.38,0.04,0.05,-0.001090830782496456,-0.001090830782496456,0.001090830782496456,-2.7375257208830663,-1.4744163143140385,2.6937071425678276,0,0,0,0,0,0,1500,1500,1500,1500,1500,1500
1747547317.4183958,-0.37,0.02,0.02,0.0,-0.002181661564992912,-0.002181661564992912,-2.7375257208830663,-1.4744163143140385,2.6937071425678276,0,0,0,0,0,0,1500,1500,1500,1500,1500,1500
1747547317.5132444,-0.37,0.02,0.02,0.0,-0.002181661564992912,-0.002181661564992912,-2.7375257208830663,-1.4744163143140385,2.6937071425678276,0,0,0,0,0,0,1500,1500,1500,1500,1500,1500
1747547317.6130116,-0.37,0.04,0.04,0.0,0.004363323129985824,-0.002181661564992912,-2.7375257208830663,-1.4744163143140385,2.6937071425678276,0,0,0,0,0,0,1500,1500,1500,1500,1500,1500
1747547317.6970022,-0.37,0.04,0.04,0.0,0.004363323129985824,-0.002181661564992912,-2.7375257208830663,-1.4744163143140385,2.6937071425678276,0,0,0,0,0,0,1500,1500,1500,1500,1500,1500
1747547317.7973208,-0.34,0.05,0.02,0.0,0.004363323129985824,0.0,-2.7375257208830663,-1.4744163143140385,2.6937071425678276,0,0,0,0,0,0,1500,1500,1500,1500,1500,1500
1747547317.8932102,-0.36,0.04,0.01,-0.002181661564992912,-0.004363323129985824,-0.001090830782496456,-2.7375257208830663,-1.4744163143140385,2.6937071425678276,0,0,0,0,0,0,1500,1500,1500,1500,1500,1500
1747547317.9815874,-0.36,0.04,0.01,-0.002181661564992912,-0.004363323129985824,-0.001090830782496456,-2.7375257208830663,-1.4744163143140385,2.6937071425678276,0,0,0,0,0,0,1500,1500,1500,1500,1500,1500
1747547318.0819247,-0.35000000000000003,0.01,0.05,-0.001090830782496456,-0.002181661564992912,0.001090830782496456,-2.7375257208830663,-1.4744163143140385,2.6937071425678276,0,0,0,0,0,0,1500,1500,1500,1500,1500,1500
1747547318.1821601,-0.35000000000000003,0.01,0.05,-0.001090830782496456,-0.002181661564992912,0.001090830782496456,-2.7375257208830663,-1.4744163143140385,2.6937071425678276,0,0,0,0,0,0,1500,1500,1500,1500,1500,1500
1747547318.2821548,-0.35000000000000003,0.05,0.03,-0.003272492347489368,0.002181661564992912,0.001090830782496456,-2.7375257208830663,-1.4744163143140385,2.6937071425678276,0,0,0,0,0,0,1500,1500,1500,1500,1500,1500
1747547318.3821423,-0.36,0.02,0.02,0.002181661564992912,0.001090830782496456,0.002181661564992912,-2.7375257208830663,-1.4744163143140385,2.6937071425678276,0,0,0,0,0,0,1500,1500,1500,1500,1500,1500
1747547318.4810963,-0.36,0.02,0.02,0.002181661564992912,0.001090830782496456,0.002181661564992912,-2.7375257208830663,-1.4744163143140385,2.6937071425678276,0,0,0,0,0,0,1500,1500,1500,1500,1500,1500
1747547318.5810647,-0.36,0.04,0.0,0.001090830782496456,0.003272492347489368,0.001090830782496456,-2.7375257208830663,-1.4744163143140385,2.6937071425678276,0,0,0,0,0,0,1500,1500,1500,1500,1500,1500
1747547318.6749148,-0.36,0.04,0.0,0.001090830782496456,0.003272492347489368,0.001090830782496456,-2.7375257208830663,-1.4744163143140385,2.6937071425678276,0,0,0,0,0,0,1500,1500,1500,1500,1500,1500
1747547318.7653992,-0.37,0.05,0.07,0.002181661564992912,0.001090830782496456,0.0,-2.7375257208830663,-1.4744163143140385,2.6937071425678276,0,0,0,0,0,0,1500,1500,1500,1500,1500,1500
1747547318.8652298,-0.35000000000000003,0.04,0.03,0.0,-0.001090830782496456,0.001090830782496456,-2.7375257208830663,-1.4744163143140385,2.6937071425678276,0,0,0,0,0,0,1500,1500,1500,1500,1500,1500
1747547318.9488258,-0.35000000000000003,0.04,0.03,0.0,-0.001090830782496456,0.001090830782496456,-2.7375257208830663,-1.4744163143140385,2.6937071425678276,0,0,0,0,0,0,1500,1500,1500,1500,1500,1500
1747547319.0477464,-0.37,0.04,0.04,0.001090830782496456,-0.002181661564992912,-0.002181661564992912,2.814664489635609,-1.4274521726067118,-1.6006139165816082,0,0,0,0,0,0,1500,1500,1500,1500,1500,1500
1747547319.148154,-0.37,0.04,0.04,0.001090830782496456,-0.002181661564992912,-0.002181661564992912,2.814664489635609,-1.4274521726067118,-1.6006139165816082,0,0,0,0,0,0,1500,1500,1500,1500,1500,1500
1747547319.2484477,-0.36,0.04,0.03,0.001090830782496456,-0.002181661564992912,0.002181661564992912,-2.7375257208830663,-1.4744163143140385,2.6937071425678276,0,0,0,0,0,0,1500,1500,1500,1500,1500,1500
1747547319.3476212,-0.34,0.04,0.02,-0.003272492347489368,0.004363323129985824,0.001090830782496456,-2.7375257208830663,-1.4744163143140385,2.6937071425678276,0,0,0,0,0,0,1500,1500,1500,1500,1500,1500
1747547319.4294565,-0.34,0.04,0.02,-0.003272492347489368,0.004363323129985824,0.001090830782496456,-2.7375257208830663,-1.4744163143140385,2.6937071425678276,0,0,0,0,0,0,1500,1500,1500,1500,1500,1500
1747547319.5300722,-0.37,0.05,0.03,-0.001090830782496456,-0.002181661564992912,-0.001090830782496456,-2.7375257208830663,-1.4744163143140385,2.6937071425678276,0,-5.746281,0,0,0,0,1460,1460,1460,1500,1500,1500
1747547319.6304927,-0.37,0.05,0.03,-0.001090830782496456,-0.002181661564992912,-0.001090830782496456,-2.7375257208830663,-1.4744163143140385,2.6937071425678276,0,-12.5,0,0,0,0,1420,1420,1420,1500,1500,1500
1747547319.7141685,-0.33,0.03,-0.01,0.0,0.0,0.001090830782496456,-2.7375257208830663,-1.4744163143140385,2.6937071425678276,0,-12.5,0,0,0,0,1389,1392,1406,1500,1500,1500
1747547319.813894,-0.4,0.32,0.05,0.004363323129985824,0.004363323129985824,0.004363323129985824,-2.739155464824686,-1.4743750561150486,2.695253708013013,0,-12.5,0,0,0,0,1389,1392,1406,1500,1500,1500
1747547319.8996294,-0.4,0.32,0.05,0.004363323129985824,0.004363323129985824,0.004363323129985824,-2.739155464824686,-1.4743750561150486,2.695253708013013,0,-12.5,0,0,0,0,1389,1392,1406,1500,1500,1500
1747547319.997256,-0.33,0.07,0.03,0.003272492347489368,0.001090830782496456,-0.003272492347489368,-2.7392472547065894,-1.4744912898371227,2.6952560244825343,0,-12.5,0,0,0,0,1389,1392,1406,1500,1500,1500
1747547320.0972674,-0.33,0.07,0.03,0.003272492347489368,0.001090830782496456,-0.003272492347489368,-2.7392472547065894,-1.4744912898371227,2.6952560244825343,0,-12.5,0,0,0,0,1389,1392,1406,1500,1500,1500
1747547320.1972036,-0.25,0.02,0.03,0.002181661564992912,0.004363323129985824,-0.001090830782496456,-2.7400071424692647,-1.4744893527538125,2.696100809594617,0,-12.5,0,0,0,0,1389,1392,1406,1500,1500,1500
1747547320.2974343,-0.31,0.02,0.03,0.0,-0.003272492347489368,0.0,-2.7407742631801115,-1.474410585106338,2.6968710862601273,0,-12.5,0,0,0,0,1389,1392,1406,1500,1500,1500
1747547320.3974817,-0.31,0.02,0.03,0.0,-0.003272492347489368,0.0,-2.7407742631801115,-1.474410585106338,2.6968710862601273,0,-12.5,0,0,0,0,1389,1392,1406,1500,1500,1500
1747547320.4799623,-0.3,-0.01,-0.13,0.004363323129985824,0.003272492347489368,0.0,-2.741635483585099,-1.4744479859258028,2.697645990337941,0,-12.5,0,0,0,0,1389,1392,1406,1500,1500,1500
1747547320.5805244,-0.3,-0.01,-0.13,0.004363323129985824,0.003272492347489368,0.0,-2.741635483585099,-1.4744479859258028,2.697645990337941,0,-12.5,0,0,0,0,1389,1392,1406,1500,1500,1500
1747547320.6808033,-0.27,0.02,-0.11,0.0,0.0,-0.001090830782496456,-2.742395609526583,-1.4744459722625973,2.6984910144494614,0,-12.5,0,0,0,0,1389,1392,1406,1500,1500,1500
1747547320.7805336,-0.42,0.08,0.08,-0.001090830782496456,0.00545415391248228,0.0,-2.742395609526583,-1.4744459722625973,2.6984910144494614,0,0,0,0,0,0,1429,1432,1446,1500,1500,1500
1747547320.8802006,-0.42,0.08,0.08,-0.001090830782496456,0.00545415391248228,0.0,-2.742395609526583,-1.4744459722625973,2.6984910144494614,0,0,0,0,0,0,1469,1472,1486,1500,1500,1500
1747547320.9637427,-0.38,-0.21,0.05,0.001090830782496456,0.001090830782496456,-0.004363323129985824,-2.7440195005022887,-1.4744812174280204,2.7001134892553598,0,0,0,0,0,0,1500,1500,1500,1500,1500,1500
1747547321.064525,-0.38,0.0,0.05,0.0,0.00545415391248228,-0.001090830782496456,-2.744883220217769,-1.4745184905889297,2.7008908914685112,0,0.24991,0,0,0,0,1500,1500,1500,1500,1500,1500
1747547321.16377,-0.38,0.0,0.05,0.0,0.00545415391248228,-0.001090830782496456,-2.744883220217769,-1.4745184905889297,2.7008908914685112,0,11.688051,0,0,0,0,1540,1540,1540,1500,1500,1500
1747547321.2642689,-0.38,0.03,0.03,-0.002181661564992912,0.0,-0.001090830782496456,-2.7456422832921916,-1.4744395443107763,2.7016531298053033,0,12.5,0,0,0,0,1580,1580,1580,1500,1500,1500
1747547321.363065,-0.36,0.04,0.05,0.001090830782496456,-0.001090830782496456,-0.002181661564992912,-2.7456422832921916,-1.4744395443107763,2.7016531298053033,0,12.5,0,0,0,0,1597,1595,1583,1500,1500,1500
1747547321.447347,-0.36,0.04,0.05,0.001090830782496456,-0.001090830782496456,-0.002181661564992912,-2.7456422832921916,-1.4744395443107763,2.7016531298053033,0,12.5,0,0,0,0,1597,1595,1583,1500,1500,1500
1747547321.547518,-0.3,0.14,0.0,0.001090830782496456,0.003272492347489368,-0.002181661564992912,-2.7463696076756485,-1.4753773551304215,2.7025016332543723,0,12.5,0,0,0,0,1597,1595,1583,1500,1500,1500
1747547321.6475484,-0.3,0.14,0.0,0.001090830782496456,0.003272492347489368,-0.002181661564992912,-2.7463696076756485,-1.4753773551304215,2.7025016332543723,0,12.5,0,0,0,0,1597,1595,1583,1500,1500,1500
1747547321.730806,-0.37,0.03,0.03,0.0,0.0,-0.002181661564992912,-2.747166227590362,-1.474435207620925,2.703346884153322,0,12.5,0,0,0,0,1597,1595,1583,1500,1500,1500
1747547321.8324296,-0.37,0.03,0.03,0.0,0.0,-0.002181661564992912,-2.747166227590362,-1.474435207620925,2.703346884153322,0,12.5,0,0,0,0,1597,1595,1583,1500,1500,1500
1747547321.9305155,-0.38,0.05,0.05,0.002181661564992912,-0.001090830782496456,0.001090830782496456,-2.747166227590362,-1.474435207620925,2.703346884153322,0,12.5,0,0,0,0,1597,1595,1583,1500,1500,1500
1747547322.030328,-0.3,0.0,0.01,-0.001090830782496456,-0.003272492347489368,0.0,-2.7480306756409316,-1.4744723080952216,2.7041250182927934,0,12.5,0,0,0,0,1597,1595,1583,1500,1500,1500
1747547322.130304,-0.3,0.0,0.01,-0.001090830782496456,-0.003272492347489368,0.0,-2.7480306756409316,-1.4744723080952216,2.7041250182927934,0,12.5,0,0,0,0,1597,1595,1583,1500,1500,1500
1747547322.2131999,-0.33,0.07,0.04,0.001090830782496456,0.003272492347489368,0.0,-2.7480306756409316,-1.4744723080952216,2.7041250182927934,0,12.5,0,0,0,0,1597,1595,1583,1500,1500,1500
1747547322.312995,-0.33,0.07,0.04,0.001090830782496456,0.003272492347489368,0.0,-2.7480306756409316,-1.4744723080952216,2.7041250182927934,0,12.5,0,0,0,0,1597,1595,1583,1500,1500,1500
1747547322.4137652,-0.39,0.01,0.07,-0.003272492347489368,-0.002181661564992912,-0.002181661564992912,-2.7480306756409316,-1.4744723080952216,2.7041250182927934,0,12.5,0,0,0,0,1597,1595,1583,1500,1500,1500
1747547322.5155694,-0.34,0.02,0.04,-0.003272492347489368,0.002181661564992912,0.001090830782496456,-2.7480306756409316,-1.4744723080952216,2.7041250182927934,0,12.5,0,0,0,0,1597,1595,1583,1500,1500,1500
1747547322.6157146,-0.34,0.02,0.04,-0.003272492347489368,0.002181661564992912,0.001090830782496456,-2.7480306756409316,-1.4744723080952216,2.7041250182927934,0,0,0,0,0,0,1557,1555,1543,1500,1500,1500
1747547322.6976953,-0.32,0.07,0.0,-0.001090830782496456,0.001090830782496456,0.002181661564992912,-2.7480306756409316,-1.4744723080952216,2.7041250182927934,0,0,0,0,0,0,1517,1515,1503,1500,1500,1500
1747547322.7974017,-0.51,-0.16,0.02,0.002181661564992912,0.0,-0.004363323129985824,-2.7480306756409316,-1.4744723080952216,2.7041250182927934,0,0,0,0,0,0,1500,1500,1500,1500,1500,1500
1747547322.8988457,-0.51,-0.16,0.02,0.002181661564992912,0.0,-0.004363323129985824,-2.7480306756409316,-1.4744723080952216,2.7041250182927934,0,0,0,0,0,0,1500,1500,1500,1500,1500,1500
1747547322.9983535,-0.32,0.04,-0.01,0.0,0.0,-0.001090830782496456,-2.7480306756409316,-1.4744723080952216,2.7041250182927934,0,-1.3e-05,0,0,0,0,1500,1500,1500,1500,1500,1500
1747547323.0976942,-0.32,0.04,-0.01,0.0,0.0,-0.001090830782496456,-2.7480306756409316,-1.4744723080952216,2.7041250182927934,0,-11.688026,0,0,0,0,1460,1460,1460,1500,1500,1500
1747547323.1805665,-0.35000000000000003,0.03,0.03,-0.001090830782496456,-0.003272492347489368,-0.001090830782496456,-2.7480306756409316,-1.4744723080952216,2.7041250182927934,0,-12.5,0,0,0,0,1420,1420,1420,1500,1500,1500
1747547323.2805243,-0.37,0.03,0.05,0.002181661564992912,0.001090830782496456,0.001090830782496456,-2.7480306756409316,-1.4744723080952216,2.7041250182927934,0,-12.5,0,0,0,0,1389,1392,1406,1500,1500,1500
1747547323.380673,-0.37,0.03,0.05,0.002181661564992912,0.001090830782496456,0.001090830782496456,-2.7480306756409316,-1.4744723080952216,2.7041250182927934,0,-12.5,0,0,0,0,1389,1392,1406,1500,1500,1500
1747547323.4634573,-0.37,0.17,0.09,0.0,-0.001090830782496456,0.003272492347489368,-2.7480306756409316,-1.4744723080952216,2.7041250182927934,0,-12.5,0,0,0,0,1389,1392,1406,1500,1500,1500
1747547323.5641809,-0.37,0.17,0.09,0.0,-0.001090830782496456,0.003272492347489368,-2.7480306756409316,-1.4744723080952216,2.7041250182927934,0,-12.5,0,0,0,0,1389,1392,1406,1500,1500,1500
1747547323.663325,-0.37,0.12,-0.02,-0.002181661564992912,-0.002181661564992912,0.001090830782496456,-2.7480306756409316,-1.4744723080952216,2.7041250182927934,0,-12.5,0,0,0,0,1389,1392,1406,1500,1500,1500
1747547323.7473233,-0.29,0.05,-0.02,0.001090830782496456,0.004363323129985824,-0.001090830782496456,-2.7480306756409316,-1.4744723080952216,2.7041250182927934,0,-12.5,0,0,0,0,1389,1392,1406,1500,1500,1500
1747547323.8473892,-0.29,0.05,-0.02,0.001090830782496456,0.004363323129985824,-0.001090830782496456,-2.7480306756409316,-1.4744723080952216,2.7041250182927934,0,-12.5,0,0,0,0,1389,1392,1406,1500,1500,1500
1747547323.930293,-0.32,0.02,0.06,0.0,-0.003272492347489368,-0.001090830782496456,-2.7480306756409316,-1.4744723080952216,2.7041250182927934,0,-12.5,0,0,0,0,1389,1392,1406,1500,1500,1500
1747547324.0297928,-0.32,0.02,0.06,0.0,-0.003272492347489368,-0.001090830782496456,-2.7480306756409316,-1.4744723080952216,2.7041250182927934,0,-12.5,0,0,0,0,1389,1392,1406,1500,1500,1500
1747547324.1304355,-0.37,0.04,0.11,-0.002181661564992912,-0.002181661564992912,0.002181661564992912,-2.7480306756409316,-1.4744723080952216,2.7041250182927934,0,-12.5,0,0,0,0,1389,1392,1406,1500,1500,1500
1747547324.2136378,-0.41000000000000003,0.04,0.13,0.0,0.002181661564992912,-0.002181661564992912,-2.7480306756409316,-1.4744723080952216,2.7041250182927934,0,-12.5,0,0,0,0,1389,1392,1406,1500,1500,1500
1747547324.3139548,-0.41000000000000003,0.04,0.13,0.0,0.002181661564992912,-0.002181661564992912,-2.7480306756409316,-1.4744723080952216,2.7041250182927934,0,-12.5,0,0,0,0,1389,1392,1406,1500,1500,1500
1747547324.4133892,-0.27,-0.01,0.0,0.001090830782496456,-0.001090830782496456,0.0,-2.7480306756409316,-1.4744723080952216,2.7041250182927934,0,0,0,0,0,0,1429,1432,1446,1500,1500,1500
1747547324.5134366,-0.27,-0.01,0.0,0.001090830782496456,-0.001090830782496456,0.0,-2.7480306756409316,-1.4744723080952216,2.7041250182927934,0,0,0,0,0,0,1469,1472,1486,1500,1500,1500
1747547324.6134267,-0.33,-0.19,0.0,0.0,-0.001090830782496456,0.0,-2.7480306756409316,-1.4744723080952216,2.7041250182927934,0,0,0,0,0,0,1500,1500,1500,1500,1500,1500
1747547324.6996222,-0.39,-0.04,0.07,0.001090830782496456,-0.001090830782496456,0.0,-2.7480306756409316,-1.4744723080952216,2.7041250182927934,0,0,0,0,0,0,1500,1500,1500,1500,1500,1500
1747547324.7974155,-0.39,-0.04,0.07,0.001090830782496456,-0.001090830782496456,0.0,-2.7480306756409316,-1.4744723080952216,2.7041250182927934,0,0,0,0,0,0,1500,1500,1500,1500,1500,1500
1747547324.896118,-0.36,0.07,0.04,-0.003272492347489368,0.003272492347489368,0.0,-2.7480306756409316,-1.4744723080952216,2.7041250182927934,0,0,0,0,0,0,1500,1500,1500,1500,1500,1500
1747547324.9802392,-0.36,0.07,0.04,-0.003272492347489368,0.003272492347489368,0.0,-2.7480306756409316,-1.4744723080952216,2.7041250182927934,0,0,0,0,0,0,1500,1500,1500,1500,1500,1500
1747547325.08001,-0.35000000000000003,0.03,0.05,-0.001090830782496456,0.0,0.0,-2.7480306756409316,-1.4744723080952216,2.7041250182927934,0,11.489325,0,0,0,0.092902,1540,1540,1540,1500,1500,1500
1747547325.1800635,-0.37,0.03,0.03,0.001090830782496456,0.004363323129985824,-0.001090830782496456,-2.7480306756409316,-1.4744723080952216,2.7041250182927934,0,12.294457,0,0,0,0.043304,1580,1580,1580,1500,1500,1500
1747547325.279965,-0.37,0.03,0.03,0.001090830782496456,0.004363323129985824,-0.001090830782496456,-2.7480306756409316,-1.4744723080952216,2.7041250182927934,0,12.5,0,0,0,0.012408,1597,1595,1583,1500,1500,1500
1747547325.3803008,-0.36,0.41000000000000003,-0.06,0.001090830782496456,-0.003272492347489368,0.006544984694978736,-2.7480306756409316,-1.4744723080952216,2.7041250182927934,0,12.5,0,0,0,0.012408,1597,1595,1583,1500,1500,1500
1747547325.4630551,-0.36,0.41000000000000003,-0.06,0.001090830782496456,-0.003272492347489368,0.006544984694978736,-2.7480306756409316,-1.4744723080952216,2.7041250182927934,0,12.5,0,0,0,0.012408,1597,1595,1583,1500,1500,1500
1747547325.5634928,-0.45,0.02,0.08,0.001090830782496456,-0.00545415391248228,0.0,-2.7520578988280127,-1.4745393419357626,2.708234353338617,0,12.5,0,0,0,0.012408,1597,1595,1583,1500,1500,1500
1747547325.6639168,-0.3,0.09,-0.02,-0.002181661564992912,0.003272492347489368,-0.001090830782496456,-2.752926055724686,-1.4745762497807031,2.709016194814997,0,12.5,0,0,0,0.012408,1597,1595,1583,1500,1500,1500
1747547325.7633162,-0.3,0.09,-0.02,-0.002181661564992912,0.003272492347489368,-0.001090830782496456,-2.752926055724686,-1.4745762497807031,2.709016194814997,0,12.5,0,0,0,0.012408,1597,1595,1583,1500,1500,1500
1747547325.864571,-0.31,0.06,0.03,-0.001090830782496456,0.006544984694978736,0.001090830782496456,-2.752926055724686,-1.4745762497807031,2.709016194814997,0,3.613676,0,0,0,0,1557,1555,1549,1500,1500,1500
1747547325.946481,-0.37,0.02,0.03,0.001090830782496456,0.0,0.001090830782496456,-2.752926055724686,-1.4745762497807031,2.709016194814997,0,0,0,0,0,0,1517,1515,1509,1500,1500,1500
1747547326.0472348,-0.37,0.02,0.03,0.001090830782496456,0.0,0.001090830782496456,-2.752926055724686,-1.4745762497807031,2.709016194814997,0,0,0,0,0,0,1500,1500,1500,1500,1500,1500
1747547326.1472197,-0.36,0.05,0.03,0.0,0.001090830782496456,-0.001090830782496456,-2.752926055724686,-1.4745762497807031,2.709016194814997,0,0,0,0,0,0,1500,1500,1500,1500,1500,1500
1747547326.2300575,-0.36,0.05,0.03,0.0,0.001090830782496456,-0.001090830782496456,-2.752926055724686,-1.4745762497807031,2.709016194814997,0,0,0,0,0,0,1500,1500,1500,1500,1500,1500
1747547326.3295174,-0.32,0.03,0.0,0.003272492347489368,-0.001090830782496456,0.0,-2.752926055724686,-1.4745762497807031,2.709016194814997,0,0,0,0,0,0,1500,1500,1500,1500,1500,1500
1747547326.4271295,-0.36,0.02,0.01,0.001090830782496456,-0.00545415391248228,-0.001090830782496456,-2.7536934873085306,-1.474573768138551,2.709868545466142,0,0,0,0,0,0,1500,1500,1500,1500,1500,1500
1747547326.5140777,-0.36,0.02,0.01,0.001090830782496456,-0.00545415391248228,-0.001090830782496456,-2.7536934873085306,-1.474573768138551,2.709868545466142,0,0,0,0,0,0,1500,1500,1500,1500,1500,1500
1747547326.6138508,-0.34,0.02,0.04,0.001090830782496456,-0.002181661564992912,-0.001090830782496456,-2.7536934873085306,-1.474573768138551,2.709868545466142,0,0,0,0,0,0,1500,1500,1500,1500,1500,1500
1747547326.6960094,-0.34,0.02,0.04,0.001090830782496456,-0.002181661564992912,-0.001090830782496456,-2.7536934873085306,-1.474573768138551,2.709868545466142,0,0,0,0,0,0,1500,1500,1500,1500,1500,1500
1747547326.7976286,-0.35000000000000003,0.03,0.01,0.0,0.0,0.001090830782496456,-2.7536934873085306,-1.474573768138551,2.709868545466142,0,0,0,0,0,0,1500,1500,1500,1500,1500,1500
1747547326.8905313,-0.39,0.0,0.02,0.002181661564992912,-0.001090830782496456,0.0,-2.7536934873085306,-1.474573768138551,2.709868545466142,0,0,0,0,0,0,1500,1500,1500,1500,1500,1500
1747547326.9805353,-0.39,0.0,0.02,0.002181661564992912,-0.001090830782496456,0.0,-2.7536934873085306,-1.474573768138551,2.709868545466142,0,0,0,0,0,0,1500,1500,1500,1500,1500,1500
1747547327.0805554,-0.37,0.02,0.03,-0.003272492347489368,0.0,0.001090830782496456,-2.7536934873085306,-1.474573768138551,2.709868545466142,0,0,0,0,0,0,1500,1500,1500,1500,1500,1500
1747547327.1692126,-0.37,0.02,0.03,-0.003272492347489368,0.0,0.001090830782496456,-2.7536934873085306,-1.474573768138551,2.709868545466142,0,0,0,0,0,0,1500,1500,1500,1500,1500,1500
1747547327.2650123,-0.37,0.02,0.05,-0.002181661564992912,0.0,0.0,-2.7536934873085306,-1.474573768138551,2.709868545466142,0,0,0,0,0,0,1500,1500,1500,1500,1500,1500
1747547327.364257,-0.34,0.02,0.02,0.001090830782496456,0.00545415391248228,0.002181661564992912,-2.7536934873085306,-1.474573768138551,2.709868545466142,0,0,0,0,0,0,1500,1500,1500,1500,1500,1500
1747547327.4474304,-0.34,0.02,0.02,0.001090830782496456,0.00545415391248228,0.002181661564992912,-2.7536934873085306,-1.474573768138551,2.709868545466142,0,0,0,0,0,0,1500,1500,1500,1500,1500,1500
1747547327.5473304,-0.33,0.03,0.03,0.002181661564992912,0.0,0.003272492347489368,-2.7536934873085306,-1.474573768138551,2.709868545466142,0,0,0,0,0,0,1500,1500,1500,1500,1500,1500
1747547327.6478531,-0.33,0.03,0.03,0.002181661564992912,0.0,0.003272492347489368,-2.7536934873085306,-1.474573768138551,2.709868545466142,0,0,0,0,0,0,1500,1500,1500,1500,1500,1500
1747547327.7473364,-0.36,0.01,0.0,0.0,-0.001090830782496456,0.001090830782496456,-2.7536934873085306,-1.474573768138551,2.709868545466142,0,0,0,0,0,0,1500,1500,1500,1500,1500,1500
1747547327.8474877,-0.37,0.03,0.01,-0.001090830782496456,0.002181661564992912,0.001090830782496456,-2.7536934873085306,-1.474573768138551,2.709868545466142,0,0,0,0,0,0,1500,1500,1500,1500,1500,1500
1747547327.932082,-0.37,0.03,0.01,-0.001090830782496456,0.002181661564992912,0.001090830782496456,-2.7536934873085306,-1.474573768138551,2.709868545466142,0,0,0,0,0,0,1500,1500,1500,1500,1500,1500
1747547328.0322251,-0.37,0.02,0.03,0.0,-0.001090830782496456,0.0,-2.7536934873085306,-1.474573768138551,2.709868545466142,0,0,0,0,0,0,1500,1500,1500,1500,1500,1500
1747547328.1318874,-0.37,0.02,0.03,0.0,-0.001090830782496456,0.0,-2.7536934873085306,-1.474573768138551,2.709868545466142,0,0,0,0,0,0,1500,1500,1500,1500,1500,1500
1747547328.2144244,-0.36,0.02,0.03,0.002181661564992912,0.003272492347489368,-0.001090830782496456,-2.7536934873085306,-1.474573768138551,2.709868545466142,0,0,0,0,0,0,1500,1500,1500,1500,1500,1500
1747547328.3113348,-0.35000000000000003,0.0,0.04,0.002181661564992912,-0.002181661564992912,-0.001090830782496456,-2.7536934873085306,-1.474573768138551,2.709868545466142,0,0,0,0,0,0,1500,1500,1500,1500,1500,1500
1747547328.414709,-0.35000000000000003,0.0,0.04,0.002181661564992912,-0.002181661564992912,-0.001090830782496456,-2.7536934873085306,-1.474573768138551,2.709868545466142,0,0,0,0,0,0,1500,1500,1500,1500,1500,1500
1747547328.5144417,-0.34,0.02,0.02,0.0,0.001090830782496456,0.001090830782496456,-2.7536934873085306,-1.474573768138551,2.709868545466142,0,0,0,0,0,0,1500,1500,1500,1500,1500,1500
1747547328.6145856,-0.34,0.02,0.02,0.0,0.001090830782496456,0.001090830782496456,-2.7536934873085306,-1.474573768138551,2.709868545466142,0,0,0,0,0,0,1500,1500,1500,1500,1500,1500
1747547328.6985788,-0.37,0.02,0.03,-0.003272492347489368,-0.001090830782496456,0.002181661564992912,-2.7536934873085306,-1.474573768138551,2.709868545466142,0,0,0,0,0,0,1500,1500,1500,1500,1500,1500
1747547328.7979357,-0.38,0.03,0.03,0.004363323129985824,-0.001090830782496456,0.0,-2.7536934873085306,-1.474573768138551,2.709868545466142,0,0,0,0,0,0,1500,1500,1500,1500,1500,1500
1747547328.8981774,-0.38,0.03,0.03,0.004363323129985824,-0.001090830782496456,0.0,-2.7536934873085306,-1.474573768138551,2.709868545466142,0,0,0,0,0,0,1500,1500,1500,1500,1500,1500
1747547328.997625,-0.4,0.02,0.06,0.002181661564992912,-0.001090830782496456,0.0,-2.7536934873085306,-1.474573768138551,2.709868545466142,0,0,0,0,0,0,1500,1500,1500,1500,1500,1500
1747547329.098984,-0.4,0.02,0.06,0.002181661564992912,-0.001090830782496456,0.0,-2.7536934873085306,-1.474573768138551,2.709868545466142,0,0,0,0,0,0,1500,1500,1500,1500,1500,1500
1747547329.1819448,-0.35000000000000003,0.02,0.03,0.003272492347489368,-0.003272492347489368,0.0,-2.7536934873085306,-1.474573768138551,2.709868545466142,0,0,0,0,0,0,1500,1500,1500,1500,1500,1500
1747547329.2810102,-0.34,0.02,0.02,-0.001090830782496456,0.001090830782496456,0.001090830782496456,-2.7536934873085306,-1.474573768138551,2.709868545466142,0,0,0,0,0,0,1500,1500,1500,1500,1500,1500
1747547329.3817866,-0.34,0.02,0.02,-0.001090830782496456,0.001090830782496456,0.001090830782496456,-2.7536934873085306,-1.474573768138551,2.709868545466142,0,0,0,0,0,0,1500,1500,1500,1500,1500,1500
1747547329.4657586,-0.35000000000000003,0.01,0.01,0.0,0.003272492347489368,-0.001090830782496456,-2.7536934873085306,-1.474573768138551,2.709868545466142,0,0,0,0,0,0,1500,1500,1500,1500,1500,1500
1747547329.5646183,-0.35000000000000003,0.01,0.01,0.0,0.003272492347489368,-0.001090830782496456,-2.7536934873085306,-1.474573768138551,2.709868545466142,0,0,0,0,0,0,1500,1500,1500,1500,1500,1500
1747547329.6641545,-0.35000000000000003,0.02,0.04,-0.002181661564992912,-0.004363323129985824,0.0,-2.7536934873085306,-1.474573768138551,2.709868545466142,0,0,0,0,0,0,1500,1500,1500,1500,1500,1500
1747547329.7647939,-0.36,0.02,0.04,0.001090830782496456,0.00545415391248228,0.001090830782496456,-2.7536934873085306,-1.474573768138551,2.709868545466142,0,0,0,0,0,0,1500,1500,1500,1500,1500,1500
1747547329.8654838,-0.36,0.02,0.04,0.001090830782496456,0.00545415391248228,0.001090830782496456,-2.7536934873085306,-1.474573768138551,2.709868545466142,0,0,0,0,0,0,1500,1500,1500,1500,1500,1500
1747547329.9483955,-0.38,0.04,0.0,-0.001090830782496456,0.001090830782496456,0.0,-2.7536934873085306,-1.474573768138551,2.709868545466142,0,0,0,0,0,0,1500,1500,1500,1500,1500,1500
1747547330.0456572,-0.36,0.02,0.03,0.0,0.004363323129985824,0.002181661564992912,-2.7536934873085306,-1.474573768138551,2.709868545466142,0,0,0,0,0,0,1500,1500,1500,1500,1500,1500
1747547330.1471524,-0.36,0.02,0.03,0.0,0.004363323129985824,0.002181661564992912,-2.7536934873085306,-1.474573768138551,2.709868545466142,0,0,0,0,0,0,1500,1500,1500,1500,1500,1500
1747547330.2475648,-0.33,0.02,0.04,-0.002181661564992912,0.001090830782496456,-0.1407171709420428,-2.7536934873085306,-1.474573768138551,2.709868545466142,0,0,0,0,0,0,1500,1500,1500,1500,1500,1500
1747547330.3475611,-0.33,0.02,0.04,-0.002181661564992912,0.001090830782496456,-0.1407171709420428,-2.7536934873085306,-1.474573768138551,2.709868545466142,0,0,0,0,0,0,1500,1500,1500,1500,1500,1500
1747547330.431118,-0.34,0.04,0.0,0.003272492347489368,0.001090830782496456,-0.001090830782496456,-2.7536934873085306,-1.474573768138551,2.709868545466142,0,0,0,0,0,0,1500,1500,1500,1500,1500,1500
1747547330.5316608,-0.36,0.02,0.05,-0.001090830782496456,-0.001090830782496456,0.002181661564992912,-2.7536934873085306,-1.474573768138551,2.709868545466142,0,0,0,0,0,0,1500,1500,1500,1500,1500,1500
1747547330.6314697,-0.36,0.02,0.05,-0.001090830782496456,-0.001090830782496456,0.002181661564992912,-2.7536934873085306,-1.474573768138551,2.709868545466142,0,0,0,0,0,0,1500,1500,1500,1500,1500,1500
1747547330.715928,-0.35000000000000003,0.02,0.01,0.002181661564992912,-0.001090830782496456,0.0,-2.7536934873085306,-1.474573768138551,2.709868545466142,0,0,0,0,0,0,1500,1500,1500,1500,1500,1500
1747547330.814773,-0.35000000000000003,0.02,0.01,0.002181661564992912,-0.001090830782496456,0.0,-2.7536934873085306,-1.474573768138551,2.709868545466142,0,0,0,0,0,0,1500,1500,1500,1500,1500,1500
1747547330.8999574,-0.36,0.03,0.05,-0.002181661564992912,0.0,-0.001090830782496456,-2.7536934873085306,-1.474573768138551,2.709868545466142,0,0,0,0,0,0,1500,1500,1500,1500,1500,1500
1747547330.9995615,-0.35000000000000003,0.02,0.0,-0.002181661564992912,0.002181661564992912,0.004363323129985824,-2.7536934873085306,-1.474573768138551,2.709868545466142,0,0,0,0,0,0,1500,1500,1500,1500,1500,1500
1747547331.0982685,-0.35000000000000003,0.02,0.0,-0.002181661564992912,0.002181661564992912,0.004363323129985824,-2.7536934873085306,-1.474573768138551,2.709868545466142,0,0,0,0,0,0,1500,1500,1500,1500,1500,1500
1747547331.1819465,-0.32,0.02,0.01,0.0,-0.002181661564992912,-0.001090830782496456,-2.7536934873085306,-1.474573768138551,2.709868545466142,0,0,0,0,0,0,1500,1500,1500,1500,1500,1500
1747547331.2817695,-0.32,0.02,0.01,0.0,-0.002181661564992912,-0.001090830782496456,-2.7536934873085306,-1.474573768138551,2.709868545466142,0,0,0,0,0,0,1500,1500,1500,1500,1500,1500
1747547331.380501,-0.36,0.02,0.0,0.0,0.002181661564992912,0.002181661564992912,-2.7536934873085306,-1.474573768138551,2.709868545466142,0,0,0,0,0,0,1500,1500,1500,1500,1500,1500
1747547331.465119,-0.35000000000000003,0.0,0.0,0.0,-0.002181661564992912,0.0,-2.7536934873085306,-1.474573768138551,2.709868545466142,0,0,0,0,0,0,1500,1500,1500,1500,1500,1500
1747547331.5650878,-0.35000000000000003,0.0,0.0,0.0,-0.002181661564992912,0.0,-2.7536934873085306,-1.474573768138551,2.709868545466142,0,0,0,0,0,0,1500,1500,1500,1500,1500,1500
1747547331.6640923,-0.37,0.03,0.07,0.001090830782496456,0.002181661564992912,-0.001090830782496456,-2.7536934873085306,-1.474573768138551,2.709868545466142,0,0,0,0,0,0,1500,1500,1500,1500,1500,1500
1747547331.7649608,-0.37,0.03,0.07,0.001090830782496456,0.002181661564992912,-0.001090830782496456,-2.7536934873085306,-1.474573768138551,2.709868545466142,0,0,0,0,0,0,1500,1500,1500,1500,1500,1500
1747547331.8664994,-0.36,0.03,0.01,-0.001090830782496456,0.001090830782496456,-0.001090830782496456,-2.7536934873085306,-1.474573768138551,2.709868545466142,0,0,0,0,0,0,1500,1500,1500,1500,1500,1500
1747547331.964865,-0.36,0.04,0.06,0.001090830782496456,-0.003272492347489368,-0.001090830782496456,-2.7536934873085306,-1.474573768138551,2.709868545466142,0,0,0,0,0,0,1500,1500,1500,1500,1500,1500
1747547332.0805442,-0.36,0.04,0.06,0.001090830782496456,-0.003272492347489368,-0.001090830782496456,-2.7536934873085306,-1.474573768138551,2.709868545466142,0,0,0,0,0,0,1500,1500,1500,1500,1500,1500
1747547332.1803596,-0.35000000000000003,0.02,0.02,0.0,-0.001090830782496456,0.0,-2.7536934873085306,-1.474573768138551,2.709868545466142,0,0,0,0,0,0,1500,1500,1500,1500,1500,1500
1747547332.27976,-0.36,0.02,0.04,0.002181661564992912,-0.003272492347489368,0.001090830782496456,-2.7536934873085306,-1.474573768138551,2.709868545466142,0,0,0,0,0,0,1500,1500,1500,1500,1500,1500
1747547332.3811982,-0.36,0.02,0.04,0.002181661564992912,-0.003272492347489368,0.001090830782496456,-2.7536934873085306,-1.474573768138551,2.709868545466142,0,0,0,0,0,0,1500,1500,1500,1500,1500,1500
1747547332.4642806,-0.36,0.02,0.0,0.001090830782496456,0.0,0.002181661564992912,-2.7536934873085306,-1.474573768138551,2.709868545466142,0,0,0,0,0,0,1500,1500,1500,1500,1500,1500
1747547332.5632818,-0.36,0.02,0.0,0.001090830782496456,0.0,0.002181661564992912,-2.7536934873085306,-1.474573768138551,2.709868545466142,0,0,0,0,0,0,1500,1500,1500,1500,1500,1500
1747547332.662962,-0.31,0.03,0.03,0.001090830782496456,-0.003272492347489368,0.002181661564992912,-2.7536934873085306,-1.474573768138551,2.709868545466142,0,0,0,0,0,0,1500,1500,1500,1500,1500,1500
1747547332.7461433,-0.36,0.01,0.04,-0.002181661564992912,-0.002181661564992912,-0.001090830782496456,-2.7536934873085306,-1.474573768138551,2.709868545466142,0,0,0,0,0,0,1500,1500,1500,1500,1500,1500
1747547332.8462071,-0.36,0.01,0.04,-0.002181661564992912,-0.002181661564992912,-0.001090830782496456,-2.7536934873085306,-1.474573768138551,2.709868545466142,0,0,0,0,0,0,1500,1500,1500,1500,1500,1500
1747547332.946369,-0.35000000000000003,0.02,0.01,0.0,-0.004363323129985824,-0.002181661564992912,-2.7536934873085306,-1.474573768138551,2.709868545466142,0,0,0,0,0,0,1500,1500,1500,1500,1500,1500
1747547333.046012,-0.37,0.01,0.05,-0.001090830782496456,0.002181661564992912,0.0,-2.7536934873085306,-1.474573768138551,2.709868545466142,0,0,0,0,0,0,1500,1500,1500,1500,1500,1500
1747547333.14654,-0.37,0.01,0.05,-0.001090830782496456,0.002181661564992912,0.0,-2.7536934873085306,-1.474573768138551,2.709868545466142,0,0,0,0,0,0,1500,1500,1500,1500,1500,1500
1747547333.2293742,-0.37,0.02,-0.01,0.0,0.001090830782496456,0.0,-2.7536934873085306,-1.474573768138551,2.709868545466142,0,0,0,0,0,0,1500,1500,1500,1500,1500,1500
1747547333.329496,-0.37,0.02,-0.01,0.0,0.001090830782496456,0.0,-2.7536934873085306,-1.474573768138551,2.709868545466142,0,0,0,0,0,0,1500,1500,1500,1500,1500,1500
1747547333.428881,-0.37,0.05,0.06,0.0,-0.002181661564992912,0.001090830782496456,-2.7536934873085306,-1.474573768138551,2.709868545466142,0,0,0,0,0,0,1500,1500,1500,1500,1500,1500
1747547333.5294354,-0.32,0.02,0.02,-0.004363323129985824,0.001090830782496456,0.001090830782496456,-2.7536934873085306,-1.474573768138551,2.709868545466142,0,0,0,0,0,0,1500,1500,1500,1500,1500,1500
1747547333.6295483,-0.32,0.02,0.02,-0.004363323129985824,0.001090830782496456,0.001090830782496456,-2.7536934873085306,-1.474573768138551,2.709868545466142,0,0,0,0,0,0,1500,1500,1500,1500,1500,1500
1747547333.713085,-0.35000000000000003,0.02,0.01,0.001090830782496456,0.0,0.0,-2.7536934873085306,-1.474573768138551,2.709868545466142,0,0,0,0,0,0,1500,1500,1500,1500,1500,1500
1747547333.81259,-0.35000000000000003,0.02,0.01,0.001090830782496456,0.0,0.0,-2.7536934873085306,-1.474573768138551,2.709868545466142,0,0,0,0,0,0,1500,1500,1500,1500,1500,1500
1747547333.9137993,-0.36,0.04,0.02,0.001090830782496456,-0.001090830782496456,-0.002181661564992912,-2.7536934873085306,-1.474573768138551,2.709868545466142,0,0,0,0,0,0,1500,1500,1500,1500,1500,1500
1747547334.0135436,-0.37,0.02,0.05,0.004363323129985824,-0.004363323129985824,0.0,-2.7536934873085306,-1.474573768138551,2.709868545466142,0,0,0,0,0,0,1500,1500,1500,1500,1500,1500
1747547334.1129217,-0.37,0.02,0.05,0.004363323129985824,-0.004363323129985824,0.0,-2.7536934873085306,-1.474573768138551,2.709868545466142,0,0,0,0,0,0,1500,1500,1500,1500,1500,1500
1747547334.1960676,-0.37,0.04,0.04,0.001090830782496456,-0.002181661564992912,-0.002181661564992912,-2.7536934873085306,-1.474573768138551,2.709868545466142,0,0,0,0,0,0,1500,1500,1500,1500,1500,1500
1747547334.2966073,-0.37,0.04,0.04,0.001090830782496456,-0.002181661564992912,-0.002181661564992912,-2.7536934873085306,-1.474573768138551,2.709868545466142,0,0,0,0,0,0,1500,1500,1500,1500,1500,1500
1747547334.3959177,-0.34,0.04,-0.01,0.0,0.002181661564992912,-0.002181661564992912,-2.7536934873085306,-1.474573768138551,2.709868545466142,0,0,0,0,0,0,1500,1500,1500,1500,1500,1500
1747547334.4810915,-0.37,0.03,0.04,0.001090830782496456,0.002181661564992912,0.0,-2.7536934873085306,-1.474573768138551,2.709868545466142,0,0,0,0,0,0,1500,1500,1500,1500,1500,1500
