time,ay,ax,az,gy,gx,gz,roll,pitch,yaw,cmd_fx,cmd_fy,cmd_fz,cmd_tx,cmd_ty,cmd_tz,pwm_1,pwm_2,pwm_3,pwm_4,pwm_5,pwm_6
1747553860.8530495,0.0,0.0,0.0,0.0,0.0,0.0,0.0,0.0,0.0,0,0,0,0,0,0,1500,1500,1500,1500,1500,1500
1747553860.9556386,0.04,-0.23,0.14,-0.001090830782496456,-0.001090830782496456,-0.002181661564992912,2.0353281974098207,0.13563559480285414,0.21960852679620757,0,0,0,0,0,0,1500,1500,1500,1500,1500,1500
1747553861.0395823,0.04,-0.23,0.14,-0.001090830782496456,-0.001090830782496456,-0.002181661564992912,2.0353281974098207,0.13563559480285414,0.21960852679620757,0,0,0,0,0,0,1500,1500,1500,1500,1500,1500
1747553861.1401894,0.07,-0.24,0.24,0.0,0.0,-0.001090830782496456,2.035051284849276,0.13560227533550565,0.2194852383608121,0,0,0,0,0,0,1500,1500,1500,1500,1500,1500
1747553861.2357404,0.03,-0.27,0.17,-0.002181661564992912,0.0,-0.001090830782496456,2.0348490022252648,0.1356181041315042,0.21946981860743905,0,0,0,0,0,0,1500,1500,1500,1500,1500,1500
1747553861.3230774,0.03,-0.27,0.17,-0.002181661564992912,0.0,-0.001090830782496456,2.0348490022252648,0.1356181041315042,0.21946981860743905,0,0,0,0,0,0,1500,1500,1500,1500,1500,1500
1747553861.423373,0.01,0.01,0.07,0.001090830782496456,-0.002181661564992912,-0.001090830782496456,2.0348490022252648,0.1356181041315042,0.21946981860743905,0,0,0,0,0,0,1500,1500,1500,1500,1500,1500
1747553861.5228195,0.01,0.01,0.07,0.001090830782496456,-0.002181661564992912,-0.001090830782496456,2.0348490022252648,0.1356181041315042,0.21946981860743905,0,0,0,0,0,0,1500,1500,1500,1500,1500,1500
1747553861.622838,0.02,0.0,0.13,-0.001090830782496456,-0.002181661564992912,0.0,2.0348490022252648,0.1356181041315042,0.21946981860743905,0,0,0,0,0,0,1500,1500,1500,1500,1500,1500
1747553861.711749,0.05,0.03,0.1,-0.001090830782496456,0.0,-0.001090830782496456,2.0348490022252648,0.1356181041315042,0.21946981860743905,0,0,0,0,0,0,1500,1500,1500,1500,1500,1500
1747553861.806616,0.05,0.03,0.1,-0.001090830782496456,0.0,-0.001090830782496456,2.0348490022252648,0.1356181041315042,0.21946981860743905,0,0,0,0,0,0,1500,1500,1500,1500,1500,1500
1747553861.9068842,0.06,-0.02,0.18,0.0,0.001090830782496456,0.002181661564992912,2.0348490022252648,0.1356181041315042,0.21946981860743905,0,0,0,0,0,0,1500,1500,1500,1500,1500,1500
1747553862.0068867,0.06,-0.02,0.18,0.0,0.001090830782496456,0.002181661564992912,2.0348490022252648,0.1356181041315042,0.21946981860743905,0,0,0,0,0,0,1500,1500,1500,1500,1500,1500
1747553862.089509,0.04,-0.01,0.08,0.00545415391248228,0.015271630954950384,0.018544123302439753,2.034927989372647,0.13429698691213385,0.219424491620408,0,0,0,0,0,0,1500,1500,1500,1500,1500,1500
1747553862.1892567,0.04,-0.01,0.08,0.00545415391248228,0.015271630954950384,0.018544123302439753,2.034927989372647,0.13429698691213385,0.219424491620408,0,0,0,0,0,0,1500,1500,1500,1500,1500,1500
1747553862.2900321,0.08,-1.29,0.18,0.00545415391248228,0.025089107997418487,0.044724062082354694,2.034978977085593,0.12874750528874185,0.21977598482382013,0,0,0,0,0,0,1500,1500,1500,1500,1500,1500
1747553862.38937,0.07,-0.07,0.15,0.016362461737446838,0.037088246604879506,0.0818123086872342,2.035984178779759,0.11769806846106541,0.219855992774233,0,0,0,0,0,0,1500,1500,1500,1500,1500,1500
1747553862.4891753,0.07,-0.07,0.15,0.016362461737446838,0.037088246604879506,0.0818123086872342,2.035984178779759,0.11769806846106541,0.219855992774233,0,0,0,0,0,0,1500,1500,1500,1500,1500,1500
1747553862.5715187,0.09,-0.03,0.17,0.031634092692397225,0.06763150851478027,0.14180800172453928,2.0395031010534157,0.0983485075633901,0.2191756377399905,0,0,0,0,0,0,1500,1500,1500,1500,1500,1500
1747553862.6807132,0.07,-0.09,0.18,0.07308566242726255,0.09817477042468103,0.2203478180642841,2.0472612624897963,0.06978452422845341,0.21717206619238205,0,0,0,0,0,0,1500,1500,1500,1500,1500,1500
1747553862.7734668,0.07,-0.09,0.18,0.07308566242726255,0.09817477042468103,0.2203478180642841,2.0472612624897963,0.06978452422845341,0.21717206619238205,0,0,0,0,0,0,1500,1500,1500,1500,1500,1500
1747553862.8750458,0.1,-0.06,0.25,0.11453723216212788,0.12108221685710661,0.284706834231575,2.062140068432219,0.027470825028643484,0.21372559531975052,0,0,0,0,0,0,1500,1500,1500,1500,1500,1500
1747553862.968839,0.02,-0.08,0.15,0.1407171709420428,0.12980886311707826,0.32288591161895097,2.0812082126445026,-0.020538127349946568,0.2086209996681352,0,0,0,0,0,0,1500,1500,1500,1500,1500,1500
1747553863.0594668,0.02,-0.08,0.15,0.1407171709420428,0.12980886311707826,0.32288591161895097,2.0812082126445026,-0.020538127349946568,0.2086209996681352,0,0,0,0,0,0,1500,1500,1500,1500,1500,1500
1747553863.1588466,0.07,0.0,0.22,0.14944381720201447,0.12326387842209953,0.3337942194439155,2.1041587646029027,-0.07519990322622941,0.2006151228604418,0,0,0,0,0,0,1500,1500,1500,1500,1500,1500
1747553863.258816,0.07,0.0,0.22,0.14944381720201447,0.12326387842209953,0.3337942194439155,2.1041587646029027,-0.07519990322622941,0.2006151228604418,0,0,0,0,0,0,1500,1500,1500,1500,1500,1500
1747553863.3595295,0.0,0.03,0.14,0.13199052468207118,0.11344640137963143,0.3097959422289935,2.1262389482335045,-0.1277051799647266,0.19064713714929402,0,0,0,0,0,0,1500,1500,1500,1500,1500,1500
1747553863.4585047,0.02,0.13,0.14,0.09926560120717749,0.08617563181722002,0.2650718801466388,2.143136843197717,-0.1708395451383693,0.1806132323243353,0,0,0,0,0,0,1500,1500,1500,1500,1500,1500
1747553863.541457,0.02,0.13,0.14,0.09926560120717749,0.08617563181722002,0.2650718801466388,2.143136843197717,-0.1708395451383693,0.1806132323243353,0,0,0,0,0,0,1500,1500,1500,1500,1500,1500
1747553863.6403756,0.03,0.11,0.16,0.044724062082354694,0.05890486225480862,0.20507618710933373,2.1546513551201647,-0.20738519642585143,0.17012919352942393,0,0,0,0,0,0,1500,1500,1500,1500,1500,1500
1747553863.7406993,0.03,0.11,0.16,0.044724062082354694,0.05890486225480862,0.20507618710933373,2.1546513551201647,-0.20738519642585143,0.17012919352942393,0,0,0,0,0,0,1500,1500,1500,1500,1500,1500
1747553863.8400571,0.03,0.1,0.1,-0.011999138607461015,0.02181661564992912,0.14180800172453928,2.1576724083148067,-0.23324009372348772,0.16075454442655931,0,0,0,0,0,0,1500,1500,1500,1500,1500,1500
1747553863.9397974,0.02,0.09,0.16,-0.06544984694978735,-0.003272492347489368,0.07963064712224129,2.1524152308903193,-0.24707215292956222,0.15310729426941289,0,0,0,0,0,0,1500,1500,1500,1500,1500,1500
1747553864.0269544,0.02,0.09,0.16,-0.06544984694978735,-0.003272492347489368,0.07963064712224129,2.1524152308903193,-0.24707215292956222,0.15310729426941289,0,0,0,0,0,0,1500,1500,1500,1500,1500,1500
1747553864.126111,0.03,0.12,0.1,-0.10471975511965978,-0.018544123302439753,0.025089107997418487,2.1391140857522437,-0.2528800051979327,0.1478833799184708,0,0,0,0,0,0,1500,1500,1500,1500,1500,1500
1747553864.2212176,0.03,0.06,0.15,-0.13199052468207118,-0.031634092692397225,-0.020725784867432664,2.1216217247717637,-0.25107625597622013,0.1448866697058406,0,0,0,0,0,0,1500,1500,1500,1500,1500,1500
1747553864.3075275,0.03,0.06,0.15,-0.13199052468207118,-0.031634092692397225,-0.020725784867432664,2.1216217247717637,-0.25107625597622013,0.1448866697058406,0,0,0,0,0,0,1500,1500,1500,1500,1500,1500
1747553864.4066374,0.08,0.07,0.14,-0.14726215563702155,-0.037088246604879506,-0.061086523819801536,2.099496424376166,-0.24281723132584615,0.14379797398925032,0,0,0,0,0,0,1500,1500,1500,1500,1500,1500
1747553864.505752,0.08,0.07,0.14,-0.14726215563702155,-0.037088246604879506,-0.061086523819801536,2.099496424376166,-0.24281723132584615,0.14379797398925032,0,0,0,0,0,0,1500,1500,1500,1500,1500,1500
1747553864.5885918,0.06,0.01,0.09,-0.14944381720201447,-0.04363323129985824,-0.08290313946973066,2.076855509406529,-0.23106351076063483,0.14391191298817857,0,0,0,0,0,0,1500,1500,1500,1500,1500,1500
1747553864.6897352,0.06,0.01,0.09,-0.14944381720201447,-0.04363323129985824,-0.08290313946973066,2.076855509406529,-0.23106351076063483,0.14391191298817857,0,0,0,0,0,0,1500,1500,1500,1500,1500,1500
1747553864.7740626,0.07,0.04,0.1,-0.14180800172453928,-0.04036073895236887,-0.08944812416470939,2.0536213965530896,-0.21625362244925797,0.14488159233652256,0,0,0,0,0,0,1500,1500,1500,1500,1500,1500
1747553864.8732858,0.08,0.02,0.24,-0.1189005552921137,-0.03381575425739013,-0.09490227807719166,2.0330771005892796,-0.2004341288534303,0.14648785006088313,0,0,0,0,0,0,1500,1500,1500,1500,1500,1500
1747553864.973409,0.08,0.02,0.24,-0.1189005552921137,-0.03381575425739013,-0.09490227807719166,2.0330771005892796,-0.2004341288534303,0.14648785006088313,0,0,0,0,0,0,1500,1500,1500,1500,1500,1500
1747553865.055654,0.03,-0.02,0.13,-0.09272061651219876,-0.03381575425739013,-0.08072147790473774,2.0165915947808855,-0.18596225331822303,0.14811720997887923,0,0,0,0,0,0,1500,1500,1500,1500,1500,1500
1747553865.156411,0.03,-0.02,0.13,-0.09272061651219876,-0.03381575425739013,-0.08072147790473774,2.0165915947808855,-0.18596225331822303,0.14811720997887923,0,0,0,0,0,0,1500,1500,1500,1500,1500,1500
1747553865.255305,0.06,0.0,0.22,-0.06544984694978735,-0.025089107997418487,-0.06981317007977318,2.0047122506024992,-0.1741516065742434,0.1495914223062249,0,0,0,0,0,0,1500,1500,1500,1500,1500,1500
1747553865.3406928,0.04,0.0,0.2,-0.03599741582238305,-0.018544123302439753,-0.05781403147231216,1.996332438058469,-0.1635859515398902,0.1507139067756427,0,0,0,0,0,0,1500,1500,1500,1500,1500,1500
1747553865.4394364,0.04,0.0,0.2,-0.03599741582238305,-0.018544123302439753,-0.05781403147231216,1.996332438058469,-0.1635859515398902,0.1507139067756427,-1,0,0,0,0,0,1500,1500,1500,1460,1460,1460
1747553865.5242064,0.09,-0.01,0.25,-0.014180800172453928,-0.025089107997418487,-0.04254240051736178,1.9924790092078066,-0.15562995086277526,0.1508560774362861,-1,0,0,0,0,0,1500,1500,1500,1454,1460,1460
1747553865.6251135,0.09,-0.01,0.25,-0.014180800172453928,-0.025089107997418487,-0.04254240051736178,1.9924790092078066,-0.15562995086277526,0.1508560774362861,-1,0,0,0,0,0,1500,1500,1500,1454,1460,1460
1747553865.7231677,0.05,0.0,0.13,0.008726646259971648,-0.016362461737446838,-0.026179938779914945,1.9906601375343318,-0.1504091689753761,0.15044833960352894,-1,0,0,0,0,0,1500,1500,1500,1454,1460,1460
1747553865.807418,0.06,-0.04,0.24,0.025089107997418487,-0.016362461737446838,0.006544984694978736,1.9915334601133907,-0.14939458534796188,0.14908341798577038,-1,0,0,0,0,0,1500,1500,1500,1454,1460,1460
1747553865.9053829,0.06,-0.04,0.24,0.025089107997418487,-0.016362461737446838,0.006544984694978736,1.9915334601133907,-0.14939458534796188,0.14908341798577038,-1,0,0,0,0,0,1500,1500,1500,1454,1460,1460
1747553866.00545,-0.04,-0.14,0.18,0.025089107997418487,-0.018544123302439753,0.02399827721492203,1.9942099269954903,-0.15170695257304134,0.14560167602335292,-1,0,0,0,0,0,1500,1500,1500,1454,1460,1460
1747553866.090044,-0.04,-0.14,0.18,0.025089107997418487,-0.018544123302439753,0.02399827721492203,1.9942099269954903,-0.15170695257304134,0.14560167602335292,-1,0,0,0,0,0,1500,1500,1500,1454,1460,1460
1747553866.1896338,0.19,0.1,0.17,0.02181661564992912,-0.02399827721492203,0.03490658503988659,1.9969236119806417,-0.1556519048746165,0.1407036703497529,-1,0,0,0,0,0,1500,1500,1500,1454,1460,1460
1747553866.2768111,0.09,0.08,0.19,0.011999138607461015,-0.02399827721492203,0.037088246604879506,1.9986228974672857,-0.15984310246213143,0.13534573890008972,-1,0,0,0,0,0,1500,1500,1500,1454,1460,1460
1747553866.374195,0.09,0.08,0.19,0.011999138607461015,-0.02399827721492203,0.037088246604879506,1.9986228974672857,-0.15984310246213143,0.13534573890008972,-1,0,0,0,0,0,1500,1500,1500,1454,1460,1460
1747553866.4740908,0.07,0.06,0.22,0.00545415391248228,-0.02181661564992912,0.03490658503988659,1.9978739272898263,-0.16446970295220145,0.12970048775766213,-1,0,0,0,0,0,1500,1500,1500,1454,1460,1460
1747553866.5564032,0.07,0.06,0.22,0.00545415391248228,-0.02181661564992912,0.03490658503988659,1.9978739272898263,-0.16446970295220145,0.12970048775766213,-1,0,0,0,0,0,1500,1500,1500,1454,1460,1460
1747553866.6554966,0.11,0.11,0.12,-0.007635815477475192,-0.022907446432425576,0.03381575425739013,1.9973161913995476,-0.16830539751419094,0.12440310998575807,-1,0,0,0,0,0,1500,1500,1500,1454,1460,1460
1747553866.756787,-0.03,-0.12,0.25,-0.007635815477475192,-0.028361600344907856,0.030543261909900768,1.9961809201125453,-0.1716265106336862,0.11897217223881075,-1,0,0,0,0,0,1500,1500,1500,1454,1460,1460
1747553866.8406296,-0.03,-0.12,0.25,-0.007635815477475192,-0.028361600344907856,0.030543261909900768,1.9961809201125453,-0.1716265106336862,0.11897217223881075,-1,0,0,0,0,0,1500,1500,1500,1454,1460,1460
1747553866.939345,0.0,-0.09,0.14,-0.011999138607461015,-0.02945243112740431,0.02399827721492203,1.9952298427837551,-0.1740433220564254,0.11337263561818374,-1,0,0,0,0,0,1500,1500,1500,1454,1460,1460
1747553867.0393863,0.0,-0.09,0.14,-0.011999138607461015,-0.02945243112740431,0.02399827721492203,1.9952298427837551,-0.1740433220564254,0.11337263561818374,-1,0,0,0,0,0,1500,1500,1500,1454,1460,1460
1747553867.1392558,0.06,0.0,0.14,-0.008726646259971648,-0.030543261909900768,0.02181661564992912,1.993784069952095,-0.17626595258678612,0.10742663885937145,-1,0,0,0,0,0,1500,1500,1500,1454,1460,1460
1747553867.2397194,0.06,-0.09,0.21,-0.011999138607461015,-0.03599741582238305,0.020725784867432664,1.9928396978892378,-0.17773832600841374,0.10150066643963362,-1,0,0,0,0,0,1500,1500,1500,1454,1460,1460
1747553867.3238816,0.06,-0.09,0.21,-0.011999138607461015,-0.03599741582238305,0.020725784867432664,1.9928396978892378,-0.17773832600841374,0.10150066643963362,-1,0,0,0,0,0,1500,1500,1500,1454,1460,1460
1747553867.4243712,0.07,0.11,0.09,-0.008726646259971648,-0.031634092692397225,0.017453292519943295,1.9916404542356982,-0.17897972089019298,0.09618733229575657,-1,0,0,0,0,0,1500,1500,1500,1454,1460,1460
1747553867.5182376,0.12,0.04,0.2,-0.007635815477475192,-0.02945243112740431,0.015271630954950384,1.9910812085495424,-0.17972094767138996,0.09120075022680409,-1,0,0,0,0,0,1500,1500,1500,1454,1460,1460
1747553867.6073446,0.12,0.04,0.2,-0.007635815477475192,-0.02945243112740431,0.015271630954950384,1.9910812085495424,-0.17972094767138996,0.09120075022680409,-1,0,0,0,0,0,1500,1500,1500,1454,1460,1460
1747553867.7056532,0.0,-0.01,0.16,0.003272492347489368,-0.02945243112740431,0.014180800172453928,1.9899821930752053,-0.18056771452819603,0.08603784894450467,-1,0,0,0,0,0,1500,1500,1500,1454,1460,1460
1747553867.7897363,0.0,-0.01,0.16,0.003272492347489368,-0.02945243112740431,0.014180800172453928,1.9899821930752053,-0.18056771452819603,0.08603784894450467,-1,0,0,0,0,0,1500,1500,1500,1454,1460,1460
1747553867.8904908,0.06,0.04,0.24,0.0,-0.031634092692397225,0.018544123302439753,1.9895070284171776,-0.1813859641468684,0.08093791757358489,-1,0,0,0,0,0,1500,1500,1500,1454,1460,1460
1747553867.98433,0.01,0.07,0.1,0.006544984694978736,-0.031634092692397225,0.015271630954950384,1.9891019333751865,-0.18250714213737193,0.07515101984068069,-1,0,0,0,0,0,1500,1500,1500,1454,1460,1460
1747553868.0739477,0.01,0.07,0.1,0.006544984694978736,-0.031634092692397225,0.015271630954950384,1.9891019333751865,-0.18250714213737193,0.07515101984068069,-1,0,0,0,0,0,1500,1500,1500,1454,1460,1460
1747553868.174281,0.07,0.09,0.19,0.015271630954950384,-0.037088246604879506,0.017453292519943295,1.9898583752509997,-0.18339801208088874,0.06922312540381713,-1,0,0,0,0,0,1500,1500,1500,1454,1460,1460
1747553868.2760546,0.07,0.09,0.19,0.015271630954950384,-0.037088246604879506,0.017453292519943295,1.9898583752509997,-0.18339801208088874,0.06922312540381713,-1,0,0,0,0,0,1500,1500,1500,1454,1460,1460
1747553868.3746743,-0.06,-0.1,0.14,0.020725784867432664,-0.030543261909900768,0.019634954084936207,1.9923510427596236,-0.18498500842295934,0.0632566408277798,-1,0,0,0,0,0,1500,1500,1500,1454,1460,1460
1747553868.4737594,0.05,-0.01,0.17,0.022907446432425576,-0.03490658503988659,0.019634954084936207,1.9948362985200225,-0.18631863144763472,0.05698987194862128,-1,0,0,0,0,0,1500,1500,1500,1454,1460,1460
1747553868.5557241,0.05,-0.01,0.17,0.022907446432425576,-0.03490658503988659,0.019634954084936207,1.9948362985200225,-0.18631863144763472,0.05698987194862128,-1,0,0,0,0,0,1500,1500,1500,1454,1460,1460
1747553868.657173,0.02,-0.1,0.21,0.020725784867432664,-0.04145156973486533,0.015271630954950384,1.9981708597358439,-0.18678161154098183,0.05109046556037694,-1,0,0,0,0,0,1500,1500,1500,1454,1460,1460
1747553868.7582529,0.02,-0.1,0.21,0.020725784867432664,-0.04145156973486533,0.015271630954950384,1.9981708597358439,-0.18678161154098183,0.05109046556037694,-1,0,0,0,0,0,1500,1500,1500,1454,1460,1460
1747553868.8593173,0.11,0.05,0.11,0.02399827721492203,-0.03381575425739013,0.013089969389957472,2.001241296833876,-0.18698302832981187,0.04492160831321035,-1,0,0,0,0,0,1500,1500,1500,1454,1460,1460
1747553868.9499252,0.02,-0.11,0.14,0.016362461737446838,-0.03381575425739013,0.017453292519943295,2.0045469873799777,-0.18718205655399645,0.039172358331142666,-1,0,0,0,0,0,1500,1500,1500,1454,1460,1460
1747553869.048803,0.02,-0.11,0.14,0.016362461737446838,-0.03381575425739013,0.017453292519943295,2.0045469873799777,-0.18718205655399645,0.039172358331142666,-1,0,0,0,0,0,1500,1500,1500,1454,1460,1460
1747553869.147885,0.04,-0.07,0.17,0.015271630954950384,-0.02945243112740431,0.011999138607461015,2.0100627182522253,-0.19513258612158912,0.020006362471789694,-1,0,0,0,0,0,1500,1500,1500,1454,1460,1460
1747553869.2457478,0.1,0.0,0.16,0.011999138607461015,-0.037088246604879506,0.002181661564992912,2.0108842746027857,-0.1845071776337655,0.02852938386076243,-1,0,0,0,0,0,1500,1500,1500,1454,1460,1460
1747553869.3459492,0.1,0.0,0.16,0.011999138607461015,-0.037088246604879506,0.002181661564992912,2.0108842746027857,-0.1845071776337655,0.02852938386076243,-1,0,0,0,0,0,1500,1500,1500,1454,1460,1460
1747553869.452796,0.13,0.1,0.11,0.00545415391248228,-0.037088246604879506,-0.004363323129985824,2.012327738584247,-0.1819799328592702,0.023009593677663774,-1,0,0,0,0,0,1500,1500,1500,1454,1460,1460
1747553869.5440521,0.13,0.1,0.11,0.00545415391248228,-0.037088246604879506,-0.004363323129985824,2.012327738584247,-0.1819799328592702,0.023009593677663774,-1,0,0,0,0,0,1500,1500,1500,1454,1460,1460
1747553869.6503563,0.0,-0.12,0.19,0.003272492347489368,-0.044724062082354694,-0.003272492347489368,2.012911515192907,-0.17949357149806985,0.01702671091179081,-1,0,0,0,0,0,1500,1500,1500,1454,1460,1460
1747553869.7526891,0.08,0.05,0.12,0.001090830782496456,-0.04145156973486533,-0.002181661564992912,2.0124268716950935,-0.17785914188877402,0.011397443411316956,-1,0,0,0,0,0,1500,1500,1500,1454,1460,1460
1747553869.8490283,0.08,0.05,0.12,0.001090830782496456,-0.04145156973486533,-0.002181661564992912,2.0124268716950935,-0.17785914188877402,0.011397443411316956,-1,0,0,0,0,0,1500,1500,1500,1454,1460,1460
1747553869.946672,0.06,0.0,0.15,0.004363323129985824,-0.03381575425739013,-0.00545415391248228,2.011942627571422,-0.17616952397512003,0.0063090610689864384,0,0,0,0,0,0,1500,1500,1500,1494,1500,1500
1747553870.0430965,0.06,0.05,0.13,0.004363323129985824,-0.03490658503988659,-0.009817477042468103,2.0116659828030916,-0.1743840689484934,0.0011405776103379404,0,0,0,0,0,0,1500,1500,1500,1500,1500,1500
1747553870.1442065,0.06,0.05,0.13,0.004363323129985824,-0.03490658503988659,-0.009817477042468103,2.0116659828030916,-0.1743840689484934,0.0011405776103379404,0,0,0,0,0,0,1500,1500,1500,1500,1500,1500
1747553870.2467558,0.09,0.07,0.13,0.002181661564992912,-0.031634092692397225,-0.030543261909900768,2.010962782332725,-0.17057240344034627,-0.0019415154320045402,0,0,0,0,0,0,1500,1500,1500,1500,1500,1500
1747553870.3406737,0.04,-0.02,0.15,0.007635815477475192,-0.0272707695624114,-0.03599741582238305,2.0098840373551017,-0.16458292353115908,-0.003622845545972419,0,0,0,0,0,0,1500,1500,1500,1500,1500,1500
1747553870.4444969,0.04,-0.02,0.15,0.007635815477475192,-0.0272707695624114,-0.03599741582238305,2.0098840373551017,-0.16458292353115908,-0.003622845545972419,0,0,0,0,0,0,1500,1500,1500,1500,1500,1500
1747553870.5464978,0.04,0.0,0.07,0.015271630954950384,-0.026179938779914945,-0.03490658503988659,2.0102800121354227,-0.15834131500529297,-0.005003983407997169,0,0,0,0,0,0,1500,1500,1500,1500,1500,1500
1747553870.6470995,0.04,0.0,0.07,0.015271630954950384,-0.026179938779914945,-0.03490658503988659,2.0102800121354227,-0.15834131500529297,-0.005003983407997169,0,0,0,0,0,0,1500,1500,1500,1500,1500,1500
1747553870.7447584,0.07,0.01,0.17,0.0272707695624114,-0.018544123302439753,-0.032724923474893676,2.013510754896735,-0.15199364182506211,-0.005793976255978947,0,0,0,0,0,0,1500,1500,1500,1500,1500,1500
1747553870.846608,0.03,0.0,0.16,0.031634092692397225,-0.020725784867432664,-0.02945243112740431,2.018309914046462,-0.1460969724306077,-0.0066763050197982815,0,0,0,0,0,0,1500,1500,1500,1500,1500,1500
1747553870.9473498,0.03,0.0,0.16,0.031634092692397225,-0.020725784867432664,-0.02945243112740431,2.018309914046462,-0.1460969724306077,-0.0066763050197982815,0,0,0,0,0,0,1500,1500,1500,1500,1500,1500
1747553871.0476305,0.08,0.0,0.23,0.030543261909900768,-0.01090830782496456,-0.017453292519943295,2.0227374401900815,-0.14241998013857424,-0.006693630019043593,0,0,0,0,0,0,1500,1500,1500,1500,1500,1500
1747553871.143942,0.02,-0.01,0.15,0.037088246604879506,-0.006544984694978736,-0.016362461737446838,2.027912067877647,-0.14009910335854311,-0.0059003118997947605,0,0,0,0,0,0,1500,1500,1500,1500,1500,1500
1747553871.2469134,0.02,-0.01,0.15,0.037088246604879506,-0.006544984694978736,-0.016362461737446838,2.027912067877647,-0.14009910335854311,-0.0059003118997947605,0,0,0,0,0,0,1500,1500,1500,1500,1500,1500
1747553871.345395,0.07,0.03,0.17,0.038179077387375956,-0.009817477042468103,-0.008726646259971648,2.0319731021512024,-0.13916454862118974,-0.005173988686119996,0,0,0,0,0,0,1500,1500,1500,1500,1500,1500
1747553871.4361768,-0.02,-0.03,0.11,0.030543261909900768,-0.004363323129985824,-0.003272492347489368,2.0361473247742228,-0.13927410396414514,-0.004958939669180535,0,0,0,0,0,0,1500,1500,1500,1500,1500,1500
1747553871.5456095,-0.02,-0.03,0.11,0.030543261909900768,-0.004363323129985824,-0.003272492347489368,2.0361473247742228,-0.13927410396414514,-0.004958939669180535,0,0,0,0,0,0,1500,1500,1500,1500,1500,1500
1747553871.65116,0.03,0.01,0.15,0.02945243112740431,-0.002181661564992912,0.0,2.0398833803367897,-0.13945005658653775,-0.00481822528287184,0,0,0,0,0,0,1500,1500,1500,1500,1500,1500
1747553871.7473161,0.03,0.01,0.15,0.02945243112740431,-0.002181661564992912,0.0,2.0398833803367897,-0.13945005658653775,-0.00481822528287184,0,0,0,0,0,0,1500,1500,1500,1500,1500,1500
1747553871.84597,0.0,0.0,0.13,0.02399827721492203,0.008726646259971648,0.006544984694978736,2.0436257431235836,-0.13962751831495554,-0.004678197080140435,0,0,0,0,0,0,1500,1500,1500,1500,1500,1500
1747553871.9460244,-0.02,0.0,0.05,0.020725784867432664,0.003272492347489368,0.00545415391248228,2.046659672978475,-0.13970346398745082,-0.004552625914860387,0,0,0,0,0,0,1500,1500,1500,1500,1500,1500
1747553872.0456038,-0.02,0.0,0.05,0.020725784867432664,0.003272492347489368,0.00545415391248228,2.046659672978475,-0.13970346398745082,-0.004552625914860387,0,0,0,0,0,0,1500,1500,1500,1500,1500,1500
1747553872.1441977,0.02,0.03,0.17,0.015271630954950384,0.008726646259971648,0.008726646259971648,2.0487788871133037,-0.13977978666920537,-0.0043651912454464,0,0,0,0,0,0,1500,1500,1500,1500,1500,1500
1747553872.2427943,-0.01,0.0,0.04,0.002181661564992912,0.0,0.004363323129985824,2.0489886965078146,-0.1399924321242357,-0.004249415945527125,0,0,0,0,0,0,1500,1500,1500,1500,1500,1500
1747553872.3465786,-0.01,0.0,0.04,0.002181661564992912,0.0,0.004363323129985824,2.0489886965078146,-0.1399924321242357,-0.004249415945527125,0,0,0,0,0,0,1500,1500,1500,1500,1500,1500
1747553872.447203,0.03,0.0,0.15,-0.007635815477475192,0.00545415391248228,0.001090830782496456,2.0489886965078146,-0.1399924321242357,-0.004249415945527125,0,0,0,0,0,0,1500,1500,1500,1500,1500,1500
1747553872.5442615,-0.01,-0.03,0.02,-0.014180800172453928,0.002181661564992912,-0.004363323129985824,2.048068064101592,-0.13988668795477624,-0.004251115143363727,0,0,0,0,0,0,1500,1500,1500,1500,1500,1500
1747553872.647388,-0.01,-0.03,0.02,-0.014180800172453928,0.002181661564992912,-0.004363323129985824,2.048068064101592,-0.13988668795477624,-0.004251115143363727,0,0,0.255418,0,0,0,1500,1500,1500,1500,1500,1500
1747553872.7444713,0.01,-0.02,0.06,-0.020725784867432664,0.008726646259971648,-0.003272492347489368,2.0454812901910007,-0.13985101639399203,-0.004238393316498849,0,0,0.224458,0,0,0,1500,1500,1500,1500,1500,1500
1747553872.8501241,0.01,-0.02,0.06,-0.020725784867432664,0.008726646259971648,-0.003272492347489368,2.0454812901910007,-0.13985101639399203,-0.004238393316498849,0,0,0,0,0,0,1500,1500,1500,1500,1500,1500
1747553872.9615622,0.05,0.0,0.1,-0.018544123302439753,0.001090830782496456,-0.004363323129985824,2.042198112216997,-0.13988200798025302,-0.004280471334906674,1,0,0,0,0,0,1461,1538,1500,1540,1540,1540
1747553873.0679672,-0.01,-0.06,0.01,-0.019634954084936207,0.0,0.001090830782496456,2.0391605895482234,-0.1398472017069956,-0.004236826194917621,1,0,0,0,0,0,1461,1538,1500,1562,1549,1549
1747553873.1614926,-0.01,-0.06,0.01,-0.019634954084936207,0.0,0.001090830782496456,2.0391605895482234,-0.1398472017069956,-0.004236826194917621,1,0,0,0,0,0,1461,1538,1500,1562,1549,1549
1747553873.247053,0.06,0.0,0.1,-0.020725784867432664,0.011999138607461015,0.007635815477475192,2.0361409620904527,-0.13998213904067175,-0.004233475535106805,1,0,0,0,0,0,1461,1538,1500,1562,1549,1549
1747553873.350563,0.05,-0.09,-0.07,-0.003272492347489368,0.019634954084936207,-0.05345070834232634,2.0330038933913346,-0.13846679526482727,-0.0017892389807460253,1,0,0,0,0,0,1461,1538,1500,1562,1549,1549
1747553873.4597032,0.05,-0.09,-0.07,-0.003272492347489368,0.019634954084936207,-0.05345070834232634,2.0330038933913346,-0.13846679526482727,-0.0017892389807460253,1,0,0,0,0,0,1461,1538,1500,1562,1549,1549
1747553873.5448177,0.03,0.13,0.1,-0.04145156973486533,0.0272707695624114,-0.11453723216212788,2.0291391885237413,-0.12752260149593317,0.007518087611656053,1,0,0,0,0,0,1461,1538,1500,1562,1549,1549
1747553873.6481903,0.03,0.13,0.1,-0.04145156973486533,0.0272707695624114,-0.11453723216212788,2.0291391885237413,-0.12752260149593317,0.007518087611656053,1,0,0,0,0,0,1461,1538,1500,1562,1549,1549
1747553873.7490792,-0.01,-0.02,0.0,-0.055632369907319255,0.04254240051736178,-0.13962634015954636,2.0198049450297066,-0.11252644501067083,0.020657548120335743,1,0,0,0,0,0,1461,1538,1500,1562,1549,1549
1747553873.8508556,0.08,-0.06,0.0,-0.06326818538479445,0.06654067773228381,-0.1407171709420428,2.008759620740697,-0.09634173689166428,0.03813439660662548,1,0,0,0,0,0,1461,1538,1500,1562,1549,1549
1747553873.9602566,0.08,-0.06,0.0,-0.06326818538479445,0.06654067773228381,-0.1407171709420428,2.008759620740697,-0.09634173689166428,0.03813439660662548,0,0,0,0,0,0,1500,1500,1500,1522,1509,1509
1747553874.0637002,-0.09,-0.08,0.09,-0.08726646259971647,0.08944812416470939,-0.11562806294462433,1.9946665946567377,-0.08358660498312472,0.05793007063063162,0,0,0,0,0,0,1500,1500,1500,1500,1500,1500
1747553874.161932,-0.13,-0.26,-0.04,-0.061086523819801536,0.11235557059713497,-0.04145156973486533,1.9790727647050002,-0.07787114249120484,0.07864271748251059,0,0,0,0,0,0,1500,1500,1500,1500,1500,1500
1747553874.24416,-0.13,-0.26,-0.04,-0.061086523819801536,0.11235557059713497,-0.04145156973486533,1.9790727647050002,-0.07787114249120484,0.07864271748251059,0,0,0,0,0,0,1500,1500,1500,1500,1500,1500
1747553874.3463964,0.05,-0.18,0.07,-0.01090830782496456,0.11999138607461016,0.044724062082354694,1.9735227715926098,-0.08574240414539507,0.09373724991796943,-1,0,0,0,0,0,1538,1461,1500,1460,1460,1460
1747553874.445065,0.01,-0.1,0.02,0.01090830782496456,0.11562806294462433,0.10035643198967395,1.9724968074691838,-0.10395418080654001,0.10573897288836986,-1,0,0,0,0,0,1538,1461,1500,1431,1446,1446
1747553874.5453587,0.01,-0.1,0.02,0.01090830782496456,0.11562806294462433,0.10035643198967395,1.9724968074691838,-0.10395418080654001,0.10573897288836986,-1,0,0,0,0,0,1538,1461,1500,1431,1446,1446
1747553874.6449733,0.09,-0.37,0.12,0.011999138607461015,0.11126473981463851,0.12108221685710661,1.9729871422933858,-0.12628715769509022,0.11450066060110199,-1,0,0,0,0,0,1538,1461,1500,1431,1446,1446
1747553874.7294095,0.09,-0.37,0.12,0.011999138607461015,0.11126473981463851,0.12108221685710661,1.9729871422933858,-0.12628715769509022,0.11450066060110199,-1,0,0,0,0,0,1538,1461,1500,1431,1446,1446
1747553874.8329985,-0.29,-0.12,-0.08,0.038179077387375956,0.07635815477475191,0.22689280275926285,1.974481799311538,-0.15862334467137837,0.11686792654049423,-1,0,0,0,0,0,1538,1461,1500,1431,1446,1446
1747553874.9291596,-0.06,-0.03,0.02,0.03381575425739013,0.05999569303730508,0.2530727415391778,1.9823879071380848,-0.19874900037113621,0.11118198386420998,-1,0,0,0,0,0,1538,1461,1500,1431,1446,1446
1747553875.0304756,-0.06,-0.03,0.02,0.03381575425739013,0.05999569303730508,0.2530727415391778,1.9823879071380848,-0.19874900037113621,0.11118198386420998,-1,0,0,0,0,0,1538,1461,1500,1431,1446,1446
1747553875.1288621,-0.07,-0.06,-0.17,-0.03599741582238305,0.026179938779914945,0.23561944901923448,1.983720555742471,-0.2340574435743514,0.10243406665274339,-1,0,0,0,0,0,1538,1461,1500,1431,1446,1446
1747553875.2163424,0.01,-0.03,-0.04,-0.08290313946973066,0.01090830782496456,0.21380283336930536,1.9773547233973165,-0.26720250926520317,0.09095271894873827,-1,0,0,0,0,0,1538,1461,1500,1431,1446,1446
1747553875.310921,0.01,-0.03,-0.04,-0.08290313946973066,0.01090830782496456,0.21380283336930536,1.9773547233973165,-0.26720250926520317,0.09095271894873827,-1,0,0,0,0,0,1538,1461,1500,1431,1446,1446
1747553875.450172,-0.15,-0.14,-0.03,-0.08290313946973066,0.01090830782496456,0.21380283336930536,1.964792535474114,-0.29585717481543083,0.078253753459018,-1,0,0,0,0,0,1538,1461,1500,1431,1446,1446
1747553875.5558963,-0.05,-0.08,0.05,-0.136353847812057,-0.025089107997418487,0.18216874067690814,1.9498539079165644,-0.3195816984872286,0.06488823951886076,-1,0,0,0,0,0,1538,1461,1500,1431,1446,1446
1747553875.6558037,-0.05,-0.08,0.05,-0.136353847812057,-0.025089107997418487,0.18216874067690814,1.9498539079165644,-0.3195816984872286,0.06488823951886076,-1,0,0,0,0,0,1538,1461,1500,1431,1446,1446
1747553875.7468624,-0.07,-0.07,-0.16,-0.13744467859455345,-0.044724062082354694,0.17562375598192942,1.9336687977569083,-0.3436162963372792,0.04911491885204343,-1,0,0,0,0,0,1538,1461,1500,1431,1446,1446
1747553875.846165,0.0,-0.12,-0.08,-0.12762720155208535,-0.055632369907319255,0.17780541754692233,1.9197348509643648,-0.36539319647340535,0.03247495950119901,-1,0,0,0,0,0,1538,1461,1500,1431,1446,1446
1747553875.9472053,0.0,-0.12,-0.08,-0.12762720155208535,-0.055632369907319255,0.17780541754692233,1.9197348509643648,-0.36539319647340535,0.03247495950119901,-1,0,0,0,0,0,1538,1461,1500,1431,1446,1446
1747553876.0478806,-0.04,-0.16,-0.2,-0.12326387842209953,-0.06763150851478027,0.1712604328519436,1.907565669336614,-0.3877057588376788,0.012834253063515526,-1,0,0,0,0,0,1538,1461,1500,1431,1446,1446
1747553876.1466928,-0.04,-0.16,-0.2,-0.12326387842209953,-0.06763150851478027,0.1712604328519436,1.907565669336614,-0.3877057588376788,0.012834253063515526,-1,0,0,0,0,0,1538,1461,1500,1431,1446,1446
1747553876.24735,0.01,-0.07,-0.09,-0.11562806294462433,-0.07744898555724837,0.16035212502697901,1.8985041485715546,-0.4080596288844717,-0.008739892048845302,-1,0,0,0,0,0,1538,1461,1500,1431,1446,1446
1747553876.3457136,-0.02,-0.12,-0.15,-0.10799224746714914,-0.09053895494720585,0.1461713248545251,1.8918265907768683,-0.4259228681041352,-0.03164433749912556,-1,0,0,0,0,0,1538,1461,1500,1431,1446,1446
1747553876.4454951,-0.02,-0.12,-0.15,-0.10799224746714914,-0.09053895494720585,0.1461713248545251,1.8918265907768683,-0.4259228681041352,-0.03164433749912556,-1,0,0,0,0,0,1538,1461,1500,1431,1446,1446
1747553876.541952,-0.05,-0.12,-0.13,-0.10690141668465268,-0.10471975511965978,0.136353847812057,1.8867053759725907,-0.44049728204038063,-0.05445562543206803,-1,0,0,0,0,0,1538,1461,1500,1431,1446,1446
1747553876.642877,-0.03,-0.09,-0.08,-0.10362892433716332,-0.1189005552921137,0.12544553998709243,1.882514885862712,-0.45379946281871086,-0.0804182967820026,-1,0,0,0,0,0,1538,1461,1500,1431,1446,1446
1747553876.7412941,-0.03,-0.09,-0.08,-0.10362892433716332,-0.1189005552921137,0.12544553998709243,1.882514885862712,-0.45379946281871086,-0.0804182967820026,-1,0,0,0,0,0,1538,1461,1500,1431,1446,1446
1747553876.8227274,-0.03,-0.11,-0.11,-0.10253809355466686,-0.1308996938995747,0.11126473981463851,1.8793820409974331,-0.4644086852807046,-0.10608381055197075,-1,0,0,0,0,0,1538,1461,1500,1431,1446,1446
1747553876.92592,-0.03,-0.11,-0.11,-0.10253809355466686,-0.1308996938995747,0.11126473981463851,1.8793820409974331,-0.4644086852807046,-0.10608381055197075,-1,0,0,0,0,0,1538,1461,1500,1431,1446,1446
1747553877.0230792,-0.06,-0.19,-0.09,-0.10690141668465268,-0.13962634015954636,0.10690141668465268,1.8766944759011002,-0.47445260770286124,-0.1351229207478219,-1,0,0,0,0,0,1538,1461,1500,1431,1446,1446
1747553877.1252682,0.14,-0.11,-0.09,-0.11235557059713497,-0.1538071403320003,0.09817477042468103,1.8747194977923578,-0.48241217761969163,-0.16366423932300464,-1,0,0,0,0,0,1538,1461,1500,1431,1446,1446
1747553877.226898,0.14,-0.11,-0.09,-0.11235557059713497,-0.1538071403320003,0.09817477042468103,1.8747194977923578,-0.48241217761969163,-0.16366423932300464,-1,0,0,0,0,0,1538,1461,1500,1431,1446,1446
1747553877.325959,0.12,-0.05,-0.1,-0.10690141668465268,-0.15817046346198613,0.08399397025222712,1.8731842272101045,-0.4896583503390595,-0.19524370513307066,-1,0,0,0,0,0,1538,1461,1500,1431,1446,1446
1747553877.426184,0.14,-0.03,-0.08,-0.10581058590215622,-0.16144295580947549,0.07853981633974483,1.8723277352254013,-0.49500908529819015,-0.22535816755244711,-1,0,0,0,0,0,1538,1461,1500,1431,1446,1446
1747553877.5114043,0.14,-0.03,-0.08,-0.10581058590215622,-0.16144295580947549,0.07853981633974483,1.8723277352254013,-0.49500908529819015,-0.22535816755244711,-1,0,0,0,0,0,1538,1461,1500,1431,1446,1446
1747553877.6135159,0.1,-0.07,-0.06,-0.10690141668465268,-0.16471544815696484,0.0719948316447661,1.871074168352603,-0.498906263647548,-0.2573251228548122,-1,0,0,0,0,0,1538,1461,1500,1431,1446,1446
1747553877.7118385,0.1,-0.07,-0.06,-0.10690141668465268,-0.16471544815696484,0.0719948316447661,1.871074168352603,-0.498906263647548,-0.2573251228548122,0,-0.003841,0,0,0,0,1500,1500,1500,1471,1486,1486
1747553877.8113573,0.04,-0.14,-0.15,-0.10690141668465268,-0.17235126363444003,0.061086523819801536,1.8697511815880978,-0.5011405943959696,-0.2895784281714209,0,-12.090605,0,0,0,0,1460,1460,1460,1500,1500,1500
1747553877.9112134,0.27,0.18,-0.1,-0.10690141668465268,-0.1734420944169365,0.006544984694978736,1.8685998703000952,-0.5000496450018721,-0.3218614801084677,0,-12.5,0,0,0,-0.001252,1420,1420,1420,1500,1500,1500
1747553877.9941864,0.27,0.18,-0.1,-0.10690141668465268,-0.1734420944169365,0.006544984694978736,1.8685998703000952,-0.5000496450018721,-0.3218614801084677,0,-12.5,0,0,0,-0.003148,1380,1380,1380,1500,1500,1500
1747553878.0909448,0.61,-0.12,-0.16,-0.06544984694978735,-0.19962203319685143,-0.1189005552921137,1.8684979116944698,-0.48590392999004445,-0.3482449427670963,0,-12.5,0,0,0,-0.012403,1345,1349,1372,1500,1500,1500
1747553878.1954055,-0.52,-0.22,-0.04,-0.05781403147231216,-0.32615840396644036,-0.4505131131710363,1.8718636357952103,-0.4368504022850075,-0.3772598181076369,0,-12.5,0,0,0,-0.012403,1345,1349,1372,1500,1500,1500
1747553878.2933445,-0.52,-0.22,-0.04,-0.05781403147231216,-0.32615840396644036,-0.4505131131710363,1.8718636357952103,-0.4368504022850075,-0.3772598181076369,0,-12.5,0,0,0,-0.01399,1345,1349,1372,1500,1500,1500
1747553878.3953674,-0.97,-0.14,0.27,-0.19634954084936207,-0.27379852640661045,-0.4079707126536745,1.8642036028203397,-0.35626002793340206,-0.4066091998734644,0,-12.5,0,0,0,-0.01399,1345,1349,1372,1500,1500,1500
1747553878.4935668,-0.12,0.05,-0.2,-0.18980455615438332,-0.16580627893946132,-0.19634954084936207,1.8409428765969629,-0.2928885162910778,-0.4268525677411241,0,-12.5,0,0,0,-0.01399,1345,1349,1372,1500,1500,1500
1747553878.595268,-0.12,0.05,-0.2,-0.18980455615438332,-0.16580627893946132,-0.19634954084936207,1.8409428765969629,-0.2928885162910778,-0.4268525677411241,0,-12.5,0,0,0,-0.01399,1345,1349,1372,1500,1500,1500
1747553878.6934922,-0.09,-0.4,0.1,-0.2781618495365963,-0.08835729338221293,-0.09272061651219876,1.8122701717131149,-0.26959575247793627,-0.4409752994140623,0,-12.5,0,0,0,-0.01399,1345,1349,1372,1500,1500,1500
1747553878.792337,-0.09,-0.4,0.1,-0.2781618495365963,-0.08835729338221293,-0.09272061651219876,1.8122701717131149,-0.26959575247793627,-0.4409752994140623,0,-12.5,0,0,0,-0.01399,1345,1349,1372,1500,1500,1500
1747553878.889902,0.43,-0.06,-0.19,-0.2552544031041707,-0.00545415391248228,-0.015271630954950384,1.7724410720661838,-0.2611939096427578,-0.4456698445667323,0,-12.5,0,0,0,-0.01399,1345,1349,1372,1500,1500,1500
1747553878.9952555,0.19,-0.43,0.09,-0.210530341021816,0.055632369907319255,0.04908738521234052,1.73738423385879,-0.26773484203992953,-0.44243056013975046,0,-12.5,0,0,0,-0.01399,1345,1349,1372,1500,1500,1500
1747553879.0922298,0.19,-0.43,0.09,-0.210530341021816,0.055632369907319255,0.04908738521234052,1.73738423385879,-0.26773484203992953,-0.44243056013975046,0,-12.5,0,0,0,-0.01399,1345,1349,1372,1500,1500,1500
1747553879.1965086,0.03,-0.01,0.0,-0.20180369476184434,0.10253809355466686,0.07417649320975901,1.7044120468679138,-0.28115815066657224,-0.4312556659678997,0,-12.5,0,0,0,-0.01399,1345,1349,1372,1500,1500,1500
1747553879.2941973,0.28,-0.03,-0.26,-0.18871372537188688,0.1189005552921137,0.09272061651219876,1.6728437373621587,-0.2967176910124856,-0.4155408730749054,0,-12.5,0,0,0,-0.01399,1345,1349,1372,1500,1500,1500
1747553879.3914216,0.28,-0.03,-0.26,-0.18871372537188688,0.1189005552921137,0.09272061651219876,1.6728437373621587,-0.2967176910124856,-0.4155408730749054,0,-12.5,0,0,0,-0.01399,1345,1349,1372,1500,1500,1500
1747553879.4917042,0.34,-0.25,-0.31,-0.17453292519943295,0.11126473981463851,0.11235557059713497,1.6402136323846854,-0.31533358831698793,-0.398156041715156,0,-12.5,0,0,0,-0.01399,1345,1349,1372,1500,1500,1500
1747553879.5955365,-0.16,-0.13,0.19,-0.17235126363444003,0.08835729338221293,0.136353847812057,1.6116160716075647,-0.3348983107137856,-0.383970249489586,0,-12.5,0,0,0,-0.01399,1345,1349,1372,1500,1500,1500
1747553879.6952662,-0.16,-0.13,0.19,-0.17235126363444003,0.08835729338221293,0.136353847812057,1.6116160716075647,-0.3348983107137856,-0.383970249489586,0,-12.5,0,0,0,-0.01399,1345,1349,1372,1500,1500,1500
1747553879.7965686,-0.11,-0.18,0.12,-0.18653206380689397,0.04799655442984406,0.13744467859455345,1.58041365254368,-0.3571780248689149,-0.3735843338017734,0,-12.5,0,0,0,-0.01399,1345,1349,1372,1500,1500,1500
1747553879.8941052,-0.11,-0.18,0.12,-0.18653206380689397,0.04799655442984406,0.13744467859455345,1.58041365254368,-0.3571780248689149,-0.3735843338017734,0,-12.5,0,0,0,-0.01399,1345,1349,1372,1500,1500,1500
1747553879.9963305,0.0,-0.28,-0.14,-0.16689710972195776,0.0272707695624114,0.14289883250703572,1.5521280226170167,-0.3802232015400509,-0.3671980227046815,0,-12.5,0,0,0,-0.01399,1345,1349,1372,1500,1500,1500
1747553880.0935912,0.16,-0.3,-0.05,-0.15162547876700738,0.004363323129985824,0.1538071403320003,1.5285436688106178,-0.4020561878513364,-0.36430986824597367,0,-12.5,0,0,0,-0.015672,1345,1349,1372,1500,1500,1500
1747553880.195454,0.16,-0.3,-0.05,-0.15162547876700738,0.004363323129985824,0.1538071403320003,1.5285436688106178,-0.4020561878513364,-0.36430986824597367,0,-12.5,0,0,0,-0.015672,1345,1349,1372,1500,1500,1500
1747553880.291862,-0.14,-0.06,-0.11,-0.15271630954950383,-0.02399827721492203,0.15707963267948966,1.5057451343374548,-0.426612074037486,-0.3655802762575261,0,-12.5,0,0,0,-0.015672,1345,1349,1372,1500,1500,1500
1747553880.395441,-0.1,-0.29,-0.19,-0.12871803233458182,-0.04363323129985824,0.1636246173744684,1.4857211814344233,-0.4524507675275607,-0.3693682533381654,0,-12.5,0,0,0,-0.015672,1345,1349,1372,1500,1500,1500
1747553880.4930632,-0.1,-0.29,-0.19,-0.12871803233458182,-0.04363323129985824,0.1636246173744684,1.4857211814344233,-0.4524507675275607,-0.3693682533381654,0,-12.5,0,0,0,-0.015672,1345,1349,1372,1500,1500,1500
1747553880.593041,0.01,-0.39,-0.04,-0.1439896632895322,-0.06654067773228381,0.17780541754692233,1.470036069103464,-0.4785357014247198,-0.3758752224115208,0,-12.5,0,0,0,-0.015672,1345,1349,1372,1500,1500,1500
1747553880.6845481,-0.03,-0.53,-0.04,-0.1407171709420428,-0.08508480103472356,0.1734420944169365,1.4541729505018506,-0.5079921933216968,-0.38652037949745943,0,-12.5,0,0,0,-0.015672,1345,1349,1372,1500,1500,1500
1747553880.7939444,-0.03,-0.53,-0.04,-0.1407171709420428,-0.08508480103472356,0.1734420944169365,1.4541729505018506,-0.5079921933216968,-0.38652037949745943,0,-12.5,0,0,0,-0.015672,1345,1349,1372,1500,1500,1500
1747553880.8946652,0.06,-0.24,-0.22,-0.12980886311707826,-0.11344640137963143,0.1908953869368798,1.442523297201201,-0.5366755383874855,-0.3998820651772583,0,0,0,0,0,0,1385,1389,1412,1500,1500,1500
1747553880.980821,0.06,-0.24,-0.22,-0.12980886311707826,-0.11344640137963143,0.1908953869368798,1.442523297201201,-0.5366755383874855,-0.3998820651772583,0,0,0,0,0,0,1425,1429,1452,1500,1500,1500
1747553881.0760624,0.08,-0.26,-0.3,-0.11780972450961724,-0.1461713248545251,0.2083486794568231,1.4345914681838499,-0.569248163262996,-0.41814760637995807,1,0,0,0,0,0,1461,1469,1492,1540,1540,1540
1747553881.1756296,0.53,-0.21,-0.2,-0.039269908169872414,-0.1559888018969932,0.21380283336930536,1.4345914681838499,-0.569248163262996,-0.41814760637995807,1,0,0,0,0,0,1461,1509,1500,1562,1549,1549
1747553881.2606323,0.53,-0.21,-0.2,-0.039269908169872414,-0.1559888018969932,0.21380283336930536,1.4345914681838499,-0.569248163262996,-0.41814760637995807,1,0,0,0,0,0,1461,1538,1500,1562,1549,1549
1747553881.3612664,-0.24,0.01,-0.03,0.06544984694978735,-0.20398535632683726,0.20943951023931956,1.45894096141676,-0.6533882492484782,-0.4725550193354054,1,0,0,0,0,0,1461,1538,1500,1562,1549,1549
1747553881.461338,-0.24,0.01,-0.03,0.06544984694978735,-0.20398535632683726,0.20943951023931956,1.45894096141676,-0.6533882492484782,-0.4725550193354054,1,0,0,0,0,0,1461,1538,1500,1562,1549,1549
1747553881.5655444,0.19,-0.15,-0.17,0.1341721862470641,-0.24107360293171676,0.13526301702956053,1.501604893091787,-0.6821969039543226,-0.5146493942205309,1,0,0,0,0,0,1461,1538,1500,1562,1549,1549
1747553881.6615796,0.05,0.04,-0.06,0.136353847812057,-0.24434609527920614,0.05999569303730508,1.5534806801622882,-0.6995860819723361,-0.5629405272850165,1,0,0,0,0,0,1461,1538,1500,1562,1549,1549
1747553881.7598026,0.05,0.04,-0.06,0.136353847812057,-0.24434609527920614,0.05999569303730508,1.5534806801622882,-0.6995860819723361,-0.5629405272850165,1,0,0,0,0,0,1461,1538,1500,1562,1549,1549
1747553881.8596354,0.0,-0.03,-0.18,0.14835298641951802,-0.2378011105842274,-0.007635815477475192,1.6039055299019964,-0.7030163103540372,-0.6086863445631199,1,0,0,0,0,0,1461,1538,1500,1562,1549,1549
1747553881.960484,0.08,0.04,-0.05,0.13744467859455345,-0.2203478180642841,-0.06326818538479445,1.655394222047562,-0.6958365053445973,-0.65392324772195,1,0,0,0,0,0,1461,1538,1500,1562,1549,1549
1747553882.0612562,0.08,0.04,-0.05,0.13744467859455345,-0.2203478180642841,-0.06326818538479445,1.655394222047562,-0.6958365053445973,-0.65392324772195,1,0,0,0,0,0,1461,1538,1500,1562,1549,1549
1747553882.160397,0.01,0.0,-0.11,0.12544553998709243,-0.18435040224190105,-0.11235557059713497,1.7006452897178341,-0.6787282224222827,-0.6925352940159332,1,0,0,0,0,0,1461,1538,1500,1562,1549,1549
1747553882.2616143,0.01,0.0,-0.11,0.12544553998709243,-0.18435040224190105,-0.11235557059713497,1.7006452897178341,-0.6787282224222827,-0.6925352940159332,1,0,0,0,0,0,1461,1538,1500,1562,1549,1549
1747553882.3620782,0.01,-0.03,-0.02,0.11453723216212788,-0.17016960206944712,-0.16144295580947549,1.7363001107578269,-0.6548813141248132,-0.7216750854422757,1,0,0,0,0,0,1461,1538,1500,1562,1549,1549
1747553882.463081,-0.02,0.0,0.0,0.0916297857297023,-0.1461713248545251,-0.2007128639793479,1.7672702906279059,-0.622189185989765,-0.745453921502261,1,0,0,0,0,0,1461,1538,1500,1562,1549,1549
1747553882.561868,-0.02,0.0,0.0,0.0916297857297023,-0.1461713248545251,-0.2007128639793479,1.7672702906279059,-0.622189185989765,-0.745453921502261,1,0,0,0,0,0,1461,1538,1500,1562,1549,1549
1747553882.6627383,0.06,0.01,-0.03,0.06435901616729091,-0.11780972450961724,-0.2301652951067522,1.7885650401813071,-0.5848849050020256,-0.7617713675666989,1,0,0,0,0,0,1461,1538,1500,1562,1549,1549
1747553882.7633815,0.06,-0.01,-0.09,0.050178215994836975,-0.10144726277217041,-0.272707695624114,1.8028382691968388,-0.5425262904926728,-0.7712276850280485,1,0,0,0,0,0,1461,1538,1500,1562,1549,1549
1747553882.859688,0.06,-0.01,-0.09,0.050178215994836975,-0.10144726277217041,-0.272707695624114,1.8028382691968388,-0.5425262904926728,-0.7712276850280485,1,0,0,0,0,0,1461,1538,1500,1562,1549,1549
1747553882.9604235,0.01,0.0,-0.1,0.03490658503988659,-0.07963064712224129,-0.29670597283903605,1.810505282433251,-0.4989394141646573,-0.7748710575571887,1,0,0,0,0,0,1461,1538,1500,1562,1549,1549
1747553883.0618358,-0.06,0.0,0.03,0.026179938779914945,-0.05345070834232634,-0.3108867730114899,1.8143890320740261,-0.4505740873267103,-0.7733009327082965,1,0,0,0,0,0,1461,1538,1500,1562,1549,1549
1747553883.160198,-0.06,0.0,0.03,0.026179938779914945,-0.05345070834232634,-0.3108867730114899,1.8143890320740261,-0.4505740873267103,-0.7733009327082965,1,0,0,0,0,0,1461,1538,1500,1562,1549,1549
1747553883.2646983,0.03,0.01,-0.11,0.022907446432425576,-0.03490658503988659,-0.32288591161895097,1.81576063341878,-0.40418399525908316,-0.7677887828168,1,0,0,0,0,0,1461,1538,1500,1562,1549,1549
1747553883.360672,0.04,-0.01,-0.08,0.018544123302439753,-0.006544984694978736,-0.32615840396644036,1.8157176031803883,-0.35453404368646524,-0.7578463505451422,1,0,0,0,0,0,1461,1538,1500,1562,1549,1549
1747553883.4604645,0.04,-0.01,-0.08,0.018544123302439753,-0.006544984694978736,-0.32615840396644036,1.8157176031803883,-0.35453404368646524,-0.7578463505451422,1,0,0,0,0,0,1461,1538,1500,1562,1549,1549
1747553883.5610838,0.03,-0.01,-0.05,0.015271630954950384,0.020725784867432664,-0.3196134192714616,1.8138626810897993,-0.30913553619415773,-0.7444362110706768,1,0,0,0,0,0,1461,1538,1500,1562,1549,1549
1747553883.66199,0.03,-0.01,-0.05,0.015271630954950384,0.020725784867432664,-0.3196134192714616,1.8138626810897993,-0.30913553619415773,-0.7444362110706768,1,0,0,0,0,0,1461,1538,1500,1562,1549,1549
1747553883.7631483,0.03,0.0,-0.01,0.013089969389957472,0.044724062082354694,-0.32506757318394386,1.8115138313221577,-0.26236749124234326,-0.726696638087499,1,0,0,0,0,0,1461,1538,1500,1562,1549,1549
1747553883.8631868,0.1,0.0,-0.1,0.014180800172453928,0.055632369907319255,-0.33161255787892263,1.8094587824762187,-0.21528962715922828,-0.7066203097202309,1,0,0,0,0,0,1461,1538,1500,1562,1549,1549
1747553883.965581,0.1,0.0,-0.1,0.014180800172453928,0.055632369907319255,-0.33161255787892263,1.8094587824762187,-0.21528962715922828,-0.7066203097202309,1,0,0,0,0,0,1461,1538,1500,1562,1549,1549
1747553884.061941,0.06,0.0,-0.08,0.006544984694978736,0.0719948316447661,-0.32834006553143325,1.8064165870367248,-0.16848961118980915,-0.6836621104826404,1,0,0,0,0,0,1461,1538,1500,1562,1549,1549
1747553884.1603062,0.06,0.0,-0.04,0.009817477042468103,0.09708393964218458,-0.3272492347489368,1.8031328536566138,-0.12527805849474538,-0.6593539425571315,1,0,0,0,0,0,1461,1538,1500,1562,1549,1549
1747553884.2621882,0.06,0.0,-0.04,0.009817477042468103,0.09708393964218458,-0.3272492347489368,1.8031328536566138,-0.12527805849474538,-0.6593539425571315,1,0,0,0,0,0,1461,1538,1500,1562,1549,1549
1747553884.3633506,0.08,0.02,-0.09,0.015271630954950384,0.11671889372712078,-0.32288591161895097,1.8010850976296184,-0.0800741496771606,-0.6308171243407291,1,0,0,0,0,0,1461,1538,1500,1562,1549,1549
1747553884.459666,-0.02,-0.04,-0.01,0.011999138607461015,0.136353847812057,-0.31634092692397225,1.8005223162513118,-0.03900903288098877,-0.6022424073882298,1,0,0,0,0,0,1461,1538,1500,1562,1549,1549
1747553884.5740926,-0.02,-0.04,-0.01,0.011999138607461015,0.136353847812057,-0.31634092692397225,1.8005223162513118,-0.03900903288098877,-0.6022424073882298,1,0,0,0,0,0,1461,1538,1500,1562,1549,1549
1747553884.703073,0.0,0.06,-0.02,0.009817477042468103,0.14835298641951802,-0.3043417883165112,1.8013854955788273,0.002457263558394789,-0.5697796426456551,1,0,0,0,0,0,1461,1538,1500,1562,1549,1549
1747553884.7913153,0.09,-0.02,-0.04,0.009817477042468103,0.16035212502697901,-0.30652344988150415,1.8037361603679103,0.040706841471415525,-0.538213837178693,1,0,0,0,0,0,1461,1538,1500,1562,1549,1549
1747553884.889619,0.09,-0.02,-0.04,0.009817477042468103,0.16035212502697901,-0.30652344988150415,1.8037361603679103,0.040706841471415525,-0.538213837178693,1,0,0,0,0,0,1461,1538,1500,1562,1549,1549
1747553884.992747,-0.03,-0.1,-0.09,0.001090830782496456,0.16580627893946132,-0.2977968036215325,1.806107954276823,0.08033714381635741,-0.5027829348594336,1,0,0,0,0,0,1461,1538,1500,1562,1549,1549
1747553885.0910947,-0.1,-0.1,-0.03,-0.007635815477475192,0.17562375598192942,-0.2814343418840856,1.8098192988250543,0.11778350720317003,-0.46646389213617706,1,0,0,0,0,0,1461,1538,1500,1562,1549,1549
1747553885.190531,-0.1,-0.1,-0.03,-0.007635815477475192,0.17562375598192942,-0.2814343418840856,1.8098192988250543,0.11778350720317003,-0.46646389213617706,1,0,0,0,0,0,1461,1538,1500,1562,1549,1549
1747553885.2757623,0.04,-0.05,-0.12,-0.02181661564992912,0.17998707911191522,-0.27379852640661045,1.8122366037004756,0.15317028073061095,-0.4292370452505217,1,0,0,0,0,0,1461,1538,1500,1562,1549,1549
1747553885.3785264,0.04,-0.05,-0.12,-0.02181661564992912,0.17998707911191522,-0.27379852640661045,1.8122366037004756,0.15317028073061095,-0.4292370452505217,1,0,0,0,0,0,1461,1538,1500,1562,1549,1549
1747553885.4787085,0.04,-0.09,0.0,-0.032724923474893676,0.1810779098944117,-0.2552544031041707,1.8138420459099154,0.18444380053403572,-0.39380844343919685,1,0,0,0,0,0,1461,1538,1500,1562,1549,1549
1747553885.578795,-0.05,-0.08,-0.08,-0.04254240051736178,0.19525871006686563,-0.22580197197676638,1.815937477203591,0.21368713729255492,-0.3552880098595608,1,0,0,0,0,0,1461,1538,1500,1562,1549,1549
1747553885.6847353,-0.05,-0.08,-0.08,-0.04254240051736178,0.19525871006686563,-0.22580197197676638,1.815937477203591,0.21368713729255492,-0.3552880098595608,0,0,0,0,0,0,1500,1500,1500,1522,1509,1509
1747553885.7803059,0.13,0.0,-0.01,-0.02945243112740431,0.19198621771937624,-0.22252947962927702,1.819282531357178,0.2385821404342089,-0.31881697447223345,-1,0,0,0,0,0,1538,1461,1500,1482,1469,1469
1747553885.8788362,-0.19,-0.28,-0.12,-0.002181661564992912,0.18653206380689397,-0.16798794050445423,1.8248008245361405,0.2622818063413582,-0.28062984076784236,-1,0,0,0,0,0,1538,1461,1500,1442,1446,1446
1747553885.9789457,-0.19,-0.28,-0.12,-0.002181661564992912,0.18653206380689397,-0.16798794050445423,1.8248008245361405,0.2622818063413582,-0.28062984076784236,-1,0,0,0,0,0,1538,1461,1500,1431,1446,1446
1747553886.0799453,-0.11,-0.1,-0.07,0.02945243112740431,0.16471544815696484,-0.11017390903214205,1.834556922765852,0.2746565361839889,-0.24975357544197122,-1,0,0,0,0,0,1538,1461,1500,1431,1446,1446
1747553886.1742074,-0.36,-0.28,0.08,-0.031634092692397225,0.1341721862470641,-0.025089107997418487,1.8441940560792778,0.2815048203779926,-0.22263112657183468,-1,0,0,0,0,0,1538,1461,1500,1431,1446,1446
1747553886.2591105,-0.36,-0.28,0.08,-0.031634092692397225,0.1341721862470641,-0.025089107997418487,1.8441940560792778,0.2815048203779926,-0.22263112657183468,-1,0,0,0,0,0,1538,1461,1500,1431,1446,1446
1747553886.3584905,-0.34,-0.22,0.06,-0.030543261909900768,0.12544553998709243,0.08072147790473774,1.8436073878029933,0.2742748078668532,-0.20461094482444916,-1,0,0,0,0,0,1538,1461,1500,1431,1446,1446
1747553886.4599972,-0.34,-0.22,0.06,-0.030543261909900768,0.12544553998709243,0.08072147790473774,1.8436073878029933,0.2742748078668532,-0.20461094482444916,-1,0,0,0,0,0,1538,1461,1500,1431,1446,1446
1747553886.541528,0.0,-0.11,-0.02,-0.017453292519943295,0.11235557059713497,0.1810779098944117,1.84390903496585,0.2511422671413446,-0.19181544390721825,-1,0,0,0,0,0,1538,1461,1500,1431,1446,1446
1747553886.639699,-0.2,-0.17,-0.16,-0.011999138607461015,0.09817477042468103,0.23452861823673804,1.8445695895486152,0.21866150296724537,-0.18472126206550885,-1,0,0,0,0,0,1538,1461,1500,1431,1446,1446
1747553886.7330115,-0.2,-0.17,-0.16,-0.011999138607461015,0.09817477042468103,0.23452861823673804,1.8445695895486152,0.21866150296724537,-0.18472126206550885,-1,0,0,0,0,0,1538,1461,1500,1431,1446,1446
1747553886.8305285,-0.11,-0.12,0.0,-0.018544123302439753,0.08399397025222712,0.26616271092913524,1.8440984296768508,0.17863888385248256,-0.18102922175059802,-1,0,0,0,0,0,1538,1461,1500,1431,1446,1446
1747553886.9370599,-0.11,-0.12,0.0,-0.018544123302439753,0.08399397025222712,0.26616271092913524,1.8440984296768508,0.17863888385248256,-0.18102922175059802,-1,0,0,0,0,0,1538,1461,1500,1431,1446,1446
1747553887.0293198,-0.05,-0.05,-0.09,-0.006544984694978736,0.07308566242726255,0.2879793265790644,1.8431219373321686,0.1380212014847471,-0.18093362827426804,-1,0,0,0,0,0,1538,1461,1500,1431,1446,1446
1747553887.128978,-0.05,-0.09,-0.01,0.007635815477475192,0.055632369907319255,0.29888763440402893,1.8442033460262113,0.09300579685261105,-0.1838485841860281,-1,0,0,0,0,0,1538,1461,1500,1431,1446,1446
1747553887.2293575,-0.05,-0.09,-0.01,0.007635815477475192,0.055632369907319255,0.29888763440402893,1.8442033460262113,0.09300579685261105,-0.1838485841860281,-1,0,0,0,0,0,1538,1461,1500,1431,1446,1446
1747553887.33171,-0.05,-0.06,-0.16,0.03381575425739013,0.031634092692397225,0.30870511144649704,1.8486123607188234,0.047011941634747666,-0.19042328409834772,-1,0,0,0,0,0,1538,1461,1500,1431,1446,1446
1747553887.4247017,-0.01,0.0,-0.15,0.05781403147231216,0.013089969389957472,0.3119776037939864,1.8563184243003936,0.0033867721929633833,-0.19971951306642452,-1,0,0,0,0,0,1538,1461,1500,1431,1446,1446
1747553887.531229,-0.01,0.0,-0.15,0.05781403147231216,0.013089969389957472,0.3119776037939864,1.8563184243003936,0.0033867721929633833,-0.19971951306642452,-1,0,0,0,0,0,1538,1461,1500,1431,1446,1446
1747553887.629131,0.0,-0.07,-0.09,0.07526732399225546,-0.008726646259971648,0.3108867730114899,1.868379333445518,-0.041784329547377666,-0.2135322445135944,-1,0,0,0,0,0,1538,1461,1500,1431,1446,1446
1747553887.7317805,0.0,-0.07,-0.09,0.07526732399225546,-0.008726646259971648,0.3108867730114899,1.868379333445518,-0.041784329547377666,-0.2135322445135944,-1,0,0,0,0,0,1538,1461,1500,1431,1446,1446
1747553887.8292484,-0.09,-0.03,-0.06,0.08290313946973066,-0.030543261909900768,0.3043417883165112,1.882612527328111,-0.08573402125191867,-0.23062259767071214,-1,0,0,0,0,0,1538,1461,1500,1431,1446,1446
1747553887.927562,-0.17,-0.08,-0.1,0.08944812416470939,-0.0545415391248228,0.2923426497090502,1.8986874095015132,-0.12399522782479162,-0.2506096255217985,-1,0,0,0,0,0,1538,1461,1500,1431,1446,1446
1747553888.0096817,-0.17,-0.08,-0.1,0.08944812416470939,-0.0545415391248228,0.2923426497090502,1.8986874095015132,-0.12399522782479162,-0.2506096255217985,-1,0,0,0,0,0,1538,1461,1500,1431,1446,1446
1747553888.109043,-0.05,0.0,-0.1,0.09381144729469522,-0.0818123086872342,0.2825251726665821,1.9180588085748596,-0.1614244467135545,-0.27639316687802307,-1,0,0,0,0,0,1538,1461,1500,1431,1446,1446
1747553888.2031336,-0.1,-0.03,-0.13,0.09053895494720585,-0.10799224746714914,0.2617993877991494,1.937672184434022,-0.19221251308163617,-0.30411720151630633,-1,0,0,0,0,0,1538,1461,1500,1431,1446,1446
1747553888.2970695,-0.1,-0.03,-0.13,0.09053895494720585,-0.10799224746714914,0.2617993877991494,1.937672184434022,-0.19221251308163617,-0.30411720151630633,-1,0,0,0,0,0,1538,1461,1500,1431,1446,1446
1747553888.3957453,-0.12,-0.05,-0.2,0.08399397025222712,-0.13853550937704992,0.24107360293171676,1.9591849007544029,-0.22027863171658685,-0.33761566548956157,-1,0,0,0,0,0,1538,1461,1500,1431,1446,1446
1747553888.4910412,-0.12,-0.05,-0.2,0.08399397025222712,-0.13853550937704992,0.24107360293171676,1.9591849007544029,-0.22027863171658685,-0.33761566548956157,-1,0,0,0,0,0,1538,1461,1500,1431,1446,1446
1747553888.5793102,-0.06,0.02,-0.15,0.07526732399225546,-0.16471544815696484,0.2203478180642841,1.9814363952913119,-0.24313557270983485,-0.3747938506196768,-1,0,0,0,0,0,1538,1461,1500,1431,1446,1446
1747553888.6752412,-0.08,0.02,-0.21,0.050178215994836975,-0.18544123302439752,0.20289452554434081,2.001037407732644,-0.2597996024734934,-0.4123589451652689,-1,0,0,0,0,0,1538,1461,1500,1431,1446,1446
1747553888.7780871,-0.08,0.02,-0.21,0.050178215994836975,-0.18544123302439752,0.20289452554434081,2.001037407732644,-0.2597996024734934,-0.4123589451652689,-1,0,0,0,0,0,1538,1461,1500,1431,1446,1446
1747553888.8780963,-0.05,0.0,-0.1,0.025089107997418487,-0.2007128639793479,0.18544123302439752,2.017743371245012,-0.2742810384780991,-0.4537056848577958,-1,0,0,0,0,0,1538,1461,1500,1431,1446,1446
1747553888.9778395,-0.05,0.0,-0.1,0.025089107997418487,-0.2007128639793479,0.18544123302439752,2.017743371245012,-0.2742810384780991,-0.4537056848577958,-1,0,0,0,0,0,1538,1461,1500,1431,1446,1446
1747553889.0789378,0.0,0.03,-0.09,-0.011999138607461015,-0.21380283336930536,0.16580627893946132,2.0304226623952966,-0.2846169396417976,-0.4962422860515181,-1,0,0,0,0,0,1538,1461,1500,1431,1446,1446
1747553889.1794295,0.02,0.06,0.0,-0.04145156973486533,-0.22362031041177347,0.14835298641951802,2.038009399789688,-0.2910897537783053,-0.536025107006075,-1,0,0,0,0,0,1538,1461,1500,1431,1446,1446
1747553889.2791533,0.02,0.06,0.0,-0.04145156973486533,-0.22362031041177347,0.14835298641951802,2.038009399789688,-0.2910897537783053,-0.536025107006075,-1,0,0,0,0,0,1538,1461,1500,1431,1446,1446
1747553889.375027,-0.17,-0.05,-0.09,-0.06654067773228381,-0.22907446432425577,0.13308135546456762,2.0422589629624914,-0.29497814111903586,-0.578942327437511,-1,0,0,0,0,0,1538,1461,1500,1431,1446,1446
1747553889.4796438,0.05,0.03,-0.15,-0.0916297857297023,-0.23234695667174513,0.11453723216212788,2.0423197966816766,-0.2958607265978175,-0.6187824083389499,-1,0,0,0,0,0,1538,1461,1500,1431,1446,1446
1747553889.5774589,0.05,0.03,-0.15,-0.0916297857297023,-0.23234695667174513,0.11453723216212788,2.0423197966816766,-0.2958607265978175,-0.6187824083389499,-1,0,0,0,0,0,1538,1461,1500,1431,1446,1446
1747553889.677591,-0.08,-0.02,-0.09,-0.11671889372712078,-0.23671027980173096,0.09599310885968812,2.038185947886332,-0.29397706024301545,-0.6605713213798312,-1,0,0,0,0,0,1538,1461,1500,1431,1446,1446
1747553889.7704895,-0.06,-0.1,-0.13,-0.14726215563702155,-0.23561944901923448,0.08399397025222712,2.0294949036306695,-0.2900874651013458,-0.7009758653875885,-1,0,0,0,0,0,1538,1461,1500,1431,1446,1446
1747553889.8589354,-0.06,-0.1,-0.13,-0.14726215563702155,-0.23561944901923448,0.08399397025222712,2.0294949036306695,-0.2900874651013458,-0.7009758653875885,-1,0,0,0,0,0,1538,1461,1500,1431,1446,1446
1747553889.9606864,-0.04,-0.06,-0.1,-0.15271630954950383,-0.22907446432425577,0.07417649320975901,2.017877074110345,-0.28497339896092466,-0.7405217981990359,-1,0,0,0,0,0,1538,1461,1500,1431,1446,1446
1747553890.0579185,-0.04,-0.06,-0.1,-0.15271630954950383,-0.22907446432425577,0.07417649320975901,2.017877074110345,-0.28497339896092466,-0.7405217981990359,-1,0,0,0,0,0,1538,1461,1500,1431,1446,1446
1747553890.1579704,0.01,0.01,-0.11,-0.17235126363444003,-0.23343778745424157,0.06217735460229799,2.0041910166819408,-0.2797170819860968,-0.7768744647511308,-1,0,0,0,0,0,1538,1461,1500,1431,1446,1446
1747553890.2608523,-0.1,-0.11,-0.13,-0.1908953869368798,-0.22689280275926285,0.055632369907319255,1.986157734932542,-0.27349811026306575,-0.8147470776121163,-1,0,0,0,0,0,1538,1461,1500,1431,1446,1446
