time,ay,ax,az,gy,gx,gz,roll,pitch,yaw,cmd_fx,cmd_fy,cmd_fz,cmd_tx,cmd_ty,cmd_tz,pwm_1,pwm_2,pwm_3,pwm_4,pwm_5,pwm_6
1747547395.1447742,0.0,0.0,0.0,0.0,0.0,0.0,0.0,0.0,0.0,0,0,0,0,0,0,1500,1500,1500,1500,1500,1500
1747547395.2284439,-0.36,0.02,0.02,-0.002181661564992912,-0.002181661564992912,0.002181661564992912,-2.754298984704311,-1.4753504576231977,2.716535331665451,0,0,0,0,0,0,1500,1500,1500,1500,1500,1500
1747547395.329149,-0.36,0.02,0.02,-0.002181661564992912,-0.002181661564992912,0.002181661564992912,-2.754298984704311,-1.4753504576231977,2.716535331665451,0,0,0,0,0,0,1500,1500,1500,1500,1500,1500
1747547395.4286249,-0.35000000000000003,0.03,0.04,0.0,-0.00545415391248228,0.0,-2.754298984704311,-1.4753504576231977,2.716535331665451,0,0,0,0,0,0,1500,1500,1500,1500,1500,1500
1747547395.5115142,-0.35000000000000003,0.03,0.04,0.0,-0.00545415391248228,0.0,-2.754298984704311,-1.4753504576231977,2.716535331665451,0,0,0,0,0,0,1500,1500,1500,1500,1500,1500
1747547395.6114385,-0.36,0.02,0.03,-0.003272492347489368,-0.006544984694978736,0.001090830782496456,-2.754298984704311,-1.4753504576231977,2.716535331665451,0,0,0,0,0,0,1500,1500,1500,1500,1500,1500
1747547395.6946359,-0.36,0.0,0.01,-0.002181661564992912,-0.001090830782496456,-0.001090830782496456,-2.754298984704311,-1.4753504576231977,2.716535331665451,0,0,0,0,0,0,1500,1500,1500,1500,1500,1500
1747547395.7958462,-0.36,0.0,0.01,-0.002181661564992912,-0.001090830782496456,-0.001090830782496456,-2.754298984704311,-1.4753504576231977,2.716535331665451,0,0,0,0,0,0,1500,1500,1500,1500,1500,1500
1747547395.8961718,-0.34,0.02,0.05,0.002181661564992912,0.0,-0.002181661564992912,-2.754298984704311,-1.4753504576231977,2.716535331665451,0,0,0,0,0,0,1500,1500,1500,1500,1500,1500
1747547395.9789672,-0.34,0.02,0.05,0.002181661564992912,0.0,-0.002181661564992912,-2.754298984704311,-1.4753504576231977,2.716535331665451,0,0,0,0,0,0,1500,1500,1500,1500,1500,1500
1747547396.079231,-0.34,0.0,0.02,0.0,-0.002181661564992912,-0.001090830782496456,-2.754298984704311,-1.4753504576231977,2.716535331665451,0,0,0,0,0,0,1500,1500,1500,1500,1500,1500
1747547396.1789825,-0.37,0.01,0.04,-0.001090830782496456,0.001090830782496456,0.0,-2.754298984704311,-1.4753504576231977,2.716535331665451,0,0,0,0,0,0,1500,1500,1500,1500,1500,1500
1747547396.2791553,-0.37,0.01,0.04,-0.001090830782496456,0.001090830782496456,0.0,-2.754298984704311,-1.4753504576231977,2.716535331665451,0,0,0,0,0,0,1500,1500,1500,1500,1500,1500
1747547396.3785772,-0.38,0.03,0.01,-0.001090830782496456,0.003272492347489368,0.001090830782496456,-2.754298984704311,-1.4753504576231977,2.716535331665451,0,0,0,0,0,0,1500,1500,1500,1500,1500,1500
1747547396.4620643,-0.38,0.03,0.01,-0.001090830782496456,0.003272492347489368,0.001090830782496456,-2.754298984704311,-1.4753504576231977,2.716535331665451,0,0,0,0,0,0,1500,1500,1500,1500,1500,1500
1747547396.5620797,-0.35000000000000003,0.02,0.01,-0.001090830782496456,0.004363323129985824,0.002181661564992912,-2.754298984704311,-1.4753504576231977,2.716535331665451,0,0,0,0,0,0,1500,1500,1500,1500,1500,1500
1747547396.6620457,-0.35000000000000003,0.02,0.03,0.0,0.0,0.0,-2.754298984704311,-1.4753504576231977,2.716535331665451,0,0,0,0,0,0,1500,1500,1500,1500,1500,1500
1747547396.745337,-0.35000000000000003,0.02,0.03,0.0,0.0,0.0,-2.754298984704311,-1.4753504576231977,2.716535331665451,0,0,0,0,0,0,1500,1500,1500,1500,1500,1500
1747547396.8458781,-0.31,0.03,0.02,-0.001090830782496456,0.0,0.0,-2.754298984704311,-1.4753504576231977,2.716535331665451,0,0,0,0,0,0,1500,1500,1500,1500,1500,1500
1747547396.94757,-0.37,0.02,0.05,-0.00545415391248228,-0.002181661564992912,-0.001090830782496456,-2.754298984704311,-1.4753504576231977,2.716535331665451,0,0,0,0,0,0,1500,1500,1500,1500,1500,1500
1747547397.0453756,-0.37,0.02,0.05,-0.00545415391248228,-0.002181661564992912,-0.001090830782496456,-2.754298984704311,-1.4753504576231977,2.716535331665451,0,-12.5,0,0,0,0,1460,1460,1460,1500,1500,1500
1747547397.1455047,-0.35000000000000003,0.03,0.0,-0.001090830782496456,0.0,-0.001090830782496456,-2.754298984704311,-1.4753504576231977,2.716535331665451,0,-12.5,0,0,0,0,1420,1420,1425,1500,1500,1500
1747547397.230368,-0.35000000000000003,0.03,0.0,-0.001090830782496456,0.0,-0.001090830782496456,-2.754298984704311,-1.4753504576231977,2.716535331665451,0,-12.5,0,0,0,0,1413,1415,1425,1500,1500,1500
1747547397.330949,-0.37,0.02,0.07,-0.002181661564992912,-0.001090830782496456,0.0,-2.754298984704311,-1.4753504576231977,2.716535331665451,0,-12.5,0,0,0,0,1413,1415,1425,1500,1500,1500
1747547397.4156013,-0.44,-0.03,0.05,-0.003272492347489368,-0.00545415391248228,0.001090830782496456,-2.754298984704311,-1.4753504576231977,2.716535331665451,0,-12.5,0,0,0,0,1413,1415,1425,1500,1500,1500
1747547397.5116832,-0.44,-0.03,0.05,-0.003272492347489368,-0.00545415391248228,0.001090830782496456,-2.754298984704311,-1.4753504576231977,2.716535331665451,0,-12.5,0,0,0,0,1413,1415,1425,1500,1500,1500
1747547397.612949,-0.3,0.0,0.0,0.0,-0.001090830782496456,-0.001090830782496456,-2.754298984704311,-1.4753504576231977,2.716535331665451,0,-12.5,0,0,0,0,1413,1415,1425,1500,1500,1500
1747547397.694768,-0.3,0.0,0.0,0.0,-0.001090830782496456,-0.001090830782496456,-2.754298984704311,-1.4753504576231977,2.716535331665451,0,-12.5,0,0,0,0,1413,1415,1425,1500,1500,1500
1747547397.7953084,-0.42,0.0,0.05,-0.001090830782496456,-0.003272492347489368,0.001090830782496456,-2.754298984704311,-1.4753504576231977,2.716535331665451,0,-12.5,0,0,0,0,1413,1415,1425,1500,1500,1500
1747547397.8948257,-0.42,0.0,0.05,-0.001090830782496456,-0.003272492347489368,0.001090830782496456,-2.754298984704311,-1.4753504576231977,2.716535331665451,0,-12.5,0,0,0,0,1413,1415,1425,1500,1500,1500
1747547397.978836,-0.33,0.06,0.06,-0.002181661564992912,-0.002181661564992912,-0.001090830782496456,-2.754298984704311,-1.4753504576231977,2.716535331665451,0,-12.5,0,0,0,0,1413,1415,1425,1500,1500,1500
1747547398.0794344,-0.42,0.02,0.11,0.004363323129985824,0.002181661564992912,0.001090830782496456,-2.754298984704311,-1.4753504576231977,2.716535331665451,0,-9.777377,0,0,0,0,1422,1423,1433,1500,1500,1500
1747547398.179221,-0.42,0.02,0.11,0.004363323129985824,0.002181661564992912,0.001090830782496456,-2.754298984704311,-1.4753504576231977,2.716535331665451,0,0,0,0,0,0,1462,1463,1473,1500,1500,1500
1747547398.280882,-0.36,0.08,0.03,0.003272492347489368,0.002181661564992912,-0.002181661564992912,-2.754298984704311,-1.4753504576231977,2.716535331665451,0,0,0,0,0,0,1500,1500,1500,1500,1500,1500
1747547398.3782346,-0.4,0.01,0.04,0.0,-0.006544984694978736,-0.003272492347489368,-2.754298984704311,-1.4753504576231977,2.716535331665451,0,0,0,0,0,0,1500,1500,1500,1500,1500,1500
1747547398.462414,-0.4,0.01,0.04,0.0,-0.006544984694978736,-0.003272492347489368,-2.754298984704311,-1.4753504576231977,2.716535331665451,0,0,0,0,0,0,1500,1500,1500,1500,1500,1500
1747547398.5618346,-0.3,0.01,-0.06,0.003272492347489368,0.001090830782496456,0.001090830782496456,-2.754298984704311,-1.4753504576231977,2.716535331665451,0,0,0,0,0,0,1500,1500,1500,1500,1500,1500
1747547398.6622975,-0.3,0.01,-0.06,0.003272492347489368,0.001090830782496456,0.001090830782496456,-2.754298984704311,-1.4753504576231977,2.716535331665451,0,0,0,0,0,0,1500,1500,1500,1500,1500,1500
1747547398.7455506,-0.36,0.04,0.0,0.0,0.001090830782496456,0.002181661564992912,-2.754298984704311,-1.4753504576231977,2.716535331665451,0,0,0,0,0,0,1500,1500,1500,1500,1500,1500
1747547398.83978,-0.36,0.02,0.04,-0.001090830782496456,-0.001090830782496456,0.001090830782496456,-2.754298984704311,-1.4753504576231977,2.716535331665451,0,0,0,0,0,0,1500,1500,1500,1500,1500,1500
1747547398.944801,-0.36,0.02,0.04,-0.001090830782496456,-0.001090830782496456,0.001090830782496456,-2.754298984704311,-1.4753504576231977,2.716535331665451,0,0,0,0,0,0,1500,1500,1500,1500,1500,1500
1747547399.044835,-0.32,0.03,0.0,0.0,0.0,0.001090830782496456,-2.754298984704311,-1.4753504576231977,2.716535331665451,0,0,0,0,0,0,1500,1500,1500,1500,1500,1500
1747547399.1457028,-0.32,0.03,0.0,0.0,0.0,0.001090830782496456,-2.754298984704311,-1.4753504576231977,2.716535331665451,0,0,0,0,0,0,1500,1500,1500,1500,1500,1500
1747547399.228106,-0.36,0.01,0.01,0.001090830782496456,-0.001090830782496456,0.0,-2.754298984704311,-1.4753504576231977,2.716535331665451,0,0,0,0,0,0,1500,1500,1500,1500,1500,1500
1747547399.3291912,-0.35000000000000003,0.03,0.03,0.001090830782496456,0.002181661564992912,0.0,-2.754298984704311,-1.4753504576231977,2.716535331665451,0,0,0,0,0,0,1500,1500,1500,1500,1500,1500
1747547399.428673,-0.35000000000000003,0.03,0.03,0.001090830782496456,0.002181661564992912,0.0,-2.754298984704311,-1.4753504576231977,2.716535331665451,0,0,0,0,0,0,1500,1500,1500,1500,1500,1500
1747547399.5111291,-0.34,0.02,0.05,0.001090830782496456,0.0,-0.001090830782496456,-2.754298984704311,-1.4753504576231977,2.716535331665451,0,0,0,0,0,0,1500,1500,1500,1500,1500,1500
1747547399.6117494,-0.34,0.02,0.05,0.001090830782496456,0.0,-0.001090830782496456,-2.754298984704311,-1.4753504576231977,2.716535331665451,0,0,0,0,0,0,1500,1500,1500,1500,1500,1500
1747547399.7120059,-0.38,0.01,0.05,0.001090830782496456,0.001090830782496456,0.0,-2.754298984704311,-1.4753504576231977,2.716535331665451,0,0,0,0,0,0,1500,1500,1500,1500,1500,1500
1747547399.8111854,-0.33,0.01,0.01,0.001090830782496456,-0.001090830782496456,0.0,-2.754298984704311,-1.4753504576231977,2.716535331665451,0,0,0,0,0,0,1500,1500,1500,1500,1500,1500
1747547399.9115274,-0.33,0.01,0.01,0.001090830782496456,-0.001090830782496456,0.0,-2.754298984704311,-1.4753504576231977,2.716535331665451,0,0,0,0,0,0,1500,1500,1500,1500,1500,1500
1747547399.9954634,-0.37,0.0,0.04,-0.002181661564992912,0.002181661564992912,0.001090830782496456,-2.754298984704311,-1.4753504576231977,2.716535331665451,0,0,0,0,0,0,1500,1500,1500,1500,1500,1500
1747547400.0948513,-0.37,0.0,0.04,-0.002181661564992912,0.002181661564992912,0.001090830782496456,-2.754298984704311,-1.4753504576231977,2.716535331665451,0,0,0,0,0,0,1500,1500,1500,1500,1500,1500
1747547400.1975222,-0.36,0.03,0.03,-0.001090830782496456,0.004363323129985824,0.0,-2.754298984704311,-1.4753504576231977,2.716535331665451,0,0,0,0,0,0,1500,1500,1500,1500,1500,1500
1747547400.294666,-0.39,0.02,0.05,-0.003272492347489368,0.00545415391248228,0.004363323129985824,-2.754298984704311,-1.4753504576231977,2.716535331665451,0,0,0,0,0,0,1500,1500,1500,1500,1500,1500
1747547400.3950813,-0.39,0.02,0.05,-0.003272492347489368,0.00545415391248228,0.004363323129985824,-2.754298984704311,-1.4753504576231977,2.716535331665451,0,0,0,0,0,0,1500,1500,1500,1500,1500,1500
1747547400.4789116,-0.36,0.04,0.0,0.002181661564992912,0.0,0.001090830782496456,-2.754298984704311,-1.4753504576231977,2.716535331665451,0,0,0,0,0,0,1500,1500,1500,1500,1500,1500
1747547400.5788438,-0.33,0.01,0.0,-0.001090830782496456,0.002181661564992912,0.0,-2.754298984704311,-1.4753504576231977,2.716535331665451,0,0,0,0,0,0,1500,1500,1500,1500,1500,1500
1747547400.6783762,-0.33,0.01,0.0,-0.001090830782496456,0.002181661564992912,0.0,-2.754298984704311,-1.4753504576231977,2.716535331665451,0,0,0,0,0,0,1500,1500,1500,1500,1500,1500
1747547400.7782676,-0.35000000000000003,0.01,0.0,-0.002181661564992912,0.004363323129985824,-0.001090830782496456,-2.754298984704311,-1.4753504576231977,2.716535331665451,0,0,0,0,0,0,1500,1500,1500,1500,1500,1500
1747547400.8781438,-0.35000000000000003,0.01,0.0,-0.002181661564992912,0.004363323129985824,-0.001090830782496456,-2.754298984704311,-1.4753504576231977,2.716535331665451,0,-11.688026,0,0,0,0,1460,1460,1460,1500,1500,1500
1747547400.9613369,-0.36,0.01,0.05,-0.001090830782496456,0.002181661564992912,-0.002181661564992912,-2.754298984704311,-1.4753504576231977,2.716535331665451,0,-12.5,0,0,0,0,1420,1420,1420,1500,1500,1500
1747547401.061697,-0.37,0.02,0.03,0.001090830782496456,-0.003272492347489368,0.0,-2.754298984704311,-1.4753504576231977,2.716535331665451,0,-12.5,0,0,0,0,1380,1380,1395,1500,1500,1500
1747547401.161721,-0.37,0.02,0.03,0.001090830782496456,-0.003272492347489368,0.0,-2.754298984704311,-1.4753504576231977,2.716535331665451,0,-12.5,0,0,0,0,1375,1377,1395,1500,1500,1500
1747547401.244907,-0.39,-0.05,0.0,0.0,0.0,0.001090830782496456,-2.754298984704311,-1.4753504576231977,2.716535331665451,0,-12.5,0,0,0,0,1375,1377,1395,1500,1500,1500
1747547401.3444774,-0.39,-0.05,0.0,0.0,0.0,0.001090830782496456,-2.754298984704311,-1.4753504576231977,2.716535331665451,0,-12.5,0,0,0,0,1375,1377,1395,1500,1500,1500
1747547401.4447618,-0.39,-0.04,0.03,0.002181661564992912,-0.004363323129985824,0.0,-2.754298984704311,-1.4753504576231977,2.716535331665451,0,-12.5,0,0,0,0,1375,1377,1395,1500,1500,1500
1747547401.545297,-0.45,0.02,0.0,0.001090830782496456,-0.003272492347489368,0.0,-2.754298984704311,-1.4753504576231977,2.716535331665451,0,-12.5,0,0,0,0,1375,1377,1395,1500,1500,1500
1747547401.6448708,-0.45,0.02,0.0,0.001090830782496456,-0.003272492347489368,0.0,-2.754298984704311,-1.4753504576231977,2.716535331665451,0,-12.5,0,0,0,0,1375,1377,1395,1500,1500,1500
1747547401.7282286,-0.28,-0.03,-0.05,-0.001090830782496456,-0.002181661564992912,0.003272492347489368,-2.754298984704311,-1.4753504576231977,2.716535331665451,0,-12.5,0,0,0,0,1375,1377,1395,1500,1500,1500
1747547401.8282516,-0.28,-0.03,-0.05,-0.001090830782496456,-0.002181661564992912,0.003272492347489368,-2.754298984704311,-1.4753504576231977,2.716535331665451,0,-12.5,0,0,0,0,1375,1377,1395,1500,1500,1500
1747547401.9287515,-0.46,-0.05,0.07,0.0,0.002181661564992912,-0.001090830782496456,-2.754298984704311,-1.4753504576231977,2.716535331665451,0,-12.5,0,0,0,0,1375,1377,1395,1500,1500,1500
1747547402.0120435,-0.45,0.07,0.16,0.002181661564992912,0.0,-0.002181661564992912,-2.754298984704311,-1.4753504576231977,2.716535331665451,0,-12.5,0,0,0,0,1375,1377,1395,1500,1500,1500
1747547402.1113505,-0.45,0.07,0.16,0.002181661564992912,0.0,-0.002181661564992912,-2.754298984704311,-1.4753504576231977,2.716535331665451,0,-12.5,0,0,0,0,1375,1377,1395,1500,1500,1500
1747547402.2116117,-0.46,0.03,0.1,0.001090830782496456,0.004363323129985824,0.0,-2.754298984704311,-1.4753504576231977,2.716535331665451,0,-0.581443,0,0,0,0,1415,1417,1435,1500,1500,1500
1747547402.3106618,-0.28,0.19,0.04,0.001090830782496456,0.003272492347489368,0.001090830782496456,-2.754298984704311,-1.4753504576231977,2.716535331665451,0,0,0,0,0,0,1455,1457,1475,1500,1500,1500
1747547402.4117193,-0.28,0.19,0.04,0.001090830782496456,0.003272492347489368,0.001090830782496456,-2.754298984704311,-1.4753504576231977,2.716535331665451,0,0,0,0,0,0,1495,1497,1500,1500,1500,1500
1747547402.494548,-0.35000000000000003,0.12,0.08,0.002181661564992912,0.001090830782496456,-0.001090830782496456,-2.754298984704311,-1.4753504576231977,2.716535331665451,0,0,0,0,0,0,1500,1500,1500,1500,1500,1500
1747547402.5993176,-0.35000000000000003,0.12,0.08,0.002181661564992912,0.001090830782496456,-0.001090830782496456,-2.754298984704311,-1.4753504576231977,2.716535331665451,0,0,0,0,0,0,1500,1500,1500,1500,1500,1500
1747547402.6825757,-0.32,0.06,0.0,0.002181661564992912,-0.003272492347489368,0.002181661564992912,-2.754298984704311,-1.4753504576231977,2.716535331665451,0,0,0,0,0,0,1500,1500,1500,1500,1500,1500
1747547402.7852807,-0.32,0.06,0.0,0.002181661564992912,-0.003272492347489368,0.002181661564992912,-2.754298984704311,-1.4753504576231977,2.716535331665451,0,0,0,0,0,0,1500,1500,1500,1500,1500,1500
1747547402.8835,-0.38,0.0,0.01,-0.001090830782496456,-0.001090830782496456,-0.002181661564992912,-2.754298984704311,-1.4753504576231977,2.716535331665451,0,0,0,0,0,0,1500,1500,1500,1500,1500,1500
1747547402.981564,-0.34,0.05,0.01,0.001090830782496456,0.001090830782496456,0.001090830782496456,-2.754298984704311,-1.4753504576231977,2.716535331665451,0,0,0,0,0,0,1500,1500,1500,1500,1500,1500
1747547403.082976,-0.34,0.05,0.01,0.001090830782496456,0.001090830782496456,0.001090830782496456,-2.754298984704311,-1.4753504576231977,2.716535331665451,0,0,0,0,0,0,1500,1500,1500,1500,1500,1500
1747547403.1803064,-0.33,0.0,0.04,-0.00545415391248228,0.001090830782496456,-0.001090830782496456,-2.754298984704311,-1.4753504576231977,2.716535331665451,0,0,0,0,0,0,1500,1500,1500,1500,1500,1500
1747547403.27968,-0.36,0.05,0.02,0.003272492347489368,-0.001090830782496456,0.0,-2.754298984704311,-1.4753504576231977,2.716535331665451,0,0,0,0,0,0,1500,1500,1500,1500,1500,1500
1747547403.3805304,-0.36,0.05,0.02,0.003272492347489368,-0.001090830782496456,0.0,-2.754298984704311,-1.4753504576231977,2.716535331665451,0,0,0,0,0,0,1500,1500,1500,1500,1500,1500
1747547403.4645035,-0.36,0.01,0.06,0.001090830782496456,0.0,-0.002181661564992912,-2.754298984704311,-1.4753504576231977,2.716535331665451,0,0,0,0,0,0,1500,1500,1500,1500,1500,1500
1747547403.5638971,-0.36,0.01,0.06,0.001090830782496456,0.0,-0.002181661564992912,-2.754298984704311,-1.4753504576231977,2.716535331665451,0,0,0,0,0,0,1500,1500,1500,1500,1500,1500
1747547403.6627293,-0.37,0.01,-0.01,0.0,-0.001090830782496456,-0.001090830782496456,-2.754298984704311,-1.4753504576231977,2.716535331665451,0,0,0,0,0,0,1500,1500,1500,1500,1500,1500
1747547403.7463403,-0.35000000000000003,0.0,0.02,-0.002181661564992912,-0.002181661564992912,-0.002181661564992912,-2.754298984704311,-1.4753504576231977,2.716535331665451,0,0,0,0,0,0,1500,1500,1500,1500,1500,1500
1747547403.8468454,-0.35000000000000003,0.0,0.02,-0.002181661564992912,-0.002181661564992912,-0.002181661564992912,-2.754298984704311,-1.4753504576231977,2.716535331665451,0,0,0,0,0,0,1500,1500,1500,1500,1500,1500
1747547403.9463449,-0.35000000000000003,0.0,0.04,0.003272492347489368,0.002181661564992912,0.002181661564992912,-2.754298984704311,-1.4753504576231977,2.716535331665451,0,0,0,0,0,0,1500,1500,1500,1500,1500,1500
1747547404.0455635,-0.35000000000000003,0.0,0.04,0.003272492347489368,0.002181661564992912,0.002181661564992912,-2.754298984704311,-1.4753504576231977,2.716535331665451,0,0,0,0,0,0,1500,1500,1500,1500,1500,1500
1747547404.1456327,-0.36,0.03,0.02,0.002181661564992912,-0.002181661564992912,-0.002181661564992912,-2.754298984704311,-1.4753504576231977,2.716535331665451,0,-1.584443,0,0,0,0,1460,1460,1460,1500,1500,1500
1747547404.2280462,-0.36,0.01,0.02,0.001090830782496456,0.002181661564992912,0.002181661564992912,-2.754298984704311,-1.4753504576231977,2.716535331665451,0,-12.5,0,0,0,0,1420,1420,1420,1500,1500,1500
1747547404.3284428,-0.36,0.01,0.02,0.001090830782496456,0.002181661564992912,0.002181661564992912,-2.754298984704311,-1.4753504576231977,2.716535331665451,0,-12.5,0,0,0,0,1380,1380,1395,1500,1500,1500
1747547404.4285052,-0.46,-0.13,0.01,0.0,0.003272492347489368,0.002181661564992912,-2.754298984704311,-1.4753504576231977,2.716535331665451,0,-12.5,0,0,0,0,1375,1377,1395,1500,1500,1500
1747547404.5113804,-0.46,-0.13,0.01,0.0,0.003272492347489368,0.002181661564992912,-2.754298984704311,-1.4753504576231977,2.716535331665451,0,-12.5,0,0,0,0,1375,1377,1395,1500,1500,1500
1747547404.6114671,-0.73,0.17,0.15,0.002181661564992912,-0.003272492347489368,-0.006544984694978736,-2.754298984704311,-1.4753504576231977,2.716535331665451,0,-12.5,0,0,0,0,1375,1377,1395,1500,1500,1500
1747547404.7121885,-0.23,-0.04,-0.05,0.002181661564992912,-0.001090830782496456,0.0,-2.754298984704311,-1.4753504576231977,2.716535331665451,0,-12.5,0,0,0,0,1375,1377,1395,1500,1500,1500
1747547404.81209,-0.23,-0.04,-0.05,0.002181661564992912,-0.001090830782496456,0.0,-2.754298984704311,-1.4753504576231977,2.716535331665451,0,-12.5,0,0,0,0,1375,1377,1395,1500,1500,1500
1747547404.9117734,-0.31,0.06,0.1,-0.001090830782496456,0.0,-0.001090830782496456,-2.754298984704311,-1.4753504576231977,2.716535331665451,0,-12.5,0,0,0,0,1375,1377,1395,1500,1500,1500
1747547404.9947312,-0.31,0.06,0.1,-0.001090830782496456,0.0,-0.001090830782496456,-2.754298984704311,-1.4753504576231977,2.716535331665451,0,-12.5,0,0,0,0,1375,1377,1395,1500,1500,1500
1747547405.0953918,-0.27,0.0,0.09,0.0,0.0,-0.003272492347489368,-2.755042137345467,-1.4752709821166499,2.7172812341056103,0,-12.5,0,0,0,0,1375,1377,1395,1500,1500,1500
1747547405.1968088,-0.41000000000000003,0.1,0.08,-0.001090830782496456,0.008726646259971648,0.0,-2.755042137345467,-1.4752709821166499,2.7172812341056103,0,-7.074784,0,0,0,0,1407,1409,1421,1500,1500,1500
1747547405.2961192,-0.41000000000000003,0.1,0.08,-0.001090830782496456,0.008726646259971648,0.0,-2.755042137345467,-1.4752709821166499,2.7172812341056103,0,0,0,0,0,0,1447,1449,1461,1500,1500,1500
1747547405.3942916,-0.19,0.01,0.01,0.004363323129985824,0.006544984694978736,-0.00545415391248228,-2.755042137345467,-1.4752709821166499,2.7172812341056103,0,0,0,0,0,0,1487,1489,1500,1500,1500,1500
1747547405.4791179,-0.31,-0.05,0.02,-0.001090830782496456,0.004363323129985824,-0.001090830782496456,-2.755073706241837,-1.4743320362901557,2.7172812341056103,0,0,0,0,0,0,1500,1500,1500,1500,1500,1500
1747547405.578431,-0.31,-0.05,0.02,-0.001090830782496456,0.004363323129985824,-0.001090830782496456,-2.755073706241837,-1.4743320362901557,2.7172812341056103,0,0,0,0,0,0,1500,1500,1500,1500,1500,1500
1747547405.6781964,-0.25,-0.01,-0.12,0.001090830782496456,-0.002181661564992912,0.001090830782496456,-2.755073706241837,-1.4743320362901557,2.7172812341056103,0,-2.056024,0,0,0,0,1460,1460,1460,1500,1500,1500
1747547405.7785513,-0.25,-0.01,-0.12,0.001090830782496456,-0.002181661564992912,0.001090830782496456,-2.755073706241837,-1.4743320362901557,2.7172812341056103,0,-12.5,0,0,0,0,1420,1420,1420,1500,1500,1500
1747547405.8777804,-0.31,0.04,0.04,-0.001090830782496456,0.0,0.001090830782496456,-2.755073706241837,-1.4743320362901557,2.7172812341056103,0,-12.5,0,0,0,0,1380,1380,1395,1500,1500,1500
1747547405.9619443,-0.53,-0.03,0.12,-0.001090830782496456,-0.003272492347489368,-0.002181661564992912,-2.755073706241837,-1.4743320362901557,2.7172812341056103,0,-12.5,0,0,0,0,1375,1377,1395,1500,1500,1500
1747547406.0607872,-0.53,-0.03,0.12,-0.001090830782496456,-0.003272492347489368,-0.002181661564992912,-2.755073706241837,-1.4743320362901557,2.7172812341056103,0,-12.5,0,0,0,0,1375,1377,1395,1500,1500,1500
1747547406.1609454,-0.53,0.07,0.19,-0.006544984694978736,-0.00545415391248228,0.002181661564992912,-2.755073706241837,-1.4743320362901557,2.7172812341056103,0,-12.5,0,0,0,0,1375,1377,1395,1500,1500,1500
1747547406.244425,-0.53,0.07,0.19,-0.006544984694978736,-0.00545415391248228,0.002181661564992912,-2.755073706241837,-1.4743320362901557,2.7172812341056103,0,-12.5,0,0,0,0,1375,1377,1395,1500,1500,1500
1747547406.3446693,-0.5,0.05,0.15,-0.001090830782496456,-0.004363323129985824,0.004363323129985824,-2.755073706241837,-1.4743320362901557,2.7172812341056103,0,-12.5,0,0,0,0,1375,1377,1395,1500,1500,1500
1747547406.4443955,-0.25,-0.02,-0.06,0.0,-0.001090830782496456,-0.001090830782496456,-2.755073706241837,-1.4743320362901557,2.7172812341056103,0,-12.5,0,0,0,0,1375,1377,1395,1500,1500,1500
1747547406.544779,-0.25,-0.02,-0.06,0.0,-0.001090830782496456,-0.001090830782496456,-2.755073706241837,-1.4743320362901557,2.7172812341056103,0,-12.5,0,0,0,0,1375,1377,1395,1500,1500,1500
1747547406.6451626,-0.52,0.03,0.12,0.0,0.003272492347489368,-0.002181661564992912,-2.755073706241837,-1.4743320362901557,2.7172812341056103,0,-8.20349,0,0,0,0,1401,1403,1416,1500,1500,1500
1747547406.7278998,-0.52,0.03,0.12,0.0,0.003272492347489368,-0.002181661564992912,-2.755073706241837,-1.4743320362901557,2.7172812341056103,0,0,0,0,0,0,1441,1443,1456,1500,1500,1500
1747547406.8279448,-0.37,0.11,0.1,0.003272492347489368,0.006544984694978736,-0.002181661564992912,-2.755073706241837,-1.4743320362901557,2.7172812341056103,0,0,0,0,0,0,1481,1483,1496,1500,1500,1500
1747547406.9282973,-0.37,0.04,0.12,0.002181661564992912,0.001090830782496456,-0.002181661564992912,-2.755073706241837,-1.4743320362901557,2.7172812341056103,0,0,0,0,0,0,1500,1500,1500,1500,1500,1500
1747547407.0105753,-0.37,0.04,0.12,0.002181661564992912,0.001090830782496456,-0.002181661564992912,-2.755073706241837,-1.4743320362901557,2.7172812341056103,0,0,0,0,0,0,1500,1500,1500,1500,1500,1500
1747547407.1125994,-0.42,-0.02,0.07,0.0,0.0,0.001090830782496456,-2.755073706241837,-1.4743320362901557,2.7172812341056103,0,0.934952,0,0,0,0,1500,1500,1500,1500,1500,1500
1747547407.2064822,-0.36,0.06,0.02,0.003272492347489368,0.0,-0.001090830782496456,-2.755073706241837,-1.4743320362901557,2.7172812341056103,0,12.5,0,0,0,0,1540,1540,1540,1500,1500,1500
1747547407.2946165,-0.36,0.06,0.02,0.003272492347489368,0.0,-0.001090830782496456,-2.755073706241837,-1.4743320362901557,2.7172812341056103,0,12.5,0,0,0,0,1580,1580,1580,1500,1500,1500
1747547407.3948464,-0.36,0.0,0.02,0.0,0.0,0.0,-2.755073706241837,-1.4743320362901557,2.7172812341056103,0,12.5,0,0,0,0,1610,1607,1593,1500,1500,1500
1747547407.4787188,-0.36,0.0,0.02,0.0,0.0,0.0,-2.755073706241837,-1.4743320362901557,2.7172812341056103,0,12.5,0,0,0,0,1610,1607,1593,1500,1500,1500
1747547407.578667,-0.32,-0.2,0.14,0.003272492347489368,0.001090830782496456,-0.002181661564992912,-2.752657388951166,-1.4742980827057441,2.714780883853798,0,12.5,0,0,0,0,1610,1607,1593,1500,1500,1500
1747547407.6786413,-0.32,-0.2,0.14,0.003272492347489368,0.001090830782496456,-0.002181661564992912,-2.752657388951166,-1.4742980827057441,2.714780883853798,0,12.5,0,0,0,0,1610,1607,1593,1500,1500,1500
1747547407.76131,-0.51,-0.05,0.16,0.001090830782496456,0.0,0.003272492347489368,-2.7525005390689268,-1.4751229131319719,2.7147447278363743,0,12.5,0,0,0,0,1610,1607,1593,1500,1500,1500
1747547407.8611906,-0.36,0.06,0.07,0.002181661564992912,0.00545415391248228,0.0,-2.751786950126047,-1.4742641410268589,2.7139969208347234,0,12.5,0,0,0,0,1610,1607,1593,1500,1500,1500
1747547407.9610178,-0.36,0.06,0.07,0.002181661564992912,0.00545415391248228,0.0,-2.751786950126047,-1.4742641410268589,2.7139969208347234,0,12.5,0,0,0,0,1610,1607,1593,1500,1500,1500
1747547408.061424,-0.31,0.0,-0.06,-0.001090830782496456,-0.001090830782496456,0.001090830782496456,-2.7525005390689268,-1.4751229131319719,2.7147447278363743,0,12.5,0,0,0,0,1610,1607,1593,1500,1500,1500
1747547408.1529458,-0.3,0.03,0.04,0.001090830782496456,0.0,0.001090830782496456,-2.7525005390689268,-1.4751229131319719,2.7147447278363743,0,12.5,0,0,0,0,1610,1607,1593,1500,1500,1500
1747547408.244506,-0.3,0.03,0.04,0.001090830782496456,0.0,0.001090830782496456,-2.7525005390689268,-1.4751229131319719,2.7147447278363743,0,12.5,0,0,0,0,1610,1607,1593,1500,1500,1500
1747547408.345143,-0.41000000000000003,0.05,0.16,0.0,-0.001090830782496456,-0.002181661564992912,-2.7525005390689268,-1.4751229131319719,2.7147447278363743,0,0.070969,0,0,0,0,1570,1567,1553,1500,1500,1500
1747547408.4449534,-0.41000000000000003,0.05,0.16,0.0,-0.001090830782496456,-0.002181661564992912,-2.7525005390689268,-1.4751229131319719,2.7147447278363743,0,0,0,0,0,0,1530,1527,1513,1500,1500,1500
1747547408.5450642,-0.21,-0.15,0.03,0.002181661564992912,-0.001090830782496456,-0.006544984694978736,-2.7525005390689268,-1.4751229131319719,2.7147447278363743,0,0,0,0,0,0,1500,1500,1500,1500,1500,1500
1747547408.6444075,-0.23,0.13,-0.01,0.0,-0.004363323129985824,0.002181661564992912,-2.7525005390689268,-1.4751229131319719,2.7147447278363743,0,0,0,0,0,0,1500,1500,1500,1500,1500,1500
1747547408.727975,-0.23,0.13,-0.01,0.0,-0.004363323129985824,0.002181661564992912,-2.7525005390689268,-1.4751229131319719,2.7147447278363743,0,-0.249818,0,0,0,0,1500,1500,1500,1500,1500,1500
1747547408.8283064,-0.37,0.03,0.05,0.0,-0.002181661564992912,0.0,-2.7525005390689268,-1.4751229131319719,2.7147447278363743,0,-12.5,0,0,0,0,1460,1460,1460,1500,1500,1500
1747547408.9281466,-0.37,0.03,0.05,0.0,-0.002181661564992912,0.0,-2.7525005390689268,-1.4751229131319719,2.7147447278363743,0,-12.5,0,0,0,-0.001789,1420,1420,1420,1500,1500,1500
1747547409.0107157,-0.37,0.04,0.0,-0.001090830782496456,0.001090830782496456,0.0,-2.7525005390689268,-1.4751229131319719,2.7147447278363743,0,-12.5,0,0,0,-0.001789,1380,1380,1395,1500,1500,1500
1747547409.111692,-0.6,-0.22,0.14,0.001090830782496456,0.0,0.0,-2.750863171142686,-1.475088445941773,2.713108535079559,0,-12.5,0,0,0,-0.001789,1375,1377,1395,1500,1500,1500
1747547409.2104633,-0.6,-0.22,0.14,0.001090830782496456,0.0,0.0,-2.750863171142686,-1.475088445941773,2.713108535079559,0,-12.5,0,0,0,-0.001789,1375,1377,1395,1500,1500,1500
1747547409.3115847,-0.46,0.0,0.13,0.0,0.002181661564992912,0.0,-2.750863171142686,-1.475088445941773,2.713108535079559,0,-12.5,0,0,0,-0.001789,1375,1377,1395,1500,1500,1500
1747547409.411608,-0.46,0.0,0.13,0.0,0.002181661564992912,0.0,-2.750863171142686,-1.475088445941773,2.713108535079559,0,-12.5,0,0,0,-0.001789,1375,1377,1395,1500,1500,1500
1747547409.4939568,-0.52,0.05,0.13,-0.002181661564992912,-0.001090830782496456,0.0,-2.750863171142686,-1.475088445941773,2.713108535079559,0,-12.5,0,0,0,-0.001789,1375,1377,1395,1500,1500,1500
1747547409.5942314,-0.24,0.04,0.03,-0.002181661564992912,-0.001090830782496456,0.001090830782496456,-2.7508947768710676,-1.4741511908702316,2.7131087470674284,0,-12.5,0,0,0,-0.001789,1375,1377,1395,1500,1500,1500
1747547409.6950128,-0.24,0.04,0.03,-0.002181661564992912,-0.001090830782496456,0.001090830782496456,-2.7508947768710676,-1.4741511908702316,2.7131087470674284,0,-12.5,0,0,0,-0.001789,1375,1377,1395,1500,1500,1500
1747547409.7947855,-0.36,0.08,0.01,-0.004363323129985824,-0.004363323129985824,0.001090830782496456,-2.7508947768710676,-1.4741511908702316,2.7131087470674284,0,-12.5,0,0,0,-0.001789,1375,1377,1395,1500,1500,1500
1747547409.88448,-0.17,-0.03,-0.15,-0.002181661564992912,-0.001090830782496456,0.002181661564992912,-2.751608140070104,-1.4750088755603343,2.713856232351628,0,-12.5,0,0,0,-0.001789,1375,1377,1395,1500,1500,1500
1747547409.9777052,-0.17,-0.03,-0.15,-0.002181661564992912,-0.001090830782496456,0.002181661564992912,-2.751608140070104,-1.4750088755603343,2.713856232351628,0,0,0,0,0,0,1415,1417,1435,1500,1500,1500
1747547410.07777,-0.45,0.08,0.02,-0.001090830782496456,-0.00545415391248228,0.003272492347489368,-2.751608140070104,-1.4750088755603343,2.713856232351628,0,0,0,0,0,0,1455,1457,1475,1500,1500,1500
1747547410.1778784,-0.45,0.08,0.02,-0.001090830782496456,-0.00545415391248228,0.003272492347489368,-2.751608140070104,-1.4750088755603343,2.713856232351628,0,0,0,0,0,0,1495,1497,1500,1500,1500,1500
1747547410.2623801,-0.43,-0.1,0.0,-0.007635815477475192,-0.004363323129985824,0.006544984694978736,-2.751608140070104,-1.4750088755603343,2.713856232351628,0,0,0,0,0,0,1500,1500,1500,1500,1500,1500
1747547410.359739,-0.47000000000000003,0.02,0.09,0.002181661564992912,-0.001090830782496456,0.001090830782496456,-2.751608140070104,-1.4750088755603343,2.713856232351628,0,0,0,0,0,0,1500,1500,1500,1500,1500,1500
1747547410.46157,-0.47000000000000003,0.02,0.09,0.002181661564992912,-0.001090830782496456,0.001090830782496456,-2.751608140070104,-1.4750088755603343,2.713856232351628,0,0,0,0,0,0,1500,1500,1500,1500,1500,1500
1747547410.5616472,-0.37,0.0,0.05,-0.002181661564992912,0.004363323129985824,0.0,-2.751608140070104,-1.4750088755603343,2.713856232351628,0,0,0,0,0,0,1500,1500,1500,1500,1500,1500
1747547410.6608434,-0.37,0.0,0.05,-0.002181661564992912,0.004363323129985824,0.0,-2.751608140070104,-1.4750088755603343,2.713856232351628,0,0,0,0,0,0,1500,1500,1500,1500,1500,1500
1747547410.7446928,-0.34,0.0,0.03,-0.001090830782496456,0.002181661564992912,0.002181661564992912,-2.751608140070104,-1.4750088755603343,2.713856232351628,0,0,0,0,0,0,1500,1500,1500,1500,1500,1500
1747547410.8403993,-0.38,0.04,0.06,0.0,-0.004363323129985824,0.001090830782496456,-2.751608140070104,-1.4750088755603343,2.713856232351628,0,0,0,0,0,0,1500,1500,1500,1500,1500,1500
1747547410.9456255,-0.38,0.04,0.06,0.0,-0.004363323129985824,0.001090830782496456,-2.751608140070104,-1.4750088755603343,2.713856232351628,0,0,0,0,0,0,1500,1500,1500,1500,1500,1500
1747547411.046117,-0.34,0.01,0.02,0.003272492347489368,0.0,0.001090830782496456,-2.751608140070104,-1.4750088755603343,2.713856232351628,0,0,0,0,0,0,1500,1500,1500,1500,1500,1500
1747547411.145477,-0.34,0.01,0.02,0.003272492347489368,0.0,0.001090830782496456,-2.751608140070104,-1.4750088755603343,2.713856232351628,0,0,0,0,0,0,1500,1500,1500,1500,1500,1500
1747547411.2272575,-0.32,0.06,0.0,0.002181661564992912,-0.001090830782496456,0.0,-2.751608140070104,-1.4750088755603343,2.713856232351628,0,0,0,0,0,0,1500,1500,1500,1500,1500,1500
1747547411.3285782,-0.3,0.02,0.01,0.0,-0.003272492347489368,0.001090830782496456,-2.751608140070104,-1.4750088755603343,2.713856232351628,0,0,0,0,0,0,1500,1500,1500,1500,1500,1500
1747547411.4283323,-0.3,0.02,0.01,0.0,-0.003272492347489368,0.001090830782496456,-2.751608140070104,-1.4750088755603343,2.713856232351628,0,0,0,0,0,0,1500,1500,1500,1500,1500,1500
1747547411.5117211,-0.35000000000000003,0.01,0.01,0.0,0.0,-0.001090830782496456,-2.751608140070104,-1.4750088755603343,2.713856232351628,0,0,0,0,0,0,1500,1500,1500,1500,1500,1500
1747547411.6118283,-0.35000000000000003,0.01,0.01,0.0,0.0,-0.001090830782496456,-2.751608140070104,-1.4750088755603343,2.713856232351628,0,0,0,0,0,0,1500,1500,1500,1500,1500,1500
1747547411.71179,-0.37,0.02,0.05,-0.002181661564992912,0.001090830782496456,0.0,-2.751608140070104,-1.4750088755603343,2.713856232351628,0,0,0,0,0,0,1500,1500,1500,1500,1500,1500
1747547411.8108513,-0.34,0.02,0.0,-0.002181661564992912,0.003272492347489368,0.001090830782496456,-2.751608140070104,-1.4750088755603343,2.713856232351628,0,0,0,0,0,0,1500,1500,1500,1500,1500,1500
1747547411.9116554,-0.34,0.02,0.0,-0.002181661564992912,0.003272492347489368,0.001090830782496456,-2.751608140070104,-1.4750088755603343,2.713856232351628,0,0,0,0,0,0,1500,1500,1500,1500,1500,1500
1747547411.9945462,-0.33,0.04,0.02,-0.001090830782496456,0.004363323129985824,0.001090830782496456,-2.751608140070104,-1.4750088755603343,2.713856232351628,0,0,0,0,0,0,1500,1500,1500,1500,1500,1500
1747547412.0949593,-0.33,0.04,0.02,-0.001090830782496456,0.004363323129985824,0.001090830782496456,-2.751608140070104,-1.4750088755603343,2.713856232351628,0,0,0,0,0,0,1500,1500,1500,1500,1500,1500
1747547412.198868,-0.34,0.01,0.0,-0.004363323129985824,-0.003272492347489368,0.0,-2.751608140070104,-1.4750088755603343,2.713856232351628,0,0,0,0,0,0,1500,1500,1500,1500,1500,1500
1747547412.294051,-0.37,0.04,0.05,0.0,0.004363323129985824,0.001090830782496456,-2.751608140070104,-1.4750088755603343,2.713856232351628,0,0,0,0,0,0,1500,1500,1500,1500,1500,1500
1747547412.3944178,-0.37,0.04,0.05,0.0,0.004363323129985824,0.001090830782496456,-2.751608140070104,-1.4750088755603343,2.713856232351628,0,0,0,0,0,0,1500,1500,1500,1500,1500,1500
1747547412.4784515,-0.38,0.01,0.04,0.002181661564992912,0.0,0.001090830782496456,-2.751608140070104,-1.4750088755603343,2.713856232351628,0,0,0,0,0,0,1500,1500,1500,1500,1500,1500
1747547412.573844,-0.37,0.0,0.0,0.001090830782496456,0.0,0.0,-2.751608140070104,-1.4750088755603343,2.713856232351628,0,0,0,0,0,0,1500,1500,1500,1500,1500,1500
1747547412.6784384,-0.37,0.0,0.0,0.001090830782496456,0.0,0.0,-2.751608140070104,-1.4750088755603343,2.713856232351628,0,0,0,0,0,0,1500,1500,1500,1500,1500,1500
1747547412.7616189,-0.35000000000000003,0.03,0.09,-0.001090830782496456,0.0,0.0,-2.751608140070104,-1.4750088755603343,2.713856232351628,0,0,0,0,0,0,1500,1500,1500,1500,1500,1500
1747547412.8613527,-0.35000000000000003,0.03,0.09,-0.001090830782496456,0.0,0.0,-2.751608140070104,-1.4750088755603343,2.713856232351628,0,0,0,0,0,0,1500,1500,1500,1500,1500,1500
1747547412.9462705,-0.35000000000000003,0.04,0.0,0.0,-0.001090830782496456,0.001090830782496456,-2.751608140070104,-1.4750088755603343,2.713856232351628,0,0,0,0,0,0,1500,1500,1500,1500,1500,1500
1747547413.0460932,-0.35000000000000003,0.04,0.0,0.0,-0.001090830782496456,0.001090830782496456,-2.751608140070104,-1.4750088755603343,2.713856232351628,0,0,0,0,0,0,1500,1500,1500,1500,1500,1500
1747547413.1457431,-0.34,0.05,0.03,0.001090830782496456,0.002181661564992912,0.0,-2.751608140070104,-1.4750088755603343,2.713856232351628,0,0,0,0,0,0,1500,1500,1500,1500,1500,1500
1747547413.2304795,-0.37,0.01,0.02,0.003272492347489368,-0.001090830782496456,0.0,-2.751608140070104,-1.4750088755603343,2.713856232351628,0,0,0,0,0,0,1500,1500,1500,1500,1500,1500
1747547413.3324988,-0.37,0.01,0.02,0.003272492347489368,-0.001090830782496456,0.0,-2.751608140070104,-1.4750088755603343,2.713856232351628,0,0,0,0,0,0,1500,1500,1500,1500,1500,1500
1747547413.4150987,-0.35000000000000003,0.02,0.03,0.0,0.002181661564992912,0.0,-2.751608140070104,-1.4750088755603343,2.713856232351628,0,0,0,0,0,0,1500,1500,1500,1500,1500,1500
1747547413.51332,-0.35000000000000003,0.02,0.03,0.0,0.002181661564992912,0.0,-2.751608140070104,-1.4750088755603343,2.713856232351628,0,0,0,0,0,0,1500,1500,1500,1500,1500,1500
1747547413.6112907,-0.34,0.0,0.05,0.001090830782496456,-0.003272492347489368,0.001090830782496456,-2.751608140070104,-1.4750088755603343,2.713856232351628,0,0,0,0,0,0,1500,1500,1500,1500,1500,1500
1747547413.7273798,-0.37,0.03,0.06,-0.001090830782496456,0.002181661564992912,0.002181661564992912,-2.751608140070104,-1.4750088755603343,2.713856232351628,0,0,0,0,0,0,1500,1500,1500,1500,1500,1500
1747547413.8287055,-0.37,0.03,0.06,-0.001090830782496456,0.002181661564992912,0.002181661564992912,-2.751608140070104,-1.4750088755603343,2.713856232351628,0,0,0,0,0,0,1500,1500,1500,1500,1500,1500
1747547413.9292307,-0.35000000000000003,0.02,0.04,-0.002181661564992912,0.001090830782496456,0.0,-2.751608140070104,-1.4750088755603343,2.713856232351628,0,0,0,0,0,0,1500,1500,1500,1500,1500,1500
1747547414.0268755,-0.36,0.01,0.01,-0.001090830782496456,-0.004363323129985824,0.002181661564992912,-2.751608140070104,-1.4750088755603343,2.713856232351628,0,0,0,0,0,0,1500,1500,1500,1500,1500,1500
1747547414.1273205,-0.36,0.01,0.01,-0.001090830782496456,-0.004363323129985824,0.002181661564992912,-2.751608140070104,-1.4750088755603343,2.713856232351628,0,0,0,0,0,0,1500,1500,1500,1500,1500,1500
1747547414.2270203,-0.34,0.04,0.05,-0.003272492347489368,0.001090830782496456,0.0,-2.751608140070104,-1.4750088755603343,2.713856232351628,0,0,0,0,0,0,1500,1500,1500,1500,1500,1500
1747547414.3277085,-0.34,0.03,0.0,-0.001090830782496456,0.0,0.0,-2.751608140070104,-1.4750088755603343,2.713856232351628,0,0,0,0,0,0,1500,1500,1500,1500,1500,1500
1747547414.4276865,-0.34,0.03,0.0,-0.001090830782496456,0.0,0.0,-2.751608140070104,-1.4750088755603343,2.713856232351628,0,0,0,0,0,0,1500,1500,1500,1500,1500,1500
1747547414.510703,-0.35000000000000003,0.0,0.02,0.001090830782496456,0.00545415391248228,0.001090830782496456,-2.751608140070104,-1.4750088755603343,2.713856232351628,0,0,0,0,0,0,1500,1500,1500,1500,1500,1500
1747547414.610736,-0.35000000000000003,0.0,0.02,0.001090830782496456,0.00545415391248228,0.001090830782496456,-2.751608140070104,-1.4750088755603343,2.713856232351628,0,0,0,0,0,0,1500,1500,1500,1500,1500,1500
1747547414.7098522,-0.35000000000000003,0.02,0.04,-0.002181661564992912,0.001090830782496456,-0.001090830782496456,-2.751608140070104,-1.4750088755603343,2.713856232351628,0,0,0,0,0,0,1500,1500,1500,1500,1500,1500
1747547414.7939758,-0.36,0.02,0.06,0.002181661564992912,-0.001090830782496456,0.001090830782496456,-2.751608140070104,-1.4750088755603343,2.713856232351628,0,0,0,0,0,0,1500,1500,1500,1500,1500,1500
1747547414.8939273,-0.36,0.02,0.06,0.002181661564992912,-0.001090830782496456,0.001090830782496456,-2.751608140070104,-1.4750088755603343,2.713856232351628,0,0,0,0,0,0,1500,1500,1500,1500,1500,1500
1747547414.9769232,-0.36,0.04,0.01,0.001090830782496456,0.0,0.001090830782496456,-2.751608140070104,-1.4750088755603343,2.713856232351628,0,0,0,0,0,0,1500,1500,1500,1500,1500,1500
1747547415.0770576,-0.36,0.04,0.01,0.001090830782496456,0.0,0.001090830782496456,-2.751608140070104,-1.4750088755603343,2.713856232351628,0,0,0,0,0,0,1500,1500,1500,1500,1500,1500
1747547415.176894,-0.37,0.01,0.01,0.0,-0.00545415391248228,0.0,-2.751608140070104,-1.4750088755603343,2.713856232351628,0,0,0,0,0,0,1500,1500,1500,1500,1500,1500
1747547415.260635,-0.33,0.02,0.01,0.0,-0.002181661564992912,0.0,-2.751608140070104,-1.4750088755603343,2.713856232351628,0,0,0,0,0,0,1500,1500,1500,1500,1500,1500
1747547415.3592904,-0.33,0.02,0.01,0.0,-0.002181661564992912,0.0,-2.751608140070104,-1.4750088755603343,2.713856232351628,0,0,0,0,0,0,1500,1500,1500,1500,1500,1500
1747547415.4606986,-0.36,0.02,0.02,0.002181661564992912,-0.00545415391248228,0.0,-2.751608140070104,-1.4750088755603343,2.713856232351628,0,0,0,0,0,0,1500,1500,1500,1500,1500,1500
1747547415.5606723,-0.36,0.02,0.02,0.002181661564992912,-0.00545415391248228,0.0,-2.751608140070104,-1.4750088755603343,2.713856232351628,0,0,0,0,0,0,1500,1500,1500,1500,1500,1500
1747547415.6606328,-0.33,0.05,0.0,-0.003272492347489368,-0.002181661564992912,0.0,-2.751608140070104,-1.4750088755603343,2.713856232351628,0,0,0,0,0,0,1500,1500,1500,1500,1500,1500
1747547415.7444746,-0.36,0.02,0.05,-0.004363323129985824,-0.003272492347489368,-0.001090830782496456,-2.751608140070104,-1.4750088755603343,2.713856232351628,0,0,0,0,0,0,1500,1500,1500,1500,1500,1500
1747547415.8433747,-0.36,0.02,0.05,-0.004363323129985824,-0.003272492347489368,-0.001090830782496456,-2.751608140070104,-1.4750088755603343,2.713856232351628,0,0,0,0,0,0,1500,1500,1500,1500,1500,1500
1747547415.94428,-0.34,0.02,0.03,0.003272492347489368,-0.001090830782496456,-0.001090830782496456,-2.751608140070104,-1.4750088755603343,2.713856232351628,0,0,0,0,0,0,1500,1500,1500,1500,1500,1500
1747547416.0278113,-0.34,0.02,0.03,0.003272492347489368,-0.001090830782496456,-0.001090830782496456,-2.751608140070104,-1.4750088755603343,2.713856232351628,0,0,0,0,0,0,1500,1500,1500,1500,1500,1500
1747547416.1262407,-0.35000000000000003,0.05,0.0,-0.002181661564992912,0.003272492347489368,-0.002181661564992912,-2.751608140070104,-1.4750088755603343,2.713856232351628,0,0,0,0,0,0,1500,1500,1500,1500,1500,1500
1747547416.2269862,-0.34,0.03,0.0,0.001090830782496456,0.007635815477475192,0.002181661564992912,-2.751608140070104,-1.4750088755603343,2.713856232351628,0,0,0,0,0,0,1500,1500,1500,1500,1500,1500
1747547416.3267329,-0.34,0.03,0.0,0.001090830782496456,0.007635815477475192,0.002181661564992912,-2.751608140070104,-1.4750088755603343,2.713856232351628,0,0,0,0,0,0,1500,1500,1500,1500,1500,1500
1747547416.4277272,-0.33,0.01,0.02,-0.001090830782496456,-0.001090830782496456,-0.001090830782496456,-2.751608140070104,-1.4750088755603343,2.713856232351628,0,0,0,0,0,0,1500,1500,1500,1500,1500,1500
1747547416.5114315,-0.33,0.01,0.02,-0.001090830782496456,-0.001090830782496456,-0.001090830782496456,-2.751608140070104,-1.4750088755603343,2.713856232351628,0,0,0,0,0,0,1500,1500,1500,1500,1500,1500
1747547416.6127367,-0.39,0.0,0.04,-0.001090830782496456,-0.001090830782496456,0.0,-2.751608140070104,-1.4750088755603343,2.713856232351628,0,0,0,0,0,0,1500,1500,1500,1500,1500,1500
1747547416.7107189,-0.37,0.02,0.04,0.001090830782496456,0.001090830782496456,0.001090830782496456,-2.751608140070104,-1.4750088755603343,2.713856232351628,0,0,0,0,0,0,1500,1500,1500,1500,1500,1500
1747547416.809216,-0.37,0.02,0.04,0.001090830782496456,0.001090830782496456,0.001090830782496456,-2.751608140070104,-1.4750088755603343,2.713856232351628,0,0,0,0,0,0,1500,1500,1500,1500,1500,1500
1747547416.9102838,-0.33,0.04,-0.01,0.002181661564992912,-0.003272492347489368,0.0,-2.751608140070104,-1.4750088755603343,2.713856232351628,0,0,0,0,0,0,1500,1500,1500,1500,1500,1500
1747547416.9938414,-0.33,0.04,-0.01,0.002181661564992912,-0.003272492347489368,0.0,-2.751608140070104,-1.4750088755603343,2.713856232351628,0,0,0,0,0,0,1500,1500,1500,1500,1500,1500
1747547417.09297,-0.36,0.03,0.02,-0.001090830782496456,0.002181661564992912,0.002181661564992912,-2.751608140070104,-1.4750088755603343,2.713856232351628,0,0,0,0,0,0,1500,1500,1500,1500,1500,1500
1747547417.19432,-0.36,0.02,0.07,0.001090830782496456,0.004363323129985824,0.001090830782496456,-2.751608140070104,-1.4750088755603343,2.713856232351628,0,0,0,0,0,0,1500,1500,1500,1500,1500,1500
1747547417.2794182,-0.36,0.02,0.07,0.001090830782496456,0.004363323129985824,0.001090830782496456,-2.751608140070104,-1.4750088755603343,2.713856232351628,0,0,0,0,0,0,1500,1500,1500,1500,1500,1500
1747547417.3807168,-0.36,0.02,0.02,-0.001090830782496456,-0.002181661564992912,0.0,-2.751608140070104,-1.4750088755603343,2.713856232351628,0,0,0,0,0,0,1500,1500,1500,1500,1500,1500
1747547417.4667943,-0.34,0.03,0.05,0.001090830782496456,-0.002181661564992912,0.001090830782496456,-2.751608140070104,-1.4750088755603343,2.713856232351628,0,0,0,0,0,0,1500,1500,1500,1500,1500,1500
1747547417.5608888,-0.34,0.03,0.05,0.001090830782496456,-0.002181661564992912,0.001090830782496456,-2.751608140070104,-1.4750088755603343,2.713856232351628,0,0,0,0,0,0,1500,1500,1500,1500,1500,1500
1747547417.6607327,-0.37,0.02,0.05,-0.001090830782496456,-0.002181661564992912,-0.001090830782496456,-2.751608140070104,-1.4750088755603343,2.713856232351628,0,0,0,0,0,0,1500,1500,1500,1500,1500,1500
1747547417.7433722,-0.37,0.02,0.05,-0.001090830782496456,-0.002181661564992912,-0.001090830782496456,-2.751608140070104,-1.4750088755603343,2.713856232351628,0,0,0,0,0,0,1500,1500,1500,1500,1500,1500
1747547417.844547,-0.33,0.03,0.03,0.0,0.002181661564992912,0.0,-2.751608140070104,-1.4750088755603343,2.713856232351628,0,0,0,0,0,0,1500,1500,1500,1500,1500,1500
1747547417.9407501,-0.34,0.02,0.01,0.002181661564992912,0.004363323129985824,0.0,-2.751608140070104,-1.4750088755603343,2.713856232351628,0,0,0,0,0,0,1500,1500,1500,1500,1500,1500
1747547418.0274427,-0.34,0.02,0.01,0.002181661564992912,0.004363323129985824,0.0,-2.751608140070104,-1.4750088755603343,2.713856232351628,0,0,0,0,0,0,1500,1500,1500,1500,1500,1500
1747547418.126774,-0.33,0.03,0.0,0.002181661564992912,-0.001090830782496456,0.0,-2.751608140070104,-1.4750088755603343,2.713856232351628,0,0,0,0,0,0,1500,1500,1500,1500,1500,1500
1747547418.2269545,-0.33,0.03,0.0,0.002181661564992912,-0.001090830782496456,0.0,-2.751608140070104,-1.4750088755603343,2.713856232351628,0,0,0,0,0,0,1500,1500,1500,1500,1500,1500
1747547418.326561,-0.38,0.05,0.04,-0.001090830782496456,0.0,0.001090830782496456,-2.751608140070104,-1.4750088755603343,2.713856232351628,0,0,0,0,0,0,1500,1500,1500,1500,1500,1500
1747547418.4159162,-0.36,0.02,0.04,0.001090830782496456,-0.002181661564992912,0.001090830782496456,-2.751608140070104,-1.4750088755603343,2.713856232351628,0,0,0,0,0,0,1500,1500,1500,1500,1500,1500
1747547418.511252,-0.36,0.02,0.04,0.001090830782496456,-0.002181661564992912,0.001090830782496456,-2.751608140070104,-1.4750088755603343,2.713856232351628,0,0,0,0,0,0,1500,1500,1500,1500,1500,1500
1747547418.6211405,-0.36,0.02,0.06,0.003272492347489368,0.001090830782496456,0.0,-2.751608140070104,-1.4750088755603343,2.713856232351628,0,0,0,0,0,0,1500,1500,1500,1500,1500,1500
1747547418.7274234,-0.36,0.02,0.06,0.003272492347489368,0.001090830782496456,0.0,-2.751608140070104,-1.4750088755603343,2.713856232351628,0,0,0,0,0,0,1500,1500,1500,1500,1500,1500
1747547418.8266993,-0.36,0.03,0.03,-0.001090830782496456,-0.002181661564992912,0.0,-2.751608140070104,-1.4750088755603343,2.713856232351628,0,0,0,0,0,0,1500,1500,1500,1500,1500,1500
1747547418.926652,-0.33,0.03,0.03,-0.002181661564992912,0.001090830782496456,-0.002181661564992912,-2.751608140070104,-1.4750088755603343,2.713856232351628,0,0,0,0,0,0,1500,1500,1500,1500,1500,1500
1747547419.0105164,-0.33,0.03,0.03,-0.002181661564992912,0.001090830782496456,-0.002181661564992912,-2.751608140070104,-1.4750088755603343,2.713856232351628,0,0,0,0,0,0,1500,1500,1500,1500,1500,1500
1747547419.110471,-0.36,0.02,0.01,-0.001090830782496456,0.001090830782496456,0.0,-2.751608140070104,-1.4750088755603343,2.713856232351628,0,0,0,0,0,0,1500,1500,1500,1500,1500,1500
1747547419.2068062,-0.34,0.01,0.05,0.0,0.003272492347489368,0.0,-2.751608140070104,-1.4750088755603343,2.713856232351628,0,0,0,0,0,0,1500,1500,1500,1500,1500,1500
1747547419.2930636,-0.34,0.01,0.05,0.0,0.003272492347489368,0.0,-2.751608140070104,-1.4750088755603343,2.713856232351628,0,0,0,0,0,0,1500,1500,1500,1500,1500,1500
1747547419.3932602,-0.37,0.02,0.05,-0.003272492347489368,0.0,-0.001090830782496456,-2.751608140070104,-1.4750088755603343,2.713856232351628,0,0,0,0,0,0,1500,1500,1500,1500,1500,1500
1747547419.4939446,-0.37,0.02,0.05,-0.003272492347489368,0.0,-0.001090830782496456,-2.751608140070104,-1.4750088755603343,2.713856232351628,0,0,0,0,0,0,1500,1500,1500,1500,1500,1500
1747547419.5933383,-0.39,0.04,0.02,0.0,0.002181661564992912,0.002181661564992912,-2.751608140070104,-1.4750088755603343,2.713856232351628,0,0,0,0,0,0,1500,1500,1500,1500,1500,1500
1747547419.6929677,-0.35000000000000003,0.04,0.03,0.001090830782496456,-0.002181661564992912,0.001090830782496456,-2.751608140070104,-1.4750088755603343,2.713856232351628,0,0,0,0,0,0,1500,1500,1500,1500,1500,1500
1747547419.7768621,-0.35000000000000003,0.04,0.03,0.001090830782496456,-0.002181661564992912,0.001090830782496456,-2.751608140070104,-1.4750088755603343,2.713856232351628,0,0,0,0,0,0,1500,1500,1500,1500,1500,1500
1747547419.8769195,-0.34,0.01,0.04,-0.003272492347489368,-0.002181661564992912,-0.001090830782496456,-2.751608140070104,-1.4750088755603343,2.713856232351628,0,0,0,0,0,0,1500,1500,1500,1500,1500,1500
1747547419.976369,-0.34,0.01,0.04,-0.003272492347489368,-0.002181661564992912,-0.001090830782496456,-2.751608140070104,-1.4750088755603343,2.713856232351628,0,0,0,0,0,0,1500,1500,1500,1500,1500,1500
1747547420.077131,-0.37,0.04,0.06,0.0,0.002181661564992912,0.001090830782496456,-2.751608140070104,-1.4750088755603343,2.713856232351628,0,0,0,0,0,0,1500,1500,1500,1500,1500,1500
1747547420.1770513,-0.35000000000000003,0.02,0.0,0.0,0.003272492347489368,0.001090830782496456,-2.751608140070104,-1.4750088755603343,2.713856232351628,0,0,0,0,0,0,1500,1500,1500,1500,1500,1500
1747547420.2604358,-0.35000000000000003,0.02,0.0,0.0,0.003272492347489368,0.001090830782496456,-2.751608140070104,-1.4750088755603343,2.713856232351628,0,0,0,0,0,0,1500,1500,1500,1500,1500,1500
1747547420.3608143,-0.35000000000000003,0.02,0.03,0.003272492347489368,0.0,0.001090830782496456,-2.751608140070104,-1.4750088755603343,2.713856232351628,0,0,0,0,0,0,1500,1500,1500,1500,1500,1500
1747547420.4611368,-0.35000000000000003,0.02,0.03,0.003272492347489368,0.0,0.001090830782496456,-2.751608140070104,-1.4750088755603343,2.713856232351628,0,0,0,0,0,0,1500,1500,1500,1500,1500,1500
1747547420.5606089,-0.35000000000000003,0.02,0.03,-0.001090830782496456,0.0,0.001090830782496456,-2.751608140070104,-1.4750088755603343,2.713856232351628,0,0,0,0,0,0,1500,1500,1500,1500,1500,1500
1747547420.6593535,-0.34,0.04,0.05,-0.003272492347489368,0.003272492347489368,0.002181661564992912,-2.751608140070104,-1.4750088755603343,2.713856232351628,0,0,0,0,0,0,1500,1500,1500,1500,1500,1500
1747547420.7444963,-0.34,0.04,0.05,-0.003272492347489368,0.003272492347489368,0.002181661564992912,-2.751608140070104,-1.4750088755603343,2.713856232351628,0,0,0,0,0,0,1500,1500,1500,1500,1500,1500
1747547420.8438303,-0.35000000000000003,0.01,0.02,0.002181661564992912,0.0,-0.001090830782496456,-2.751608140070104,-1.4750088755603343,2.713856232351628,0,0,0,0,0,0,1500,1500,1500,1500,1500,1500
1747547420.943739,-0.36,0.02,0.04,-0.001090830782496456,0.002181661564992912,-0.001090830782496456,-2.751608140070104,-1.4750088755603343,2.713856232351628,0,0,0,0,0,0,1500,1500,1500,1500,1500,1500
1747547421.0269642,-0.36,0.02,0.04,-0.001090830782496456,0.002181661564992912,-0.001090830782496456,-2.751608140070104,-1.4750088755603343,2.713856232351628,0,0,0,0,0,0,1500,1500,1500,1500,1500,1500
1747547421.1294568,-0.37,0.04,0.02,-0.001090830782496456,-0.003272492347489368,0.001090830782496456,-2.751608140070104,-1.4750088755603343,2.713856232351628,0,0,0,0,0,0,1500,1500,1500,1500,1500,1500
1747547421.2122679,-0.37,0.04,0.02,-0.001090830782496456,-0.003272492347489368,0.001090830782496456,-2.751608140070104,-1.4750088755603343,2.713856232351628,0,0,0,0,0,0,1500,1500,1500,1500,1500,1500
1747547421.3141453,-0.4,0.01,0.04,-0.004363323129985824,0.001090830782496456,0.002181661564992912,-2.751608140070104,-1.4750088755603343,2.713856232351628,0,0,0,0,0,0,1500,1500,1500,1500,1500,1500
1747547421.4114025,-0.4,0.01,0.04,-0.004363323129985824,0.001090830782496456,0.002181661564992912,-2.751608140070104,-1.4750088755603343,2.713856232351628,0,0,0,0,0,0,1500,1500,1500,1500,1500,1500
1747547421.49539,-0.36,0.02,0.01,0.004363323129985824,-0.002181661564992912,-0.002181661564992912,-2.751608140070104,-1.4750088755603343,2.713856232351628,0,0,0,0,0,0,1500,1500,1500,1500,1500,1500
1747547421.5942955,-0.37,0.02,0.03,-0.001090830782496456,-0.003272492347489368,0.0,-2.751608140070104,-1.4750088755603343,2.713856232351628,0,0,0,0,0,0,1500,1500,1500,1500,1500,1500
1747547421.6945024,-0.37,0.02,0.03,-0.001090830782496456,-0.003272492347489368,0.0,-2.751608140070104,-1.4750088755603343,2.713856232351628,0,0,0,0,0,0,1500,1500,1500,1500,1500,1500
1747547421.778645,-0.36,0.04,0.04,0.001090830782496456,-0.003272492347489368,0.001090830782496456,-2.751608140070104,-1.4750088755603343,2.713856232351628,0,0,0,0,0,0,1500,1500,1500,1500,1500,1500
1747547421.8777485,-0.36,0.04,0.04,0.001090830782496456,-0.003272492347489368,0.001090830782496456,-2.751608140070104,-1.4750088755603343,2.713856232351628,0,0,0,0,0,0,1500,1500,1500,1500,1500,1500
1747547421.9620092,-0.37,0.02,0.02,0.001090830782496456,0.003272492347489368,0.001090830782496456,-2.751608140070104,-1.4750088755603343,2.713856232351628,0,0,0,0,0,0,1500,1500,1500,1500,1500,1500
1747547422.0612273,-0.34,0.04,0.03,-0.002181661564992912,-0.002181661564992912,0.002181661564992912,-2.751608140070104,-1.4750088755603343,2.713856232351628,0,0,0,0,0,0,1500,1500,1500,1500,1500,1500
1747547422.1613433,-0.34,0.04,0.03,-0.002181661564992912,-0.002181661564992912,0.002181661564992912,-2.751608140070104,-1.4750088755603343,2.713856232351628,0,0,0,0,0,0,1500,1500,1500,1500,1500,1500
1747547422.2447364,-0.38,0.02,0.02,-0.001090830782496456,-0.001090830782496456,-0.002181661564992912,-2.751608140070104,-1.4750088755603343,2.713856232351628,0,0,0,0,0,0,1500,1500,1500,1500,1500,1500
1747547422.344428,-0.38,0.02,0.02,-0.001090830782496456,-0.001090830782496456,-0.002181661564992912,-2.751608140070104,-1.4750088755603343,2.713856232351628,0,0,0,0,0,0,1500,1500,1500,1500,1500,1500
1747547422.445402,-0.33,0.04,0.01,0.001090830782496456,0.002181661564992912,-0.001090830782496456,-2.751608140070104,-1.4750088755603343,2.713856232351628,0,0,0,0,0,0,1500,1500,1500,1500,1500,1500
1747547422.5440853,-0.38,0.02,0.05,0.002181661564992912,0.001090830782496456,0.001090830782496456,-2.751608140070104,-1.4750088755603343,2.713856232351628,0,0,0,0,0,0,1500,1500,1500,1500,1500,1500
1747547422.6436357,-0.38,0.02,0.05,0.002181661564992912,0.001090830782496456,0.001090830782496456,-2.751608140070104,-1.4750088755603343,2.713856232351628,0,0,0,0,0,0,1500,1500,1500,1500,1500,1500
1747547422.7439737,-0.35000000000000003,0.0,0.04,-0.001090830782496456,-0.003272492347489368,0.0,-2.751608140070104,-1.4750088755603343,2.713856232351628,0,0,0,0,0,0,1500,1500,1500,1500,1500,1500
1747547422.838891,-0.35000000000000003,0.03,0.04,0.0,-0.001090830782496456,-0.002181661564992912,-2.751608140070104,-1.4750088755603343,2.713856232351628,0,0,0,0,0,0,1500,1500,1500,1500,1500,1500
1747547422.9435098,-0.35000000000000003,0.03,0.04,0.0,-0.001090830782496456,-0.002181661564992912,-2.751608140070104,-1.4750088755603343,2.713856232351628,0,0,0,0,0,0,1500,1500,1500,1500,1500,1500
1747547423.026722,-0.35000000000000003,0.01,0.03,-0.002181661564992912,-0.001090830782496456,0.002181661564992912,-2.751608140070104,-1.4750088755603343,2.713856232351628,0,0,0,0,0,0,1500,1500,1500,1500,1500,1500
1747547423.1275704,-0.35000000000000003,0.01,0.03,-0.002181661564992912,-0.001090830782496456,0.002181661564992912,-2.751608140070104,-1.4750088755603343,2.713856232351628,0,0,0,0,0,0,1500,1500,1500,1500,1500,1500
1747547423.2264497,-0.33,0.04,0.01,-0.002181661564992912,0.001090830782496456,-0.002181661564992912,-2.751608140070104,-1.4750088755603343,2.713856232351628,0,0,0,0,0,0,1500,1500,1500,1500,1500,1500
1747547423.3266187,-0.35000000000000003,0.04,-0.01,0.001090830782496456,0.0,0.0,-2.751608140070104,-1.4750088755603343,2.713856232351628,0,0,0,0,0,0,1500,1500,1500,1500,1500,1500
1747547423.426516,-0.35000000000000003,0.04,-0.01,0.001090830782496456,0.0,0.0,-2.751608140070104,-1.4750088755603343,2.713856232351628,0,0,0,0,0,0,1500,1500,1500,1500,1500,1500
1747547423.50959,-0.35000000000000003,0.05,0.0,0.001090830782496456,-0.00545415391248228,0.0,-2.751608140070104,-1.4750088755603343,2.713856232351628,0,0,0,0,0,0,1500,1500,1500,1500,1500,1500
1747547423.609102,-0.35000000000000003,0.05,0.0,0.001090830782496456,-0.00545415391248228,0.0,-2.751608140070104,-1.4750088755603343,2.713856232351628,0,0,0,0,0,0,1500,1500,1500,1500,1500,1500
1747547423.7341588,-0.38,0.0,0.07,0.0,0.0,0.0,-2.751608140070104,-1.4750088755603343,2.713856232351628,0,0,0,0,0,0,1500,1500,1500,1500,1500,1500
1747547423.827705,-0.38,0.02,0.04,0.0,-0.002181661564992912,0.002181661564992912,-2.751608140070104,-1.4750088755603343,2.713856232351628,0,0,0,0,0,0,1500,1500,1500,1500,1500,1500
1747547423.9286926,-0.38,0.02,0.04,0.0,-0.002181661564992912,0.002181661564992912,-2.751608140070104,-1.4750088755603343,2.713856232351628,0,0,0,0,0,0,1500,1500,1500,1500,1500,1500
1747547424.010457,-0.36,0.04,0.08,0.0,0.001090830782496456,0.001090830782496456,-2.751608140070104,-1.4750088755603343,2.713856232351628,0,0,0,0,0,0,1500,1500,1500,1500,1500,1500
1747547424.1107016,-0.37,0.03,0.0,0.004363323129985824,-0.001090830782496456,-0.001090830782496456,-2.751608140070104,-1.4750088755603343,2.713856232351628,0,0,0,0,0,0,1500,1500,1500,1500,1500,1500
1747547424.210774,-0.37,0.03,0.0,0.004363323129985824,-0.001090830782496456,-0.001090830782496456,-2.751608140070104,-1.4750088755603343,2.713856232351628,0,0,0,0,0,0,1500,1500,1500,1500,1500,1500
1747547424.311089,-0.35000000000000003,0.02,0.05,0.003272492347489368,0.003272492347489368,-0.001090830782496456,-2.751608140070104,-1.4750088755603343,2.713856232351628,0,0,0,0,0,0,1500,1500,1500,1500,1500,1500
1747547424.4108696,-0.35000000000000003,0.02,0.05,0.003272492347489368,0.003272492347489368,-0.001090830782496456,-2.751608140070104,-1.4750088755603343,2.713856232351628,0,0,0,0,0,0,1500,1500,1500,1500,1500,1500
1747547424.4946315,-0.36,0.01,0.0,-0.001090830782496456,0.002181661564992912,0.0,-2.751608140070104,-1.4750088755603343,2.713856232351628,0,0,0,0,0,0,1500,1500,1500,1500,1500,1500
1747547424.5936224,-0.36,0.04,0.0,-0.002181661564992912,-0.001090830782496456,0.0,-2.751608140070104,-1.4750088755603343,2.713856232351628,0,0,0,0,0,0,1500,1500,1500,1500,1500,1500
1747547424.6939304,-0.36,0.04,0.0,-0.002181661564992912,-0.001090830782496456,0.0,-2.751608140070104,-1.4750088755603343,2.713856232351628,0,0,0,0,0,0,1500,1500,1500,1500,1500,1500
1747547424.7766914,-0.37,0.05,0.04,-0.001090830782496456,0.0,-0.001090830782496456,-2.751608140070104,-1.4750088755603343,2.713856232351628,0,0,0,0,0,0,1500,1500,1500,1500,1500,1500
1747547424.8769612,-0.37,0.05,0.04,-0.001090830782496456,0.0,-0.001090830782496456,-2.751608140070104,-1.4750088755603343,2.713856232351628,0,0,0,0,0,0,1500,1500,1500,1500,1500,1500
1747547424.976896,-0.36,0.03,0.05,-0.001090830782496456,0.001090830782496456,0.0,-2.751608140070104,-1.4750088755603343,2.713856232351628,0,0,0,0,0,0,1500,1500,1500,1500,1500,1500
1747547425.077166,-0.33,0.04,0.05,0.0,-0.001090830782496456,0.002181661564992912,-2.751608140070104,-1.4750088755603343,2.713856232351628,0,0,0,0,0,0,1500,1500,1500,1500,1500,1500
1747547425.1764557,-0.33,0.04,0.05,0.0,-0.001090830782496456,0.002181661564992912,-2.751608140070104,-1.4750088755603343,2.713856232351628,0,0,0,0,0,0,1500,1500,1500,1500,1500,1500
1747547425.2604516,-0.36,0.03,0.04,0.001090830782496456,0.004363323129985824,0.0,-2.751608140070104,-1.4750088755603343,2.713856232351628,0,0,0,0,0,0,1500,1500,1500,1500,1500,1500
