time,ax,ay,az,gx,gy,gz,roll,pitch,yaw,cmd_fx,cmd_fy,cmd_fz,cmd_tx,cmd_ty,cmd_tz,pwm_1,pwm_2,pwm_3,pwm_4,pwm_5,pwm_6
1747533982.2189896,0.0,0.0,0.0,0.0,0.0,0.0,0.0,0.0,0.0,0,0,0,0,0,0,1500,1500,1500,1500,1500,1500
1747533982.321552,0.04,0.0,-0.34,-0.001090830782496456,0.003272492347489368,-0.001090830782496456,-0.014766762060213417,0.1146963568534011,0.0004973004381869085,0,0,0,0,0,0,1500,1500,1500,1500,1500,1500
1747533982.4060388,0.04,0.0,-0.34,-0.001090830782496456,0.003272492347489368,-0.001090830782496456,-0.014766762060213417,0.1146963568534011,0.0004973004381869085,0,0,0,0,0,0,1500,1500,1500,1500,1500,1500
1747533982.506221,0.03,0.0,-0.27,-0.001090830782496456,0.0,-0.001090830782496456,-0.014766762060213417,0.1146963568534011,0.0004973004381869085,0,0,0,0,0,0,1500,1500,1500,1500,1500,1500
1747533982.6058934,0.06,0.0,-0.37,0.001090830782496456,-0.004363323129985824,-0.002181661564992912,-0.014766762060213417,0.1146963568534011,0.0004973004381869085,0,0,0,0,0,0,1500,1500,1500,1500,1500,1500
1747533982.7064495,0.06,0.0,-0.37,0.001090830782496456,-0.004363323129985824,-0.002181661564992912,-0.014766762060213417,0.1146963568534011,0.0004973004381869085,0,0,0,0,0,0,1500,1500,1500,1500,1500,1500
1747533982.806671,0.05,-0.01,-0.32,0.0,-0.001090830782496456,0.0,-0.014766762060213417,0.1146963568534011,0.0004973004381869085,0,0,0,0,0,0,1500,1500,1500,1500,1500,1500
1747533982.8891566,0.05,-0.01,-0.32,0.0,-0.001090830782496456,0.0,-0.014766762060213417,0.1146963568534011,0.0004973004381869085,0,0,0,0,0,0,1500,1500,1500,1500,1500,1500
1747533982.9895282,0.06,-0.01,-0.3,-0.002181661564992912,-0.00545415391248228,0.0,-0.014766762060213417,0.1146963568534011,0.0004973004381869085,0,0,0,0,0,0,1500,1500,1500,1500,1500,1500
1747533983.0862556,0.03,-0.27,-0.37,0.002181661564992912,0.002181661564992912,0.002181661564992912,-0.014766511532519578,0.11445100996989119,0.0004991013585478875,0,0,0,0,0,0,1500,1500,1500,1500,1500,1500
1747533983.1728923,0.03,-0.27,-0.37,0.002181661564992912,0.002181661564992912,0.002181661564992912,-0.014766511532519578,0.11445100996989119,0.0004991013585478875,0,0,0,0,0,0,1500,1500,1500,1500,1500,1500
1747533983.2735791,0.42,-0.68,-0.16,-0.01090830782496456,-0.006544984694978736,0.007635815477475192,-0.014650722146805519,0.11432735668415146,0.00038435134730826543,0,0,0,0,0,0,1500,1500,1500,1500,1500,1500
1747533983.3566022,0.42,-0.68,-0.16,-0.01090830782496456,-0.006544984694978736,0.007635815477475192,-0.014650722146805519,0.11432735668415146,0.00038435134730826543,0,0,0,0,0,0,1500,1500,1500,1500,1500,1500
1747533983.456387,0.22,-0.61,-0.21,-0.014180800172453928,-0.011999138607461015,0.008726646259971648,-0.01453519460621861,0.1144490600621339,0.0002678122497509889,0,0,0,0,0,0,1500,1500,1500,1500,1500,1500
1747533983.556501,0.22,-0.61,-0.21,-0.014180800172453928,-0.011999138607461015,0.008726646259971648,-0.01453519460621861,0.1144490600621339,0.0002678122497509889,0,0,0,0,0,0,1500,1500,1500,1500,1500,1500
1747533983.6390955,-1.31,-1.06,0.91,0.17453292519943295,-0.04363323129985824,0.19198621771937624,-0.012498920489214603,0.11361122504078294,0.0038131306499375977,0,0,0,0,0,0,1500,1500,1500,1500,1500,1500
1747533983.7353344,0.8300000000000001,1.16,1.31,0.7417649320975901,-0.7254024703601433,0.20180369476184434,0.10168845190359804,0.01737927214267949,0.04770462602337671,0,0,0,0,0,0,1500,1500,1500,1500,1500,1500
1747533983.8396962,0.8300000000000001,1.16,1.31,0.7417649320975901,-0.7254024703601433,0.20180369476184434,0.10168845190359804,0.01737927214267949,0.04770462602337671,0,0,0,0,0,0,1500,1500,1500,1500,1500,1500
1747533983.9389954,-1.18,0.96,0.64,0.6566801310628665,-0.2792526803190927,0.6065019150680295,0.19978689722036044,-0.04997612424359499,0.0832518083489959,0,0,0,0,0,0,1500,1500,1500,1500,1500,1500
1747533984.0396216,-1.18,0.96,0.64,0.6566801310628665,-0.2792526803190927,0.6065019150680295,0.19978689722036044,-0.04997612424359499,0.0832518083489959,0,0,0,0,0,0,1500,1500,1500,1500,1500,1500
1747533984.1232243,-1.33,-0.1,-1.6500000000000001,1.241365430480967,0.01090830782496456,1.5446163880149817,0.3333193477024118,-0.11571140213161546,0.2476303276191199,0,0,0,0,0,0,1500,1500,1500,1500,1500,1500
1747533984.2222333,-1.1,-1.1300000000000001,-1.82,1.6951510359994926,0.3752457891787809,1.4780757102826978,0.5204832747040985,-0.17815942916801178,0.4935673685353147,0,0,0,0,0,0,1500,1500,1500,1500,1500,1500
1747533984.3222754,-1.1,-1.1300000000000001,-1.82,1.6951510359994926,0.3752457891787809,1.4780757102826978,0.5204832747040985,-0.17815942916801178,0.4935673685353147,0,0,0,0,0,0,1500,1500,1500,1500,1500,1500
1747533984.4068193,0.0,-0.06,0.09,1.0875582901489667,0.5257804371632918,1.2457287536109527,0.6912069725399996,-0.24175763270010384,0.7010049570338566,0,0,0,0,0,0,1500,1500,1500,1500,1500,1500
1747533984.5059967,0.0,-0.06,0.09,1.0875582901489667,0.5257804371632918,1.2457287536109527,0.6912069725399996,-0.24175763270010384,0.7010049570338566,0,0,0,0,0,0,1500,1500,1500,1500,1500,1500
1747533984.6071446,-0.6900000000000001,-1.6,-0.67,1.4115350325504141,0.8399397025222711,0.4385139745635753,0.8319596781539007,-0.25031022507374623,0.8834760145611603,0,0,0,0,0,0,1500,1500,1500,1500,1500,1500
1747533984.7066214,0.29,-1.54,1.43,1.0461067204141012,0.6904958853202566,0.19744037163185854,1.0029104175524635,-0.21902377781140958,1.005945912744472,0,0,0,0,0,0,1500,1500,1500,1500,1500,1500
1747533984.8054774,0.29,-1.54,1.43,1.0461067204141012,0.6904958853202566,0.19744037163185854,1.0029104175524635,-0.21902377781140958,1.005945912744472,0,0,0,0,0,0,1500,1500,1500,1500,1500,1500
1747533984.8883882,-0.24,-2.0,-0.28,-0.21598449493429828,0.42978732830360367,0.20725784867432664,1.048140048330698,-0.19605247319678004,1.106235824161667,0,0,0,0,0,0,1500,1500,1500,1500,1500,1500
1747533984.9893122,-0.24,-2.0,-0.28,-0.21598449493429828,0.42978732830360367,0.20725784867432664,1.048140048330698,-0.19605247319678004,1.106235824161667,0,0,0,0,0,0,1500,1500,1500,1500,1500,1500
1747533985.089111,-0.51,-2.39,-1.68,-0.6904958853202566,0.5617778529856748,-0.20289452554434081,0.963506213666694,-0.13789573370765532,1.1831849597850264,0,0,0,0,0,0,1500,1500,1500,1500,1500,1500
1747533985.1723104,-0.51,-2.39,-1.68,-0.6904958853202566,0.5617778529856748,-0.20289452554434081,0.963506213666694,-0.13789573370765532,1.1831849597850264,0,0,0,0,0,0,1500,1500,1500,1500,1500,1500
1747533985.2722254,0.17,-2.0,-1.87,-0.8879362569521152,0.31852258848896514,-0.028361600344907856,0.8246109950797297,-0.08874001307796324,1.2152970927324005,0,0,0,0,0,0,1500,1500,1500,1500,1500,1500
1747533985.3730495,0.97,-0.89,-0.46,-0.1538071403320003,-0.038179077387375956,0.6752242543653062,0.7455933083156095,-0.11214217328884975,1.2607233107684817,0,0,0,0,0,0,1500,1500,1500,1500,1500,1500
1747533985.4725373,0.97,-0.89,-0.46,-0.1538071403320003,-0.038179077387375956,0.6752242543653062,0.7455933083156095,-0.11214217328884975,1.2607233107684817,0,0,0,0,0,0,1500,1500,1500,1500,1500,1500
1747533985.5732021,1.77,0.25,-0.43,0.5617778529856748,-0.050178215994836975,0.9250245035569946,0.7890614842997875,-0.2208272757493231,1.350887494475297,0,0,0,0,0,0,1500,1500,1500,1500,1500,1500
1747533985.653074,0.16,-0.41000000000000003,-0.56,-0.44833145160604343,-0.2552544031041707,0.5726861608106394,0.7488301675773957,-0.3312673841222751,1.4321199686410582,0,0,0,0,0,0,1500,1500,1500,1500,1500,1500
1747533985.7565706,0.16,-0.41000000000000003,-0.56,-0.44833145160604343,-0.2552544031041707,0.5726861608106394,0.7488301675773957,-0.3312673841222751,1.4321199686410582,0,0,0,0,0,0,1500,1500,1500,1500,1500,1500
1747533985.8554678,-0.03,-0.72,-0.11,-0.16689710972195776,-0.8203047484373349,0.06872233929727672,0.7215612131609641,-0.4259799514261427,1.399954945795162,0,0,0,0,0,0,1500,1500,1500,1500,1500,1500
1747533985.9562094,-0.03,-0.72,-0.11,-0.16689710972195776,-0.8203047484373349,0.06872233929727672,0.7215612131609641,-0.4259799514261427,1.399954945795162,0,0,0,0,0,0,1500,1500,1500,1500,1500,1500
1747533986.0546017,0.09,-0.11,0.42,-0.56941366846315,-0.7843073326149519,-0.29888763440402893,0.7133073637800459,-0.5191835280671071,1.2916002388881227,0,0,0,0,0,0,1500,1500,1500,1500,1500,1500
1747533986.1390002,0.8,0.9400000000000001,1.05,-0.9533861039019025,-0.7668540400950086,-0.7188574856651645,0.6758498469754753,-0.5614113097507929,1.140213733792064,0,0,0,0,0,0,1500,1500,1500,1500,1500,1500
1747533986.2395062,0.8,0.9400000000000001,1.05,-0.9533861039019025,-0.7668540400950086,-0.7188574856651645,0.6758498469754753,-0.5614113097507929,1.140213733792064,0,0,0,0,0,0,1500,1500,1500,1500,1500,1500
1747533986.3397098,-0.79,0.54,0.09,-1.002473489114243,-0.31852258848896514,-0.7035858547102141,0.605589466426249,-0.5522539354578296,0.9649720798298953,0,0,0,0,0,0,1500,1500,1500,1500,1500,1500
1747533986.438803,-0.79,0.54,0.09,-1.002473489114243,-0.31852258848896514,-0.7035858547102141,0.605589466426249,-0.5522539354578296,0.9649720798298953,0,0,0,0,0,0,1500,1500,1500,1500,1500,1500
1747533986.5390658,-2.11,-0.3,-2.24,-0.34470252726888007,-0.15707963267948966,-0.09599310885968812,0.5495741029413485,-0.5505245086799433,0.8689418653221854,0,0,0,0,0,0,1500,1500,1500,1500,1500,1500
1747533986.6222398,0.49,-1.8900000000000001,-0.12,-0.16689710972195776,1.1573714602287397,-0.2399827721492203,0.5090181947121791,-0.4919728790524466,0.8895965869769908,0,0,0,0,0,0,1500,1500,1500,1500,1500,1500
1747533986.7222393,0.49,-1.8900000000000001,-0.12,-0.16689710972195776,1.1573714602287397,-0.2399827721492203,0.5090181947121791,-0.4919728790524466,0.8895965869769908,0,0,0,0,0,0,1500,1500,1500,1500,1500,1500
1747533986.8219926,1.08,0.22,1.6600000000000001,-0.42542400517361784,1.2784536770858463,-0.42542400517361784,0.43014768461632313,-0.27223462482173466,0.9426892966929895,0,0,0,0,0,0,1500,1500,1500,1500,1500,1500
1747533986.906507,1.08,0.22,1.6600000000000001,-0.42542400517361784,1.2784536770858463,-0.42542400517361784,0.43014768461632313,-0.27223462482173466,0.9426892966929895,0,0,0,0,0,0,1500,1500,1500,1500,1500,1500
1747533987.0056148,0.34,0.43,0.75,-0.24652775684419906,0.5388704065532492,-0.14508049407202864,0.3815680482446435,-0.1352517270160681,0.9622820936707991,0,0,0,0,0,0,1500,1500,1500,1500,1500,1500
1747533987.105726,-0.02,-0.13,-0.12,-0.29561514205653955,0.08835729338221293,-0.1265363707695889,0.3422886292843473,-0.08883267586162227,0.961857067993,0,0,0,0,0,0,1500,1500,1500,1500,1500,1500
1747533987.2053041,-0.02,-0.13,-0.12,-0.29561514205653955,0.08835729338221293,-0.1265363707695889,0.3422886292843473,-0.08883267586162227,0.961857067993,0,0,0,0,0,0,1500,1500,1500,1500,1500,1500
1747533987.305583,-0.19,-0.28,-0.42,-0.4505131131710363,-0.22143864884678055,-0.19744037163185854,0.28849382832703657,-0.08919610118288125,0.9357726814210898,0,0,0,0,0,0,1500,1500,1500,1500,1500,1500
1747533987.3885107,-0.19,-0.28,-0.42,-0.4505131131710363,-0.22143864884678055,-0.19744037163185854,0.28849382832703657,-0.08919610118288125,0.9357726814210898,0,0,0,0,0,0,1500,1500,1500,1500,1500,1500
1747533987.489584,-0.1,-0.24,-0.31,-0.48978302134090873,-0.3097959422289935,-0.23452861823673804,0.21877740063281143,-0.12233347595929268,0.8911020028865314,0,0,0,0,0,0,1500,1500,1500,1500,1500,1500
1747533987.5894136,0.23,-0.25,-0.19,-0.45705809786601503,-0.32288591161895097,-0.17889624832941878,0.1504223419636782,-0.16390636568739367,1.896542173597017,0,0,0,0,0,0,1500,1500,1500,1500,1500,1500
1747533987.6724048,0.23,-0.25,-0.19,-0.45705809786601503,-0.32288591161895097,-0.17889624832941878,0.1504223419636782,-0.16390636568739367,1.896542173597017,0,0,0,0,0,0,1500,1500,1500,1500,1500,1500
1747533987.7725284,-0.14,-0.3,-0.18,-0.3948807432637171,-0.24107360293171676,-0.07417649320975901,0.08830745477973276,-0.2068222406429165,1.8717407873250327,0,0,0,0,0,0,1500,1500,1500,1500,1500,1500
1747533987.8566208,-0.14,-0.3,-0.18,-0.3948807432637171,-0.24107360293171676,-0.07417649320975901,0.08830745477973276,-0.2068222406429165,1.8717407873250327,0,0,0,0,0,0,1500,1500,1500,1500,1500,1500
1747533987.9555805,-0.18,-0.13,-0.42,-0.2617993877991494,-0.038179077387375956,0.06326818538479445,0.03632759090426522,-0.22747894813732703,1.8713778128325513,0,0,0,0,0,0,1500,1500,1500,1500,1500,1500
1747533988.044619,-0.12,-0.14,-0.44,-0.19853120241435498,0.04799655442984406,0.09490227807719166,-0.002140619009002099,-0.22503407346375662,1.8868318615424675,0,0,0,0,0,0,1500,1500,1500,1500,1500,1500
1747533988.1396868,-0.12,-0.14,-0.44,-0.19853120241435498,0.04799655442984406,0.09490227807719166,-0.002140619009002099,-0.22503407346375662,1.8868318615424675,0,0,0,0,0,0,1500,1500,1500,1500,1500,1500
1747533988.2388418,-0.1,-0.15,-0.39,-0.11562806294462433,0.09708393964218458,0.044724062082354694,-0.03150301022464931,-0.2137970916895722,1.8959453153217878,0,0,0,0,0,0,1500,1500,1500,1500,1500,1500
1747533988.339192,-0.1,-0.15,-0.39,-0.11562806294462433,0.09708393964218458,0.044724062082354694,-0.03150301022464931,-0.2137970916895722,1.8959453153217878,0,0,0,0,0,0,1500,1500,1500,1500,1500,1500
1747533988.42213,-0.17,-0.14,-0.26,0.006544984694978736,0.13526301702956053,0.13744467859455345,-0.04391218974125298,-0.19394079671146935,1.9086653501188002,0,0,0,0,0,0,1500,1500,1500,1500,1500,1500
1747533988.5220675,-0.17,-0.14,-0.26,0.006544984694978736,0.13526301702956053,0.13744467859455345,-0.04391218974125298,-0.19394079671146935,1.9086653501188002,0,0,0,0,0,0,1500,1500,1500,1500,1500,1500
1747533988.6219854,-0.11,0.0,-0.2,0.1341721862470641,0.19962203319685143,0.17889624832941878,-0.03748034843995528,-0.16511596724711655,1.9294255956523947,0,0,0,0,0,0,1500,1500,1500,1500,1500,1500
1747533988.7218487,-0.05,-0.07,-0.5,0.25416357232167425,0.1712604328519436,0.1265363707695889,-0.011058049555076306,-0.13466550446077516,1.9509319904035163,0,0,0,0,0,0,1500,1500,1500,1500,1500,1500
1747533988.821808,-0.05,-0.07,-0.5,0.25416357232167425,0.1712604328519436,0.1265363707695889,-0.011058049555076306,-0.13466550446077516,1.9509319904035163,0,0,0,0,0,0,1500,1500,1500,1500,1500,1500
1747533988.9054978,-0.04,-0.04,-0.19,0.36760997370130566,0.10144726277217041,0.06763150851478027,0.034112684597506805,-0.11310233276164475,1.9644247623935582,0,0,0,0,0,0,1500,1500,1500,1500,1500,1500
1747533989.005384,-0.04,-0.04,-0.19,0.36760997370130566,0.10144726277217041,0.06763150851478027,0.034112684597506805,-0.11310233276164475,1.9644247623935582,0,0,0,0,0,0,1500,1500,1500,1500,1500,1500
1747533989.1055253,-0.06,-0.17,-0.07,0.46142142099600086,0.07963064712224129,0.07417649320975901,0.0968336645429254,-0.10143377382451664,1.971340731676622,0,0,0,0,0,0,1500,1500,1500,1500,1500,1500
1747533989.2055814,-0.02,-0.08,-0.09,0.5912302841130791,0.061086523819801536,0.05345070834232634,0.17800367336150824,-0.0916281893372921,1.9826000872603582,0,0,0,0,0,0,1500,1500,1500,1500,1500,1500
1747533989.305928,-0.02,-0.08,-0.09,0.5912302841130791,0.061086523819801536,0.05345070834232634,0.17800367336150824,-0.0916281893372921,1.9826000872603582,0,0,0,0,0,0,1500,1500,1500,1500,1500,1500
1747533989.388624,-0.01,-0.09,-0.19,0.7112216701876893,0.05781403147231216,0.011999138607461015,0.2791485502374535,-0.08418702776474725,1.989590745480266,0,0,0,0,0,0,1500,1500,1500,1500,1500,1500
1747533989.4904077,0.0,-0.16,-0.31,0.8115781021773633,0.03381575425739013,-0.038179077387375956,0.39793347797560313,-0.07738263436346267,1.9892313579038405,0,0,0,0,0,0,1500,1500,1500,1500,1500,1500
1747533989.5884655,0.0,-0.16,-0.31,0.8115781021773633,0.03381575425739013,-0.038179077387375956,0.39793347797560313,-0.07738263436346267,1.9892313579038405,0,0,0,0,0,0,1500,1500,1500,1500,1500,1500
1747533989.6720977,0.04,-0.14,-0.25,0.8759371183446542,0.00545415391248228,-0.06654067773228381,0.5218239417336568,-0.07144851193913385,1.9850866187722074,0,0,0,0,0,0,1500,1500,1500,1500,1500,1500
1747533989.7721658,0.04,-0.14,-0.25,0.8759371183446542,0.00545415391248228,-0.06654067773228381,0.5218239417336568,-0.07144851193913385,1.9850866187722074,0,0,0,0,0,0,1500,1500,1500,1500,1500,1500
1747533989.8722758,0.06,-0.18,-0.24,0.9086620418195478,-0.011999138607461015,-0.09490227807719166,0.6695202593445646,-0.06428646990131798,1.9770428947333234,0,0,0,0,0,0,1500,1500,1500,1500,1500,1500
1747533989.9721348,0.06,-0.19,-0.23,0.9152070265145266,-0.037088246604879506,-0.12326387842209953,0.8120032652896731,-0.0550153202790066,1.9630522594283109,0,0,0,0,0,0,1500,1500,1500,1500,1500,1500
1747533990.0721889,0.06,-0.19,-0.23,0.9152070265145266,-0.037088246604879506,-0.12326387842209953,0.8120032652896731,-0.0550153202790066,1.9630522594283109,0,0,0,0,0,0,1500,1500,1500,1500,1500,1500
1747533990.1550736,-0.04,-0.22,-0.19,0.9152070265145266,-0.037088246604879506,-0.12326387842209953,0.9443528749911835,-0.04565305449991563,1.9508012065219749,0,0,0,0,0,0,1500,1500,1500,1500,1500,1500
1747533990.25619,-0.04,-0.22,-0.19,0.9152070265145266,-0.037088246604879506,-0.12326387842209953,0.9443528749911835,-0.04565305449991563,1.9508012065219749,0,0,0,0,0,0,1500,1500,1500,1500,1500,1500
1747533990.3558605,-0.03,-0.44,-0.18,0.8508480103472357,-0.08726646259971647,-0.13853550937704992,1.0806983734708466,-0.03472340465955308,1.9385818340588905,0,0,0,0,0,0,1500,1500,1500,1500,1500,1500
1747533990.4560175,0.06,-0.48,-0.17,0.7613998861825263,-0.11344640137963143,-0.10690141668465268,1.2063258308668499,-0.023446472905417022,1.929144240173103,0,0,0,0,0,0,1500,1500,1500,1500,1500,1500
1747533990.5552983,0.06,-0.48,-0.17,0.7613998861825263,-0.11344640137963143,-0.10690141668465268,1.2063258308668499,-0.023446472905417022,1.929144240173103,0,0,0,0,0,0,1500,1500,1500,1500,1500,1500
1747533990.6456983,0.09,-0.47000000000000003,-0.18,0.619591884457987,-0.15817046346198613,0.008726646259971648,1.3130898090044163,-0.02197982766761988,1.9209519885471686,0,0,0,0,0,0,1500,1500,1500,1500,1500,1500
1747533990.7393231,0.09,-0.47000000000000003,-0.18,0.619591884457987,-0.15817046346198613,0.008726646259971648,1.3130898090044163,-0.02197982766761988,1.9209519885471686,0,0,0,0,0,0,1500,1500,1500,1500,1500,1500
1747533990.8390608,0.05,-0.54,-0.3,0.4930555136883981,-0.1461713248545251,0.08835729338221293,1.3991628000214948,-0.03652030612684483,1.9140951647409592,0,0,0,0,0,0,1500,1500,1500,1500,1500,1500
1747533990.922407,0.05,-0.54,-0.3,0.4930555136883981,-0.1461713248545251,0.08835729338221293,1.3991628000214948,-0.03652030612684483,1.9140951647409592,0,0,0,0,0,0,1500,1500,1500,1500,1500,1500
1747533991.0228312,0.0,-0.6,-0.25,0.3883357585687383,-0.15707963267948966,0.16907877128695067,1.468750760309036,-0.06017629558261291,1.9000644128375224,0,0,0,0,0,0,1500,1500,1500,1500,1500,1500
1747533991.122707,0.06,-0.52,-0.16,0.3108867730114899,-0.14835298641951802,0.25634523388666713,1.525013996093498,-0.09585319088386081,1.9083501546430677,0,0,0,0,0,0,1500,1500,1500,1500,1500,1500
1747533991.2221029,0.06,-0.52,-0.16,0.3108867730114899,-0.14835298641951802,0.25634523388666713,1.525013996093498,-0.09585319088386081,1.9083501546430677,0,0,0,0,0,0,1500,1500,1500,1500,1500,1500
1747533991.3220131,0.08,-0.41000000000000003,-0.04,0.22580197197676638,-0.16580627893946132,0.3097959422289935,1.5671160116263438,-0.1388077041667712,1.903122508995448,0,0,0,0,0,0,1500,1500,1500,1500,1500,1500
1747533991.405418,0.06,-0.38,-0.04,0.18544123302439752,-0.17016960206944712,0.3272492347489368,-2.771109023184798,-1.5707963267948966,-2.9071764991499855,0,0,0,0,0,0,1500,1500,1500,1500,1500,1500
1747533991.5056958,0.06,-0.38,-0.04,0.18544123302439752,-0.17016960206944712,0.3272492347489368,-2.771109023184798,-1.5707963267948966,-2.9071764991499855,0,0,0,0,0,0,1500,1500,1500,1500,1500,1500
1747533991.6060524,0.03,-0.41000000000000003,-0.14,0.16253378659197193,-0.17889624832941878,0.3327033886614191,1.6371838327160069,-0.23994841316102183,1.886830149345124,0,0,0,0,0,0,1500,1500,1500,1500,1500,1500
1747533991.7048469,0.03,-0.41000000000000003,-0.14,0.16253378659197193,-0.17889624832941878,0.3327033886614191,1.6371838327160069,-0.23994841316102183,1.886830149345124,0,0,0,0,0,0,1500,1500,1500,1500,1500,1500
1747533991.8056686,0.0,-0.48,-0.17,0.14289883250703572,-0.16798794050445423,0.2683443724941282,1.671016473095887,-0.2861000976109324,1.8746691649899183,0,0,0,0,0,0,1500,1500,1500,1500,1500,1500
1747533991.889182,-0.06,-0.45,-0.12,0.12435470920459599,-0.14180800172453928,0.16580627893946132,1.7027228261735423,-0.3178373906836873,1.8648488839468702,0,0,0,0,0,0,1500,1500,1500,1500,1500,1500
1747533991.989415,-0.06,-0.45,-0.12,0.12435470920459599,-0.14180800172453928,0.16580627893946132,1.7027228261735423,-0.3178373906836873,1.8648488839468702,0,0,0,0,0,0,1500,1500,1500,1500,1500,1500
1747533992.088498,-0.01,-0.34,-0.03,0.10581058590215622,-0.1439896632895322,0.08617563181722002,1.730575477369963,-0.3341319473666339,1.864989777400514,0,0,0,0,0,0,1500,1500,1500,1500,1500,1500
1747533992.1719472,-0.01,-0.34,-0.03,0.10581058590215622,-0.1439896632895322,0.08617563181722002,1.730575477369963,-0.3341319473666339,1.864989777400514,0,0,0,0,0,0,1500,1500,1500,1500,1500,1500
1747533992.2726274,-0.02,-0.34,0.0,0.07308566242726255,-0.16907877128695067,0.05126904677733343,1.7544298300422072,-0.34091548194266424,1.8556071952190358,0,0,0,0,0,0,1500,1500,1500,1500,1500,1500
1747533992.3725717,-0.04,-0.36,0.0,0.055632369907319255,-0.1832595714594046,0.011999138607461015,1.7732834030367084,-0.341526702861827,1.8454452163745272,0,0,0,0,0,0,1500,1500,1500,1500,1500,1500
1747533992.4742486,-0.04,-0.36,0.0,0.055632369907319255,-0.1832595714594046,0.011999138607461015,1.7732834030367084,-0.341526702861827,1.8454452163745272,0,0,0,0,0,0,1500,1500,1500,1500,1500,1500
1747533992.5722806,0.06,-0.12,-0.07,0.03490658503988659,-0.1734420944169365,-0.06435901616729091,1.7907510857105489,-0.3326074540083234,1.8285361324173632,0,0,0,0,0,0,1500,1500,1500,1500,1500,1500
1747533992.6560297,0.06,-0.12,-0.07,0.03490658503988659,-0.1734420944169365,-0.06435901616729091,1.7907510857105489,-0.3326074540083234,1.8285361324173632,0,0,0,0,0,0,1500,1500,1500,1500,1500,1500
1747533992.7558699,0.08,-0.11,-0.04,0.01090830782496456,-0.16580627893946132,-0.12217304763960307,1.8030441466444962,-0.3133987409271321,1.8227116589064647,0,0,0,0,0,0,1500,1500,1500,1500,1500,1500
1747533992.85646,0.07,-0.07,-0.05,-0.007635815477475192,-0.16035212502697901,-0.12435470920459599,1.810381930734992,-0.28977488335734847,1.8155815670533726,0,0,0,0,0,0,1500,1500,1500,1500,1500,1500
1747533992.9565747,0.07,-0.07,-0.05,-0.007635815477475192,-0.16035212502697901,-0.12435470920459599,1.810381930734992,-0.28977488335734847,1.8155815670533726,0,0,0,0,0,0,1500,1500,1500,1500,1500,1500
1747533993.0558434,0.03,-0.15,-0.02,-0.016362461737446838,-0.1712604328519436,-0.1090830782496456,1.8148028866429424,-0.2666814069209597,1.802996440192866,0,0,0,0,0,0,1500,1500,1500,1500,1500,1500
1747533993.1387422,0.03,-0.15,-0.02,-0.016362461737446838,-0.1712604328519436,-0.1090830782496456,1.8148028866429424,-0.2666814069209597,1.802996440192866,0,0,0,0,0,0,1500,1500,1500,1500,1500,1500
1747533993.2386646,0.0,-0.2,0.03,-0.018544123302439753,-0.17562375598192942,-0.11017390903214205,1.8173638725028753,-0.24357935209161907,1.7934002483380487,0,0,0,0,0,0,1500,1500,1500,1500,1500,1500
1747533993.3383408,0.04,-0.2,-0.04,-0.022907446432425576,-0.14289883250703572,-0.11344640137963143,1.818608885679697,-0.22021229108778576,1.7828440377306656,0,0,0,0,0,0,1500,1500,1500,1500,1500,1500
1747533993.42247,0.04,-0.2,-0.04,-0.022907446432425576,-0.14289883250703572,-0.11344640137963143,1.818608885679697,-0.22021229108778576,1.7828440377306656,0,0,0,0,0,0,1500,1500,1500,1500,1500,1500
1747533993.5227807,0.1,-0.14,-0.03,-0.026179938779914945,-0.13199052468207118,-0.07744898555724837,1.8181813043744246,-0.2003046170875378,1.77466809104575,0,0,0,0,0,0,1500,1500,1500,1500,1500,1500
1747533993.6226656,0.1,-0.14,-0.03,-0.026179938779914945,-0.13199052468207118,-0.07744898555724837,1.8181813043744246,-0.2003046170875378,1.77466809104575,0,0,0,0,0,0,1500,1500,1500,1500,1500,1500
1747533993.7219682,0.08,-0.17,0.07,-0.019634954084936207,-0.1308996938995747,-0.008726646259971648,1.8178267998614335,-0.18916606212215784,1.7584826610605693,0,0,0,0,0,0,1500,1500,1500,1500,1500,1500
1747533993.8221068,0.03,-0.21,0.0,-0.014180800172453928,-0.1265363707695889,0.04363323129985824,1.8188298330201274,-0.18766247899453073,1.7393589779463448,0,0,0,0,0,0,1500,1500,1500,1500,1500,1500
1747533993.9050643,0.03,-0.21,0.0,-0.014180800172453928,-0.1265363707695889,0.04363323129985824,1.8188298330201274,-0.18766247899453073,1.7393589779463448,0,0,0,0,0,0,1500,1500,1500,1500,1500,1500
1747533994.0053637,0.0,-0.21,0.0,-0.00545415391248228,-0.13526301702956053,0.037088246604879506,1.8218827177739567,-0.1890008968765398,1.7188873102603024,0,0,0,0,0,0,1500,1500,1500,1500,1500,1500
1747533994.1047964,0.02,-0.17,-0.1,-0.008726646259971648,-0.12326387842209953,0.09381144729469522,1.8259563375141883,-0.1926921402824421,1.7092741415508854,0,0,0,0,0,0,1500,1500,1500,1500,1500,1500
1747533994.1883564,0.02,-0.17,-0.1,-0.008726646259971648,-0.12326387842209953,0.09381144729469522,1.8259563375141883,-0.1926921402824421,1.7092741415508854,0,0,0,0,0,0,1500,1500,1500,1500,1500,1500
1747533994.289072,0.09,-0.14,-0.06,-0.019634954084936207,-0.11235557059713497,0.08835729338221293,1.8293920124140413,-0.20235536422039938,1.6999808925922475,0,0,0,0,0,0,1500,1500,1500,1500,1500,1500
1747533994.3721044,0.09,-0.14,-0.06,-0.019634954084936207,-0.11235557059713497,0.08835729338221293,1.8293920124140413,-0.20235536422039938,1.6999808925922475,0,0,0,0,0,0,1500,1500,1500,1500,1500,1500
1747533994.472589,0.09,-0.13,0.02,-0.0272707695624114,-0.11780972450961724,0.07853981633974483,1.8298555950082813,-0.21075711574005374,1.6840813595409878,0,0,0,0,0,0,1500,1500,1500,1500,1500,1500
1747533994.572349,0.09,-0.13,0.02,-0.0272707695624114,-0.11780972450961724,0.07853981633974483,1.8298555950082813,-0.21075711574005374,1.6840813595409878,0,0,0,0,0,0,1500,1500,1500,1500,1500,1500
1747533994.6553464,-0.07,-0.38,0.17,-0.05126904677733343,-0.10799224746714914,0.1265363707695889,1.8324452404003029,-0.22084926750957667,1.6673202124326796,0,0,0,0,0,0,1500,1500,1500,1500,1500,1500
1747533994.755968,-0.06,-0.07,0.17,-0.01090830782496456,-0.12762720155208535,0.11453723216212788,1.8337324246113718,-0.23624580908980627,1.6443191866723845,0,0,0,0,0,0,1500,1500,1500,1500,1500,1500
1747533994.8554296,-0.06,-0.07,0.17,-0.01090830782496456,-0.12762720155208535,0.11453723216212788,1.8337324246113718,-0.23624580908980627,1.6443191866723845,0,0,0,0,0,0,1500,1500,1500,1500,1500,1500
1747533994.955113,0.04,-0.04,-0.03,-0.02399827721492203,-0.13853550937704992,0.039269908169872414,1.8366366930422013,-0.2421513225176736,1.638344062984513,0,0,0,0,0,0,1500,1500,1500,1500,1500,1500
1747533995.0561478,0.04,-0.04,-0.03,-0.02399827721492203,-0.13853550937704992,0.039269908169872414,1.8366366930422013,-0.2421513225176736,1.638344062984513,0,0,0,0,0,0,1500,1500,1500,1500,1500,1500
1747533995.1382864,0.15,-0.04,-0.03,-0.06326818538479445,-0.13962634015954636,0.004363323129985824,1.8364752529393773,-0.2390713891253757,1.6281851430922512,0,0,0,0,0,0,1500,1500,1500,1500,1500,1500
1747533995.2389424,0.09,-0.14,-0.03,-0.07526732399225546,-0.12217304763960307,0.011999138607461015,1.8300602927617986,-0.23550453656347883,1.6142411543366904,0,0,0,0,0,0,1500,1500,1500,1500,1500,1500
1747533995.3393202,0.09,-0.14,-0.03,-0.07526732399225546,-0.12217304763960307,0.011999138607461015,1.8300602927617986,-0.23550453656347883,1.6142411543366904,0,0,0,0,0,0,1500,1500,1500,1500,1500,1500
1747533995.4219878,0.0,-0.18,-0.03,-0.11235557059713497,-0.1341721862470641,-0.017453292519943295,1.8219048281472827,-0.23140047607461878,1.5981177125039476,0,0,0,0,0,0,1500,1500,1500,1500,1500,1500
1747533995.5224035,0.0,-0.18,-0.03,-0.11235557059713497,-0.1341721862470641,-0.017453292519943295,1.8219048281472827,-0.23140047607461878,1.5981177125039476,0,0,0,0,0,0,1500,1500,1500,1500,1500,1500
1747533995.6220078,0.01,-0.1,0.07,-0.17562375598192942,-0.16580627893946132,-0.06217735460229799,1.8051197123375757,-0.21945905154382692,1.580650079963406,0,0,0,0,0,0,1500,1500,1500,1500,1500,1500
1747533995.722064,0.17,-0.05,0.01,-0.2279836335417593,-0.12435470920459599,-0.06217735460229799,1.7775753992798211,-0.20429678243881624,1.5699252333216098,0,0,0,0,0,0,1500,1500,1500,1500,1500,1500
1747533995.8217592,0.17,-0.05,0.01,-0.2279836335417593,-0.12435470920459599,-0.06217735460229799,1.7775753992798211,-0.20429678243881624,1.5699252333216098,0,0,0,0,0,0,1500,1500,1500,1500,1500,1500
1747533995.9056098,0.18,-0.11,0.01,-0.2694352032766246,-0.07090400086226964,0.002181661564992912,1.7446332275099072,-0.19764036180917421,1.5656067571444179,0,0,0,0,0,0,1500,1500,1500,1500,1500,1500
1747533996.0052335,0.18,-0.11,0.01,-0.2694352032766246,-0.07090400086226964,0.002181661564992912,1.7446332275099072,-0.19764036180917421,1.5656067571444179,0,0,0,0,0,0,1500,1500,1500,1500,1500,1500
1747533996.105451,0.0,-0.13,0.13,-0.3076142806640006,-0.025089107997418487,0.06326818538479445,1.7012299538474949,-0.20295017931553824,1.5579332654546296,0,0,0,0,0,0,1500,1500,1500,1500,1500,1500
1747533996.2058375,-0.04,-0.13,-0.05,-0.3021601267515183,-0.014180800172453928,0.05781403147231216,1.654283666873429,-0.213085903421823,1.5582935640690636,0,0,0,0,0,0,1500,1500,1500,1500,1500,1500
1747533996.3060515,-0.04,-0.13,-0.05,-0.3021601267515183,-0.014180800172453928,0.05781403147231216,1.654283666873429,-0.213085903421823,1.5582935640690636,0,0,0,0,0,0,1500,1500,1500,1500,1500,1500
1747533996.3889344,0.04,-0.16,-0.08,-0.32506757318394386,-0.037088246604879506,0.04254240051736178,1.6081427203231888,-0.22054107968519582,1.5516504437645784,0,0,0,0,0,0,1500,1500,1500,1500,1500,1500
1747533996.4888306,0.08,-0.21,0.02,-0.3523383427463553,-0.01090830782496456,0.09272061651219876,1.55682423044481,-0.2307875701266553,1.5411170259791538,0,0,0,0,0,0,1500,1500,1500,1500,1500,1500
1747533996.5893147,0.08,-0.21,0.02,-0.3523383427463553,-0.01090830782496456,0.09272061651219876,1.55682423044481,-0.2307875701266553,1.5411170259791538,0,0,0,0,0,0,1500,1500,1500,1500,1500,1500
1747533996.6720567,0.02,-0.04,0.02,-0.33488505022641196,0.025089107997418487,0.13308135546456762,1.5034913113449193,-0.2492074534671408,1.5438572209303782,0,0,0,0,0,0,1500,1500,1500,1500,1500,1500
1747533996.7721503,0.02,-0.04,0.02,-0.33488505022641196,0.025089107997418487,0.13308135546456762,1.5034913113449193,-0.2492074534671408,1.5438572209303782,0,0,0,0,0,0,1500,1500,1500,1500,1500,1500
1747533996.8724427,0.01,-0.03,0.0,-0.35779249665883756,-0.014180800172453928,0.1265363707695889,1.4354677983280169,-0.2772950525792214,1.5323947995352458,0,0,0,0,0,0,1500,1500,1500,1500,1500,1500
1747533996.9672852,-0.03,-0.13,-0.07,-0.34797501961636945,-0.026179938779914945,0.12217304763960307,1.3937941222953696,-0.2889198660532453,1.5359569363492733,0,0,0,0,0,0,1500,1500,1500,1500,1500,1500
1747533997.0720825,-0.03,-0.13,-0.07,-0.34797501961636945,-0.026179938779914945,0.12217304763960307,1.3937941222953696,-0.2889198660532453,1.5359569363492733,0,0,0,0,0,0,1500,1500,1500,1500,1500,1500
1747533997.1551995,0.05,-0.23,-0.12,-0.29343348049154666,-0.009817477042468103,0.08617563181722002,1.3432152993177757,-0.3061851653911313,1.5352837332773093,0,0,0,0,0,0,1500,1500,1500,1500,1500,1500
1747533997.256021,0.05,-0.23,-0.12,-0.29343348049154666,-0.009817477042468103,0.08617563181722002,1.3432152993177757,-0.3061851653911313,1.5352837332773093,0,0,0,0,0,0,1500,1500,1500,1500,1500,1500
1747533997.355701,0.09,-0.22,-0.13,-0.27598018797160334,-0.008726646259971648,0.05672320068981571,1.2993926117134695,-0.3169236662481454,1.53298839912243,0,0,0,0,0,0,1500,1500,1500,1500,1500,1500
1747533997.45615,0.04,-0.13,-0.01,-0.26616271092913524,-0.009817477042468103,0.08617563181722002,1.2570364035288757,-0.32964400820900186,1.52951643626208,0,0,0,0,0,0,1500,1500,1500,1500,1500,1500
1747533997.5553374,0.04,-0.13,-0.01,-0.26616271092913524,-0.009817477042468103,0.08617563181722002,1.2570364035288757,-0.32964400820900186,1.52951643626208,0,0,0,0,0,0,1500,1500,1500,1500,1500,1500
1747533997.6386006,-0.11,-0.04,0.0,-0.23452861823673804,-0.026179938779914945,0.07853981633974483,1.2174260121299232,-0.3425762488355276,1.532552235423225,0,0,0,0,0,0,1500,1500,1500,1500,1500,1500
1747533997.7382586,-0.11,-0.04,0.0,-0.23452861823673804,-0.026179938779914945,0.07853981633974483,1.2174260121299232,-0.3425762488355276,1.532552235423225,0,0,0,0,0,0,1500,1500,1500,1500,1500,1500
1747533997.8393807,-0.12,-0.05,-0.17,-0.19525871006686563,-0.04254240051736178,0.015271630954950384,1.187478187967006,-0.35115223181477423,1.5302147055630841,0,0,0,0,0,0,1500,1500,1500,1500,1500,1500
1747533997.9224486,-0.12,-0.05,-0.17,-0.19525871006686563,-0.04254240051736178,0.015271630954950384,1.187478187967006,-0.35115223181477423,1.5302147055630841,0,0,0,0,0,0,1500,1500,1500,1500,1500,1500
1747533998.0221505,0.0,-0.11,-0.14,-0.15271630954950383,-0.003272492347489368,-0.07853981633974483,1.1633606578289422,-0.34807100041235206,1.5233533967066573,0,0,0,0,0,0,1500,1500,1500,1500,1500,1500
1747533998.1221075,0.13,-0.14,-0.08,-0.08726646259971647,0.04036073895236887,-0.08508480103472356,1.1455881972470572,-0.3340989888065651,1.5200252670196184,0,0,0,0,0,0,1500,1500,1500,1500,1500,1500
1747533998.2222044,0.13,-0.14,-0.08,-0.08726646259971647,0.04036073895236887,-0.08508480103472356,1.1455881972470572,-0.3340989888065651,1.5200252670196184,0,0,0,0,0,0,1500,1500,1500,1500,1500,1500
1747533998.3225548,0.05,-0.15,-0.06,-0.055632369907319255,0.014180800172453928,-0.028361600344907856,1.135367816535081,-0.32552895213857014,1.5214160506249816,0,0,0,0,0,0,1500,1500,1500,1500,1500,1500
1747533998.4057322,-0.14,-0.12,-0.02,-0.028361600344907856,-0.044724062082354694,-0.018544123302439753,1.1300334955375915,-0.32435329173646776,1.51742176504875,0,0,0,0,0,0,1500,1500,1500,1500,1500,1500
1747533998.5055408,-0.14,-0.12,-0.02,-0.028361600344907856,-0.044724062082354694,-0.018544123302439753,1.1300334955375915,-0.32435329173646776,1.51742176504875,0,0,0,0,0,0,1500,1500,1500,1500,1500,1500
1747533998.6053107,-0.09,-0.09,-0.07,-0.016362461737446838,-0.00545415391248228,-0.12980886311707826,1.1300795263243748,-0.3155215018204931,1.5078864295668613,0,0,0,0,0,0,1500,1500,1500,1500,1500,1500
1747533998.7053654,-0.09,-0.09,-0.07,-0.016362461737446838,-0.00545415391248228,-0.12980886311707826,1.1300795263243748,-0.3155215018204931,1.5078864295668613,0,0,0,0,0,0,1500,1500,1500,1500,1500,1500
1747533998.8062217,0.04,-0.14,-0.14,0.00545415391248228,0.039269908169872414,-0.17016960206944712,1.131311324394848,-0.29247593332054017,1.500218263991838,0,0,0,0,0,0,1500,1500,1500,1500,1500,1500
1747533998.8912203,0.12,-0.11,-0.12,0.022907446432425576,-0.001090830782496456,-0.044724062082354694,1.1343418423380935,-0.2749498285144005,1.4958625818820284,0,0,0,0,0,0,1500,1500,1500,1500,1500,1500
1747533998.989706,0.12,-0.11,-0.12,0.022907446432425576,-0.001090830782496456,-0.044724062082354694,1.1343418423380935,-0.2749498285144005,1.4958625818820284,0,0,0,0,0,0,1500,1500,1500,1500,1500,1500
1747533999.08961,-0.06,-0.07,-0.11,0.037088246604879506,-0.055632369907319255,0.02181661564992912,1.140514259599706,-0.27745382070957225,1.4909940342140247,0,0,0,0,0,0,1500,1500,1500,1500,1500,1500
1747533999.1895552,-0.06,-0.07,-0.11,0.037088246604879506,-0.055632369907319255,0.02181661564992912,1.140514259599706,-0.27745382070957225,1.4909940342140247,0,0,0,0,0,0,1500,1500,1500,1500,1500,1500
1747533999.2913651,-0.12,-0.07,-0.06,0.022907446432425576,-0.03599741582238305,-0.04799655442984406,1.1480603802706582,-0.2799354512035892,1.4831001376919948,0,0,0,0,0,0,1500,1500,1500,1500,1500,1500
1747533999.3742056,0.0,-0.16,-0.08,0.022907446432425576,0.02181661564992912,-0.1090830782496456,1.1530633555605034,-0.26759937209603457,1.4774217805751009,0,0,0,0,0,0,1500,1500,1500,1500,1500,1500
1747533999.473784,0.0,-0.16,-0.08,0.022907446432425576,0.02181661564992912,-0.1090830782496456,1.1530633555605034,-0.26759937209603457,1.4774217805751009,0,0,0,0,0,0,1500,1500,1500,1500,1500,1500
1747533999.5720804,0.13,-0.19,-0.06,0.020725784867432664,0.039269908169872414,-0.030543261909900768,1.1558627766567995,-0.25418024118835664,1.4779508966849937,0,0,0,0,0,0,1500,1500,1500,1500,1500,1500
1747533999.657204,0.13,-0.19,-0.06,0.020725784867432664,0.039269908169872414,-0.030543261909900768,1.1558627766567995,-0.25418024118835664,1.4779508966849937,0,0,0,0,0,0,1500,1500,1500,1500,1500,1500
1747533999.758495,0.06,-0.08,0.0,0.025089107997418487,0.008726646259971648,0.07635815477475191,1.157989942354118,-0.2569785771558283,1.48368304865551,0,0,0,0,0,0,1500,1500,1500,1500,1500,1500
1747533999.8572874,-0.1,-0.08,0.0,0.032724923474893676,-0.013089969389957472,0.07417649320975901,1.1614557459769466,-0.27021292847902545,1.488402955718637,0,0,0,0,0,0,1500,1500,1500,1500,1500,1500
1747533999.956477,-0.1,-0.08,0.0,0.032724923474893676,-0.013089969389957472,0.07417649320975901,1.1614557459769466,-0.27021292847902545,1.488402955718637,0,0,0,0,0,0,1500,1500,1500,1500,1500,1500
1747534000.0572622,-0.08,-0.15,-0.01,0.02181661564992912,0.018544123302439753,-0.011999138607461015,1.1652764827766624,-0.2747180599194999,1.4901657013699976,0,0,0,0,0,0,1500,1500,1500,1500,1500,1500
1747534000.1390407,-0.08,-0.15,-0.01,0.02181661564992912,0.018544123302439753,-0.011999138607461015,1.1652764827766624,-0.2747180599194999,1.4901657013699976,0,0,0,0,0,0,1500,1500,1500,1500,1500,1500
1747534000.238806,0.03,-0.2,-0.1,0.006544984694978736,0.0545415391248228,-0.018544123302439753,1.1660446685419419,-0.2690067129985473,1.4943256178485012,0,0,0,0,0,0,1500,1500,1500,1500,1500,1500
1747534000.338884,0.1,-0.05,-0.14,0.018544123302439753,0.050178215994836975,0.061086523819801536,1.1646898153876235,-0.26853351794735786,1.5039800626259465,-1,0,0,0,0,0,1540,1460,1463,1460,1460,1540
1747534000.4226751,0.1,-0.05,-0.14,0.018544123302439753,0.050178215994836975,0.061086523819801536,1.1646898153876235,-0.26853351794735786,1.5039800626259465,-1,0,0,0,0,0,1553,1446,1463,1420,1420,1580
1747534000.5233598,0.0,-0.02,-0.02,0.02945243112740431,0.04690572364734761,0.12435470920459599,1.1651677733218455,-0.2798062993771494,1.5176432065061625,0,0,0,0,0,0,1513,1486,1500,1460,1460,1540
1747534000.6066942,0.0,-0.02,-0.02,0.02945243112740431,0.04690572364734761,0.12435470920459599,1.1651677733218455,-0.2798062993771494,1.5176432065061625,0,0,0,0,0,0,1500,1500,1500,1500,1500,1500
1747534000.707344,-0.22,-0.26,-0.25,0.015271630954950384,0.04036073895236887,0.15162547876700738,1.1647864929335607,-0.29469167320417955,1.5327750157232423,0,0,0,0,0,0,1500,1500,1500,1500,1500,1500
1747534000.7990088,-0.22,-0.26,-0.09,-0.015271630954950384,0.05235987755982989,0.07308566242726255,1.1602487214791328,-0.3072053236644503,1.5471857089317385,0,0,0,0,0,0,1500,1500,1500,1500,1500,1500
1747534000.8892822,-0.22,-0.26,-0.09,-0.015271630954950384,0.05235987755982989,0.07308566242726255,1.1602487214791328,-0.3072053236644503,1.5471857089317385,0,0,0,0,0,0,1500,1500,1500,1500,1500,1500
1747534000.9897273,0.0,-0.12,-0.03,0.00545415391248228,0.06217735460229799,0.05235987755982989,1.1561795354933875,-0.31191049671238835,1.5600851488310765,0,0,0,0,0,0,1500,1500,1500,1500,1500,1500
1747534001.0894551,0.0,-0.12,-0.03,0.00545415391248228,0.06217735460229799,0.05235987755982989,1.1561795354933875,-0.31191049671238835,1.5600851488310765,0,0,0,0,0,0,1500,1500,1500,1500,1500,1500
1747534001.1737585,0.08,-0.01,0.0,0.013089969389957472,0.055632369907319255,0.05890486225480862,1.1522936779120265,-0.3160520197997938,1.572837797080467,0,0,0,0,0,0,1500,1500,1500,1500,1500,1500
1747534001.271968,0.08,-0.01,0.0,0.013089969389957472,0.055632369907319255,0.05890486225480862,1.1522936779120265,-0.3160520197997938,1.572837797080467,0,0,0,0,0,0,1500,1500,1500,1500,1500,1500
1747534001.3570075,-0.01,-0.02,0.03,0.026179938779914945,0.02181661564992912,0.08290313946973066,1.151191670299836,-0.3240107138464356,1.5828693818285382,0,-4.432054,0,0,0,0,1460,1460,1460,1500,1500,1500
1747534001.463037,-0.01,-0.17,-0.12,0.04254240051736178,0.02399827721492203,0.06326818538479445,1.153483659963262,-0.333540193914055,1.5913031412063843,0,-12.5,0,0,0,0,1420,1420,1420,1500,1500,1500
1747534001.5574524,-0.01,-0.17,-0.12,0.04254240051736178,0.02399827721492203,0.06326818538479445,1.153483659963262,-0.333540193914055,1.5913031412063843,0,-12.5,0,0,0,0,1380,1380,1383,1500,1500,1500
1747534001.6408699,-0.37,-0.03,-0.41000000000000003,0.05890486225480862,0.038179077387375956,0.0272707695624114,1.158503716389865,-0.33790089153357483,1.6005876213153925,0,-12.5,0,0,0,0,1354,1359,1383,1500,1500,1500
1747534001.7392545,-0.37,-0.03,-0.41000000000000003,0.05890486225480862,0.038179077387375956,0.0272707695624114,1.158503716389865,-0.33790089153357483,1.6005876213153925,0,-12.5,0,0,0,0,1354,1359,1383,1500,1500,1500
1747534001.8391314,-0.12,-0.27,0.02,0.04363323129985824,-0.001090830782496456,-0.04363323129985824,1.1686315821406816,-0.33533967878242316,1.6006011357310725,0,-2.878419,0,0,0,0,1354,1359,1383,1500,1500,1500
1747534001.9214702,-0.12,-0.27,0.02,0.04363323129985824,-0.001090830782496456,-0.04363323129985824,1.1686315821406816,-0.33533967878242316,1.6006011357310725,0,0,0,0,0,0,1394,1399,1423,1500,1500,1500
1747534002.0212667,-0.71,-0.13,0.01,-0.1308996938995747,0.16035212502697901,-0.13526301702956053,1.160497241103382,-0.31562625153605633,1.6040994571187204,0,0,0,0,0,0,1434,1439,1463,1500,1500,1500
1747534002.106588,0.33,-0.11,-0.3,-0.16253378659197193,0.21598449493429828,-0.06217735460229799,1.1266197547069412,-0.28248062252513784,1.6303879800725922,0,0,0,0,0,0,1474,1479,1500,1500,1500,1500
1747534002.206176,0.33,-0.11,-0.3,-0.16253378659197193,0.21598449493429828,-0.06217735460229799,1.1266197547069412,-0.28248062252513784,1.6303879800725922,0,0,0,0,0,0,1500,1500,1500,1500,1500,1500
1747534002.3061337,0.23,-0.21,0.0,-0.1505346479845109,0.1636246173744684,-0.004363323129985824,1.094360932026924,-0.266727061429676,1.6566467673094074,0,0,0,0,0,0,1500,1500,1500,1500,1500,1500
1747534002.3879814,0.23,-0.21,0.0,-0.1505346479845109,0.1636246173744684,-0.004363323129985824,1.094360932026924,-0.266727061429676,1.6566467673094074,0,0,0,0,0,0,1500,1500,1500,1500,1500,1500
1747534002.4893448,0.22,0.0,-0.09,-0.0916297857297023,0.09490227807719166,0.030543261909900768,1.072961024583036,-0.2632900076244175,1.6745408522170722,0,-1.734821,0,0,0,0,1460,1460,1460,1500,1500,1500
1747534002.589396,0.08,-0.11,-0.06,-0.07744898555724837,0.05781403147231216,0.038179077387375956,1.056913511866609,-0.2644752586060969,1.6877474414771403,0,-10.145875,0,0,0,-0.019321,1420,1420,1420,1500,1500,1500
1747534002.6730413,0.08,-0.11,-0.06,-0.07744898555724837,0.05781403147231216,0.038179077387375956,1.056913511866609,-0.2644752586060969,1.6877474414771403,0,-11.489294,0,0,0,-0.030116,1380,1380,1383,1500,1500,1500
1747534002.773489,-0.1,-0.33,-0.18,-0.028361600344907856,0.022907446432425576,0.04799655442984406,1.046600529015056,-0.26636556375117765,1.6969792344532388,0,-12.090605,0,0,0,-0.032561,1354,1359,1383,1500,1500,1500
1747534002.872027,-0.1,-0.33,-0.18,-0.028361600344907856,0.022907446432425576,0.04799655442984406,1.046600529015056,-0.26636556375117765,1.6969792344532388,0,-12.5,0,0,0,-0.052349,1354,1359,1383,1500,1500,1500
1747534002.973483,-0.64,-0.28,0.21,0.06763150851478027,-0.09599310885968812,0.26070855701665296,1.051013545219317,-0.29064979382438755,1.7034752501692292,0,-12.5,0,0,0,-0.052349,1354,1359,1383,1500,1500,1500
1747534003.0723066,-0.8,-0.09,0.25,-0.0719948316447661,0.07308566242726255,0.2378011105842274,1.0472819010543335,-0.3348001986870988,1.7204662627516387,0,-12.5,0,0,0,-0.052349,1354,1359,1383,1500,1500,1500
1747534003.156678,-0.8,-0.09,0.25,-0.0719948316447661,0.07308566242726255,0.2378011105842274,1.0472819010543335,-0.3348001986870988,1.7204662627516387,0,-12.5,0,0,0,-0.052349,1354,1359,1383,1500,1500,1500
1747534003.256894,-0.09,-0.3,-0.16,-0.2628902185816459,0.17671458676442586,0.07635815477475191,1.0100541775672078,-0.3420383813777821,1.7518457450473466,0,-12.5,0,0,0,-0.052349,1354,1359,1383,1500,1500,1500
1747534003.356654,-0.09,-0.3,-0.16,-0.2628902185816459,0.17671458676442586,0.07635815477475191,1.0100541775672078,-0.3420383813777821,1.7518457450473466,0,-12.5,0,0,0,-0.052349,1354,1359,1383,1500,1500,1500
1747534003.4577203,-0.12,-0.12,-0.37,-0.2792526803190927,0.22689280275926285,0.05672320068981571,0.9563023480345889,-0.33080622621371214,1.7858220687533102,0,-12.5,0,0,0,-0.052349,1354,1359,1383,1500,1500,1500
1747534003.5572214,-0.29,-0.05,0.05,-0.27379852640661045,0.22143864884678055,0.050178215994836975,0.907986466174929,-0.3166173777988981,1.8183092734245538,0,-12.5,0,0,0,-0.052349,1354,1359,1383,1500,1500,1500
1747534003.6389446,-0.29,-0.05,0.05,-0.27379852640661045,0.22143864884678055,0.050178215994836975,0.907986466174929,-0.3166173777988981,1.8183092734245538,0,-12.5,0,0,0,-0.052349,1354,1359,1383,1500,1500,1500
1747534003.7396388,0.06,-0.14,-0.1,-0.2879793265790644,0.18762289458939044,0.06763150851478027,0.8541844348312838,-0.3027287704784134,1.8507590005964782,0,-12.5,0,0,0,-0.052349,1354,1359,1383,1500,1500,1500
1747534003.8355324,-0.03,-0.32,0.0,-0.27598018797160334,0.16035212502697901,0.0818123086872342,0.8015851524859151,-0.2918450304939436,1.880192722233531,0,-12.5,0,0,0,-0.052349,1354,1359,1383,1500,1500,1500
1747534003.922644,-0.03,-0.32,0.0,-0.27598018797160334,0.16035212502697901,0.0818123086872342,0.8015851524859151,-0.2918450304939436,1.880192722233531,0,-12.5,0,0,0,-0.052349,1354,1359,1383,1500,1500,1500
1747534004.0232956,-0.17,-0.04,-0.21,-0.26070855701665296,0.07417649320975901,0.07308566242726255,0.7531482482124587,-0.28707697027796997,1.9024479449886644,0,-12.5,0,0,0,-0.052349,1354,1359,1383,1500,1500,1500
1747534004.1065583,-0.17,-0.04,-0.21,-0.26070855701665296,0.07417649320975901,0.07308566242726255,0.7531482482124587,-0.28707697027796997,1.9024479449886644,0,-12.5,0,0,0,-0.023353,1354,1359,1383,1500,1500,1500
1747534004.2065506,0.03,-0.2,-0.23,-0.23343778745424157,0.002181661564992912,0.07526732399225546,0.7117545230327882,-0.2905868338144745,1.914529846916867,0,-12.5,0,0,0,-0.021289,1354,1359,1383,1500,1500,1500
1747534004.306041,0.03,-0.2,-0.23,-0.23343778745424157,0.002181661564992912,0.07526732399225546,0.7117545230327882,-0.2905868338144745,1.914529846916867,0,-12.5,0,0,0,-0.019321,1354,1359,1383,1500,1500,1500
1747534004.3884206,-0.16,-0.12,-0.16,-0.20616701789183017,-0.028361600344907856,0.0818123086872342,0.6756238864058706,-0.30003448136603134,1.923128147730948,0,-12.5,0,0,0,-0.019321,1354,1359,1383,1500,1500,1500
1747534004.4890866,-0.25,-0.08,-0.13,-0.20616701789183017,-0.06435901616729091,0.0916297857297023,0.642354292508319,-0.3144043705680357,1.928968657648232,0,-12.5,0,0,0,-0.019321,1354,1359,1383,1500,1500,1500
1747534004.5896623,-0.25,-0.08,-0.13,-0.20616701789183017,-0.06435901616729091,0.0916297857297023,0.642354292508319,-0.3144043705680357,1.928968657648232,0,-12.5,0,0,0,-0.019321,1354,1359,1383,1500,1500,1500
1747534004.6892571,-0.02,-0.12,-0.12,-0.1832595714594046,-0.11780972450961724,0.10581058590215622,0.6094795541527858,-0.3346306148531188,1.9338074795459959,0,-12.5,0,0,0,-0.019321,1354,1359,1383,1500,1500,1500
1747534004.7887733,-0.02,-0.12,-0.12,-0.1832595714594046,-0.11780972450961724,0.10581058590215622,0.6094795541527858,-0.3346306148531188,1.9338074795459959,0,-12.5,0,0,0,-0.019321,1354,1359,1383,1500,1500,1500
1747534004.8727982,-0.07,0.07,-0.1,-0.15817046346198613,-0.15707963267948966,0.11999138607461016,0.5820835541303425,-0.3624700707352445,1.9361558636622718,0,-12.5,0,0,0,-0.019321,1354,1359,1383,1500,1500,1500
1747534004.9735026,0.0,-0.07,-0.29,-0.12544553998709243,-0.16907877128695067,0.1189005552921137,0.5591033599501213,-0.3940555340918919,1.937934775046278,0,-0.125224,0,0,0,0,1394,1399,1423,1500,1500,1500
1747534005.0736177,0.0,-0.07,-0.29,-0.12544553998709243,-0.16907877128695067,0.1189005552921137,0.5591033599501213,-0.3940555340918919,1.937934775046278,0,0,0,0,0,0,1434,1439,1463,1500,1500,1500
1747534005.1554477,0.28,-0.2,-0.05,-0.06981317007977318,-0.1712604328519436,0.11999138607461016,0.5417976986922314,-0.4266709675942845,1.9403450551032517,0,0,0,0,0,0,1474,1479,1500,1500,1500,1500
1747534005.2560904,0.28,-0.2,-0.05,-0.06981317007977318,-0.1712604328519436,0.11999138607461016,0.5417976986922314,-0.4266709675942845,1.9403450551032517,0,0,0,0,0,0,1500,1500,1500,1500,1500,1500
1747534005.35583,0.5700000000000001,0.01,-0.26,0.04036073895236887,-0.1712604328519436,0.14726215563702155,0.5357001016308367,-0.463086822547099,1.9452149142118642,0,0,0,0,0,0,1500,1500,1500,1500,1500,1500
1747534005.4557316,0.22,0.02,-0.09,0.14289883250703572,-0.23234695667174513,0.16907877128695067,0.5478438110490473,-0.5040960721670685,1.9504123061122454,0,0,0,0,0.266302,0,1536,1536,1463,1500,1540,1460
1747534005.554532,0.22,0.02,-0.09,0.14289883250703572,-0.23234695667174513,0.16907877128695067,0.5478438110490473,-0.5040960721670685,1.9504123061122454,0,0,0,0,0.28,0,1536,1536,1463,1500,1580,1420
1747534005.6382394,0.0,0.0,-0.05,0.21271200258680892,-0.26070855701665296,0.18435040224190105,0.5735901790305227,-0.552218159521589,1.9536634375249806,0,0,0,0,0.28,0,1536,1536,1463,1500,1620,1380
1747534005.7389214,0.0,0.0,-0.05,0.21271200258680892,-0.26070855701665296,0.18435040224190105,0.5735901790305227,-0.552218159521589,1.9536634375249806,0,0,0,0,0.28,0,1536,1536,1463,1500,1645,1354
1747534005.8386776,0.27,-0.13,0.05,0.3719732968312915,-0.30325095753401476,0.17998707911191522,0.6129028426042774,-0.6047117925480066,1.9529334702652146,0,0,0,0,0.28,0,1536,1536,1463,1500,1645,1354
1747534005.9223695,-0.07,-0.41000000000000003,-0.2,1.177006414313676,-0.35561083509384467,0.21271200258680892,0.7146393748859508,-0.6637266044455551,1.9444856189766846,0,0,0,0,0.28,0,1536,1536,1463,1500,1645,1354
1747534006.0220454,-0.07,-0.41000000000000003,-0.2,1.177006414313676,-0.35561083509384467,0.21271200258680892,0.7146393748859508,-0.6637266044455551,1.9444856189766846,0,0,0,0,0.28,0,1536,1536,1463,1500,1645,1354
1747534006.1226358,-0.19,-0.14,-0.31,2.1031217486531673,-0.36979163526629855,0.2399827721492203,1.0026779833809811,-0.7276030304312509,1.919032722609542,0,0,0,0,0.28,0,1536,1536,1463,1500,1645,1354
1747534006.2233107,-0.19,-0.14,-0.31,2.1031217486531673,-0.36979163526629855,0.2399827721492203,1.0026779833809811,-0.7276030304312509,1.919032722609542,0,0,0,0,0.28,0,1536,1536,1463,1500,1645,1354
1747534006.3232617,-0.14,-0.04,-0.23,2.339832028454898,-0.3239767424014474,0.24107360293171676,1.3860243080800352,-0.7820289384573945,1.869008865243314,0,0,0,0,0,0,1500,1500,1500,1500,1605,1394
1747534006.4063058,0.0,0.04,-0.19,2.5078199689593523,-0.24652775684419906,0.19744037163185854,1.805673877405451,-0.8166120623854863,1.8061426985886604,0,0,0,0,0,0,1500,1500,1500,1500,1565,1434
1747534006.5063846,0.0,0.04,-0.19,2.5078199689593523,-0.24652775684419906,0.19744037163185854,1.805673877405451,-0.8166120623854863,1.8061426985886604,0,0,0,0,0,0,1500,1500,1500,1500,1525,1474
1747534006.605208,-0.22,0.43,-0.28,2.072578486743266,-0.16689710972195776,0.10690141668465268,2.218140306548726,-0.8262311729713574,1.7500076945500147,0,0,0,0,0,0,1500,1500,1500,1500,1500,1500
1747534006.7058852,-0.22,0.43,-0.28,2.072578486743266,-0.16689710972195776,0.10690141668465268,2.218140306548726,-0.8262311729713574,1.7500076945500147,0,0,0,0,0,0,1500,1500,1500,1500,1500,1500
1747534006.8055549,0.0,0.33,-0.07,1.4911656796726553,-0.09381144729469522,-0.004363323129985824,2.5099586042617656,-0.8181375873735565,1.7248030413228055,0,0,0,0,0,0,1500,1500,1500,1500,1500,1500
1747534006.8890362,-0.13,0.33,-0.03,1.040652566501619,-0.08290313946973066,-0.055632369907319255,2.702801231751559,-0.8041049082447332,1.7210994356747722,0,0,0,0,-0.135062,0,1463,1463,1536,1500,1460,1540
1747534006.9885266,-0.13,0.33,-0.03,1.040652566501619,-0.08290313946973066,-0.055632369907319255,2.702801231751559,-0.8041049082447332,1.7210994356747722,0,0,0,0,-0.28,0,1463,1463,1536,1500,1420,1580
1747534007.0889618,-0.22,0.28,0.0,0.693768377667746,-0.06981317007977318,-0.07744898555724837,2.8219635523306645,-0.7873218730171282,1.7344945654684674,0,0,0,0,-0.28,0,1463,1463,1536,1500,1380,1620
1747534007.171864,-0.22,0.28,0.0,0.693768377667746,-0.06981317007977318,-0.07744898555724837,2.8219635523306645,-0.7873218730171282,1.7344945654684674,0,0,0,0,-0.28,0,1463,1463,1536,1500,1354,1645
1747534007.2730787,-0.42,0.15,0.01,0.3741549583962844,-0.04254240051736178,-0.12544553998709243,2.884494324388988,-0.7729432728987204,1.755203203961118,0,0,0,0,-0.28,0,1463,1463,1536,1500,1354,1645
1747534007.3733337,0.04,0.8300000000000001,-0.26,-0.48432886742842646,0.004363323129985824,-0.17671458676442586,2.871294028981739,-0.7626491380404429,1.7898650451977918,0,0,0,0,-0.28,0,1463,1463,1536,1500,1354,1645
1747534007.472335,0.04,0.8300000000000001,-0.26,-0.48432886742842646,0.004363323129985824,-0.17671458676442586,2.871294028981739,-0.7626491380404429,1.7898650451977918,0,0,0,0,-0.28,0,1463,1463,1536,1500,1354,1645
1747534007.5728126,-0.22,0.38,-0.21,-1.8325957145940461,0.04254240051736178,-0.2203478180642841,2.652785069339199,-0.7550894681277984,1.834550463890414,0,0,0,0,-0.28,0,1463,1463,1536,1500,1354,1645
1747534007.6556232,-0.22,0.38,-0.21,-1.8325957145940461,0.04254240051736178,-0.2203478180642841,2.652785069339199,-0.7550894681277984,1.834550463890414,0,0,0,0,0,0,1500,1500,1500,1500,1394,1605
1747534007.756664,-0.06,0.11,-0.16,-2.4183718447946427,0.08399397025222712,-0.22143864884678055,2.288029363268205,-0.7414998686092016,1.878476523958271,0,0,0,0,0,0,1500,1500,1500,1500,1434,1565
1747534007.8555696,0.19,-0.25,-0.28,-2.4292801526196075,0.12871803233458182,-0.20180369476184434,1.8647370031342707,-0.7208613817735953,1.921900331987191,0,0,0,0,0,0,1500,1500,1500,1500,1474,1525
1747534007.9566138,0.19,-0.25,-0.28,-2.4292801526196075,0.12871803233458182,-0.20180369476184434,1.8647370031342707,-0.7208613817735953,1.921900331987191,0,0,0,0,0,0,1500,1500,1500,1500,1500,1500
1747534008.0564144,0.15,-0.22,-0.04,-1.8020524526841453,0.11562806294462433,-0.17780541754692233,1.5168517123370828,-0.6959215352388232,1.9510077719771821,0,0,0,0,0,0,1500,1500,1500,1500,1500,1500
1747534008.1393595,0.15,-0.22,-0.04,-1.8020524526841453,0.11562806294462433,-0.17780541754692233,1.5168517123370828,-0.6959215352388232,1.9510077719771821,0,0,0,0,0,0.208628,1540,1460,1463,1500,1500,1500
1747534008.2380402,-0.04,-0.15,-0.08,-1.205368014658584,0.08617563181722002,-0.15489797111449674,1.2814686171666376,-0.6688336272724391,1.9654913252169504,0,0,0,0,0,0.7,1580,1420,1463,1500,1500,1500
1747534008.3389091,-0.05,-0.07,-0.07,-0.8453938564347534,0.05781403147231216,-0.14726215563702155,1.1243418609149423,-0.6433810685793931,1.9680591008356023,0,0,0,0,0,0.7,1620,1380,1463,1500,1500,1500
1747534008.4224682,-0.05,-0.07,-0.07,-0.8453938564347534,0.05781403147231216,-0.14726215563702155,1.1243418609149423,-0.6433810685793931,1.9680591008356023,0,0,0,0,0,0.7,1645,1355,1463,1500,1500,1500
1747534008.522993,-0.04,-0.13,-0.05,-0.5443245604657315,0.031634092692397225,-0.02945243112740431,1.0195439997258506,-0.6252014317045564,1.9662507379217515,0,0,0,0,0,0.7,1645,1355,1463,1500,1500,1500
1747534008.6199546,-0.09,-0.42,0.05,-0.2530727415391778,-0.030543261909900768,0.6065019150680295,-0.36555850619271574,1.5707963267948966,-2.8439951853058503,0,0,0,0,0,0.7,1645,1355,1463,1500,1500,1500
1747534008.7045662,-0.09,-0.42,0.05,-0.2530727415391778,-0.030543261909900768,0.6065019150680295,-0.36555850619271574,1.5707963267948966,-2.8439951853058503,0,0,0,0,0,0.7,1645,1355,1463,1500,1500,1500
1747534008.805606,0.43,-0.07,0.14,-0.05126904677733343,-0.05345070834232634,1.1868238913561442,0.8537771106023258,-0.7648574754064716,2.096277111171824,0,0,0,0,0,0.7,1645,1355,1463,1500,1500,1500
1747534008.8883026,0.43,-0.07,0.14,-0.05126904677733343,-0.05345070834232634,1.1868238913561442,0.8537771106023258,-0.7648574754064716,2.096277111171824,0,0,0,0,0,0.134662,1605,1395,1463,1500,1500,1500
1747534008.988881,-0.35000000000000003,-0.3,-0.08,-0.06872233929727672,-0.050178215994836975,1.423534171157875,0.6742645892728539,-0.9233275469666862,2.323555891362513,0,0,0,0,0,0,1565,1435,1500,1500,1500,1500
1747534009.0895715,-0.35000000000000003,-0.3,-0.08,-0.06872233929727672,-0.050178215994836975,1.423534171157875,0.6742645892728539,-0.9233275469666862,2.323555891362513,0,0,0,0,0,0,1525,1475,1500,1500,1500,1500
1747534009.1889088,-0.18,0.34,-0.32,-0.18435040224190105,-0.004363323129985824,1.2860894925633215,0.3693339034396807,-1.0389785720391065,2.6653315202295014,0,0,0,0,0,0,1500,1500,1500,1500,1500,1500
1747534009.2889562,-0.13,1.59,-0.02,-0.24107360293171676,0.05235987755982989,0.7166758241001716,0.07508764431001587,-1.0680503152681387,2.9620444913482706,0,0,0,0,0,0,1500,1500,1500,1500,1500,1500
1747534009.3737612,-0.13,1.59,-0.02,-0.24107360293171676,0.05235987755982989,0.7166758241001716,0.07508764431001587,-1.0680503152681387,2.9620444913482706,0,0,0,0,0,0,1500,1500,1500,1500,1500,1500
1747534009.4737794,-0.2,0.2,-0.02,-0.19744037163185854,0.03490658503988659,0.36760997370130566,-0.10172675502482263,-1.060031230649081,3.1253144336215635,0,-6.029575,0,0,0,-1e-06,1460,1460,1460,1500,1500,1500
1747534009.573345,-0.2,0.2,-0.02,-0.19744037163185854,0.03490658503988659,0.36760997370130566,-0.10172675502482263,-1.060031230649081,3.1253144336215635,0,-12.5,0,0,0,-0.027766,1420,1420,1420,1500,1500,1500
1747534009.656161,-0.29,0.15,-0.05,-0.14180800172453928,0.04036073895236887,0.12980886311707826,-0.1854415976255558,-1.0488347379192426,-3.090980213692035,0,-12.5,0,0,0,-0.027766,1380,1380,1383,1500,1500,1500
1747534009.7513447,-0.19,0.23,0.0,-0.09272061651219876,0.0272707695624114,-0.028361600344907856,-0.2090566006814763,-1.0414872461164169,-3.082573784896675,0,-12.5,0,0,0,-0.027766,1354,1359,1383,1500,1500,1500
1747534009.85483,-0.19,0.23,0.0,-0.09272061651219876,0.0272707695624114,-0.028361600344907856,-0.2090566006814763,-1.0414872461164169,-3.082573784896675,0,-12.5,0,0,0,-0.027766,1354,1359,1383,1500,1500,1500
1747534009.9388142,-1.6,0.03,0.23,-0.14180800172453928,0.032724923474893676,-0.09381144729469522,-0.20059051687622328,-1.0384192005174926,-3.108688794663901,0,-12.5,0,0,0,-0.027766,1354,1359,1383,1500,1500,1500
1747534010.0387223,-1.6,0.03,0.23,-0.14180800172453928,0.032724923474893676,-0.09381144729469522,-0.20059051687622328,-1.0384192005174926,-3.108688794663901,0,-12.5,0,0,0,-0.027766,1354,1359,1383,1500,1500,1500
1747534010.1238236,-0.6,0.07,-0.23,-0.19962203319685143,0.025089107997418487,-0.11671889372712078,-0.19346834583096606,-1.0256039177393779,3.1352959935607214,0,-12.5,0,0,0,-0.027766,1354,1359,1383,1500,1500,1500
1747534010.2220314,-0.6,0.07,-0.23,-0.19962203319685143,0.025089107997418487,-0.11671889372712078,-0.19346834583096606,-1.0256039177393779,3.1352959935607214,0,-12.5,0,0,0,-0.027766,1354,1359,1383,1500,1500,1500
1747534010.323641,-0.66,-0.01,-0.18,-0.18762289458939044,0.00545415391248228,-0.12980886311707826,-0.19175715805753218,-1.0275049202407056,3.098599075910302,0,-12.5,0,0,0,-0.027766,1354,1359,1383,1500,1500,1500
1747534010.405664,-0.55,0.16,-0.17,-0.17671458676442586,-0.013089969389957472,-0.1189005552921137,-0.18614934298138663,-1.031469362000458,3.060155684338237,0,-12.5,0,0,0,-0.027766,1354,1359,1383,1500,1500,1500
1747534010.5047734,-0.55,0.16,-0.17,-0.17671458676442586,-0.013089969389957472,-0.1189005552921137,-0.18614934298138663,-1.031469362000458,3.060155684338237,0,-12.5,0,0,0,-0.027766,1354,1359,1383,1500,1500,1500
1747534010.6062796,-0.46,0.09,-0.11,-0.18762289458939044,-0.020725784867432664,-0.07308566242726255,-0.19053455084448614,-1.0369678993996252,3.0315802544169133,0,-12.5,0,0,0,-0.027766,1354,1359,1383,1500,1500,1500
1747534010.7051535,-0.46,0.09,-0.11,-0.18762289458939044,-0.020725784867432664,-0.07308566242726255,-0.19053455084448614,-1.0369678993996252,3.0315802544169133,0,-12.5,0,0,0,-0.027766,1354,1359,1383,1500,1500,1500
