time,ay,ax,az,gy,gx,gz,roll,pitch,yaw,cmd_fx,cmd_fy,cmd_fz,cmd_tx,cmd_ty,cmd_tz,pwm_1,pwm_2,pwm_3,pwm_4,pwm_5,pwm_6
1747549553.1600616,0.0,0.0,0.0,0.0,0.0,0.0,0.0,0.0,0.0,0,0,0,0,0,0,1500,1500,1500,1500,1500,1500
1747549553.2536411,-0.97,-0.06,-0.41000000000000003,-0.002181661564992912,-0.002181661564992912,-0.001090830782496456,0.0,0.0,0.0,0,0,0,0,0,0,1500,1500,1500,1500,1500,1500
1747549553.3368044,-0.97,-0.06,-0.41000000000000003,-0.002181661564992912,-0.002181661564992912,-0.001090830782496456,0.0,0.0,0.0,0,0,0,0,0,0,1500,1500,1500,1500,1500,1500
1747549553.4368887,0.03,0.01,-0.31,-0.001090830782496456,-0.006544984694978736,0.001090830782496456,-0.008333856045191419,0.10294884859630454,-0.0004293704641479593,0,0,0,0,0,0,1500,1500,1500,1500,1500,1500
1747549553.5376794,0.03,0.01,-0.31,-0.001090830782496456,-0.006544984694978736,0.001090830782496456,-0.008333856045191419,0.10294884859630454,-0.0004293704641479593,0,0,0,0,0,0,1500,1500,1500,1500,1500,1500
1747549553.6208498,0.05,0.0,-0.34,-0.002181661564992912,-0.004363323129985824,0.0,-0.008333856045191419,0.10294884859630454,-0.0004293704641479593,0,0,0,0,0,0,1500,1500,1500,1500,1500,1500
1747549553.720771,0.04,0.01,-0.3,-0.001090830782496456,-0.003272492347489368,-0.003272492347489368,-0.008333856045191419,0.10294884859630454,-0.0004293704641479593,0,0,0,0,0,0,1500,1500,1500,1500,1500,1500
1747549553.8209417,0.04,0.01,-0.3,-0.001090830782496456,-0.003272492347489368,-0.003272492347489368,-0.008333856045191419,0.10294884859630454,-0.0004293704641479593,0,0,0,0,0,0,1500,1500,1500,1500,1500,1500
1747549553.9189065,0.08,0.0,-0.36,-0.002181661564992912,-0.006544984694978736,-0.002181661564992912,-0.008333856045191419,0.10294884859630454,-0.0004293704641479593,0,0,0,0,0,0,1500,1500,1500,1500,1500,1500
1747549553.9203525,0.08,0.0,-0.36,-0.002181661564992912,-0.006544984694978736,-0.002181661564992912,-0.008333856045191419,0.10294884859630454,-0.0004293704641479593,0,0,0,0,0,0,1500,1500,1500,1500,1500,1500
1747549554.0215175,0.04,0.0,-0.27,0.002181661564992912,-0.002181661564992912,-0.001090830782496456,-0.008333856045191419,0.10294884859630454,-0.0004293704641479593,0,0,0,0,0,0,1500,1500,1500,1500,1500,1500
1747549554.0225403,0.04,0.0,-0.27,0.002181661564992912,-0.002181661564992912,-0.001090830782496456,-0.008333856045191419,0.10294884859630454,-0.0004293704641479593,0,0,0,0,0,0,1500,1500,1500,1500,1500,1500
1747549554.104222,0.04,0.01,-0.38,0.001090830782496456,0.001090830782496456,0.0,-0.008333856045191419,0.10294884859630454,-0.0004293704641479593,0,0,0,0,0,0,1500,1500,1500,1500,1500,1500
1747549554.105216,0.04,0.01,-0.38,0.001090830782496456,0.001090830782496456,0.0,-0.008333856045191419,0.10294884859630454,-0.0004293704641479593,0,0,0,0,0,0,1500,1500,1500,1500,1500,1500
1747549554.2051392,0.04,0.01,-0.34,0.002181661564992912,0.003272492347489368,0.0,-0.008333856045191419,0.10294884859630454,-0.0004293704641479593,0,0,0,0,0,0,1500,1500,1500,1500,1500,1500
1747549554.2061567,0.04,0.01,-0.34,0.002181661564992912,0.003272492347489368,0.0,-0.008333856045191419,0.10294884859630454,-0.0004293704641479593,0,0,0,0,0,0,1500,1500,1500,1500,1500,1500
1747549554.3036017,0.03,-0.01,-0.31,-0.003272492347489368,0.003272492347489368,-0.002181661564992912,-0.008333856045191419,0.10294884859630454,-0.0004293704641479593,0,0,0,0,0,0,1500,1500,1500,1500,1500,1500
1747549554.305103,0.03,-0.01,-0.31,-0.003272492347489368,0.003272492347489368,-0.002181661564992912,-0.008333856045191419,0.10294884859630454,-0.0004293704641479593,0,0,0,0,0,0,1500,1500,1500,1500,1500,1500
1747549554.3874366,0.07,0.01,-0.38,0.001090830782496456,-0.002181661564992912,0.0,-0.008333856045191419,0.10294884859630454,-0.0004293704641479593,0,0,0,0,0,0,1500,1500,1500,1500,1500,1500
1747549554.4041486,0.07,0.01,-0.38,0.001090830782496456,-0.002181661564992912,0.0,-0.008333856045191419,0.10294884859630454,-0.0004293704641479593,0,0,0,0,0,0,1500,1500,1500,1500,1500,1500
1747549554.4879303,0.07,0.01,-0.38,0.0,-0.004363323129985824,0.002181661564992912,-0.008333856045191419,0.10294884859630454,-0.0004293704641479593,0,0,0,0,0,0,1500,1500,1500,1500,1500,1500
1747549554.504307,0.07,0.01,-0.38,0.0,-0.004363323129985824,0.002181661564992912,-0.008333856045191419,0.10294884859630454,-0.0004293704641479593,0,0,0,0,0,0,1500,1500,1500,1500,1500,1500
1747549554.5869074,0.04,0.0,-0.29,0.002181661564992912,-0.002181661564992912,-0.002181661564992912,-0.008333856045191419,0.10294884859630454,-0.0004293704641479593,0,0,0,0,0,0,1500,1500,1500,1500,1500,1500
1747549554.5879545,0.04,0.0,-0.29,0.002181661564992912,-0.002181661564992912,-0.002181661564992912,-0.008333856045191419,0.10294884859630454,-0.0004293704641479593,0,0,0,0,0,0,1500,1500,1500,1500,1500,1500
1747549554.6869218,0.04,0.0,-0.34,0.001090830782496456,0.0,-0.001090830782496456,-0.008333856045191419,0.10294884859630454,-0.0004293704641479593,0,0,0,0,0,0,1500,1500,1500,1500,1500,1500
1747549554.6880407,0.04,0.0,-0.34,0.001090830782496456,0.0,-0.001090830782496456,-0.008333856045191419,0.10294884859630454,-0.0004293704641479593,0,0,0,0,0,0,1500,1500,1500,1500,1500,1500
1747549554.7869928,0.04,0.0,-0.34,0.001090830782496456,0.0,-0.001090830782496456,-0.008333856045191419,0.10294884859630454,-0.0004293704641479593,0,0,0,0,0,0,1500,1500,1500,1500,1500,1500
1747549554.7882206,0.04,0.0,-0.34,0.001090830782496456,0.0,-0.001090830782496456,-0.008333856045191419,0.10294884859630454,-0.0004293704641479593,0,0,0,0,0,0,1500,1500,1500,1500,1500,1500
1747549554.870922,0.03,0.0,-0.3,-0.002181661564992912,0.0,0.001090830782496456,-0.008333856045191419,0.10294884859630454,-0.0004293704641479593,0,0,0,0,0,0,1500,1500,1500,1500,1500,1500
1747549554.870922,0.03,0.0,-0.3,-0.002181661564992912,0.0,0.001090830782496456,-0.008333856045191419,0.10294884859630454,-0.0004293704641479593,0,0,0,0,0,0,1500,1500,1500,1500,1500,1500
1747549554.9707236,0.07,0.0,-0.35000000000000003,-0.002181661564992912,-0.001090830782496456,0.0,-0.008333856045191419,0.10294884859630454,-0.0004293704641479593,0,0,0,0,0,0,1500,1500,1500,1500,1500,1500
1747549554.971906,0.07,0.0,-0.35000000000000003,-0.002181661564992912,-0.001090830782496456,0.0,-0.008333856045191419,0.10294884859630454,-0.0004293704641479593,0,0,0,0,0,0,1500,1500,1500,1500,1500,1500
1747549555.0706115,0.07,0.0,-0.35000000000000003,-0.002181661564992912,-0.001090830782496456,0.0,-0.008333856045191419,0.10294884859630454,-0.0004293704641479593,0,0,0,0,0,0,1500,1500,1500,1500,1500,1500
1747549555.0717902,0.07,0.0,-0.35000000000000003,-0.002181661564992912,-0.001090830782496456,0.0,-0.008333856045191419,0.10294884859630454,-0.0004293704641479593,0,0,0,0,0,0,1500,1500,1500,1500,1500,1500
1747549555.1707435,0.05,-0.01,-0.3,-0.001090830782496456,0.002181661564992912,0.0,-0.008333856045191419,0.10294884859630454,-0.0004293704641479593,0,0,0,0,0,0,1500,1500,1500,1500,1500,1500
1747549555.1722205,0.05,-0.01,-0.3,-0.001090830782496456,0.002181661564992912,0.0,-0.008333856045191419,0.10294884859630454,-0.0004293704641479593,0,0,0,0,0,0,1500,1500,1500,1500,1500,1500
1747549555.2711713,0.06,0.0,-0.36,0.001090830782496456,-0.001090830782496456,0.001090830782496456,-0.008333856045191419,0.10294884859630454,-0.0004293704641479593,0,0,0,0,0,0,1500,1500,1500,1500,1500,1500
1747549555.2721674,0.06,0.0,-0.36,0.001090830782496456,-0.001090830782496456,0.001090830782496456,-0.008333856045191419,0.10294884859630454,-0.0004293704641479593,0,0,0,0,0,0,1500,1500,1500,1500,1500,1500
1747549555.3542278,0.04,0.0,-0.29,0.002181661564992912,0.003272492347489368,0.001090830782496456,-0.008333856045191419,0.10294884859630454,-0.0004293704641479593,0,0,0,0,0,0,1500,1500,1500,1500,1500,1500
1747549555.3542278,0.04,0.0,-0.29,0.002181661564992912,0.003272492347489368,0.001090830782496456,-0.008333856045191419,0.10294884859630454,-0.0004293704641479593,0,0,0,0,0,0,1500,1500,1500,1500,1500,1500
1747549555.4539416,0.04,0.0,-0.29,0.002181661564992912,0.003272492347489368,0.001090830782496456,-0.008333856045191419,0.10294884859630454,-0.0004293704641479593,0,-12.29445,0,0,0,0,1460,1460,1460,1500,1500,1500
1747549555.455439,0.04,0.0,-0.29,0.002181661564992912,0.003272492347489368,0.001090830782496456,-0.008333856045191419,0.10294884859630454,-0.0004293704641479593,0,-12.29445,0,0,0,0,1420,1420,1426,1500,1500,1500
1747549555.5534854,0.05,0.03,-0.34,0.001090830782496456,-0.002181661564992912,-0.001090830782496456,-0.008333856045191419,0.10294884859630454,-0.0004293704641479593,0,-12.5,0,0,0,-0.025512,1413,1415,1425,1500,1500,1500
1747549555.554987,0.05,0.03,-0.34,0.001090830782496456,-0.002181661564992912,-0.001090830782496456,-0.008333856045191419,0.10294884859630454,-0.0004293704641479593,0,-12.5,0,0,0,-0.025512,1413,1415,1425,1500,1500,1500
1747549555.6379104,0.02,0.02,-0.31,0.002181661564992912,-0.002181661564992912,-0.001090830782496456,-0.008333856045191419,0.10294884859630454,-0.0004293704641479593,0,-12.5,0,0,0,-0.027766,1413,1415,1425,1500,1500,1500
1747549555.6536267,0.02,0.02,-0.31,0.002181661564992912,-0.002181661564992912,-0.001090830782496456,-0.008333856045191419,0.10294884859630454,-0.0004293704641479593,0,-12.5,0,0,0,-0.027766,1413,1415,1425,1500,1500,1500
1747549555.7368484,-0.02,-0.09,-0.42,-0.004363323129985824,-0.002181661564992912,0.0,-0.008204982526796889,0.10294935044226805,-0.0003005009127112153,0,-12.5,0,0,0,-0.032561,1413,1415,1425,1500,1500,1500
1747549555.7539468,-0.02,-0.09,-0.42,-0.004363323129985824,-0.002181661564992912,0.0,-0.008204982526796889,0.10294935044226805,-0.0003005009127112153,0,-12.5,0,0,0,-0.032561,1413,1415,1425,1500,1500,1500
1747549555.8375115,0.16,-0.01,-0.37,-0.007635815477475192,-0.006544984694978736,-0.003272492347489368,-0.008204982526796889,0.10294935044226805,-0.0003005009127112153,0,-12.5,0,0,0,-0.032561,1413,1415,1425,1500,1500,1500
1747549555.8375115,0.16,-0.01,-0.37,-0.007635815477475192,-0.006544984694978736,-0.003272492347489368,-0.008204982526796889,0.10294935044226805,-0.0003005009127112153,0,-12.5,0,0,0,-0.032561,1413,1415,1425,1500,1500,1500
1747549555.9571311,-0.03,0.0,-0.39,-0.001090830782496456,-0.004363323129985824,0.002181661564992912,-0.008204982526796889,0.10294935044226805,-0.0003005009127112153,0,-12.5,0,0,0,-0.032561,1413,1415,1425,1500,1500,1500
1747549555.9571311,-0.03,0.0,-0.39,-0.001090830782496456,-0.004363323129985824,0.002181661564992912,-0.008204982526796889,0.10294935044226805,-0.0003005009127112153,0,-12.5,0,0,0,-0.032561,1413,1415,1425,1500,1500,1500
1747549556.0492918,0.04,0.01,-0.31,0.003272492347489368,-0.001090830782496456,0.001090830782496456,-0.008204982526796889,0.10294935044226805,-0.0003005009127112153,0,-12.5,0,0,0,-0.035101,1413,1415,1425,1500,1500,1500
1747549556.050289,0.04,0.01,-0.31,0.003272492347489368,-0.001090830782496456,0.001090830782496456,-0.008204982526796889,0.10294935044226805,-0.0003005009127112153,0,-12.5,0,0,0,-0.035101,1413,1415,1425,1500,1500,1500
1747549556.1365392,0.04,0.01,-0.31,0.003272492347489368,-0.001090830782496456,0.001090830782496456,-0.008204982526796889,0.10294935044226805,-0.0003005009127112153,0,-12.5,0,0,0,-0.035101,1413,1415,1425,1500,1500,1500
1747549556.1380363,0.04,0.01,-0.31,0.003272492347489368,-0.001090830782496456,0.001090830782496456,-0.008204982526796889,0.10294935044226805,-0.0003005009127112153,0,-12.5,0,0,0,-0.035101,1413,1415,1425,1500,1500,1500
1747549556.2371762,0.03,-0.02,-0.27,-0.003272492347489368,-0.002181661564992912,0.001090830782496456,-0.008204982526796889,0.10294935044226805,-0.0003005009127112153,0,0,0,0,0,0,1453,1455,1465,1500,1500,1500
1747549556.2383265,0.03,-0.02,-0.27,-0.003272492347489368,-0.002181661564992912,0.001090830782496456,-0.008204982526796889,0.10294935044226805,-0.0003005009127112153,0,0,0,0,0,0,1493,1495,1500,1500,1500,1500
1747549556.337372,0.02,-0.02,-0.35000000000000003,0.004363323129985824,-0.002181661564992912,-0.001090830782496456,-0.008204982526796889,0.10294935044226805,-0.0003005009127112153,0,0,0,0,0,0,1500,1500,1500,1500,1500,1500
1747549556.3387291,0.02,-0.02,-0.35000000000000003,0.004363323129985824,-0.002181661564992912,-0.001090830782496456,-0.008204982526796889,0.10294935044226805,-0.0003005009127112153,0,0,0,0,0,0,1500,1500,1500,1500,1500,1500
1747549556.4357426,0.18,0.03,-0.33,0.004363323129985824,0.0,-0.002181661564992912,-0.008204982526796889,0.10294935044226805,-0.0003005009127112153,0,0,0,0,0,0,1500,1500,1500,1500,1500,1500
1747549556.4369495,0.18,0.03,-0.33,0.004363323129985824,0.0,-0.002181661564992912,-0.008204982526796889,0.10294935044226805,-0.0003005009127112153,0,0,0,0,0,0,1500,1500,1500,1500,1500,1500
1747549556.5367892,0.06,-0.21,-0.27,0.001090830782496456,-0.001090830782496456,0.003272492347489368,-0.008204982526796889,0.10294935044226805,-0.0003005009127112153,0,0,0,0,0,0,1500,1500,1500,1500,1500,1500
1747549556.5378287,0.06,-0.21,-0.27,0.001090830782496456,-0.001090830782496456,0.003272492347489368,-0.008204982526796889,0.10294935044226805,-0.0003005009127112153,0,0,0,0,0,0,1500,1500,1500,1500,1500,1500
1747549556.6205344,-0.05,0.12,-0.33,0.00545415391248228,0.004363323129985824,-0.003272492347489368,-0.008204982526796889,0.10294935044226805,-0.0003005009127112153,0,0,0,0,0,0,1500,1500,1500,1500,1500,1500
1747549556.6219347,-0.05,0.12,-0.33,0.00545415391248228,0.004363323129985824,-0.003272492347489368,-0.008204982526796889,0.10294935044226805,-0.0003005009127112153,0,0,0,0,0,0,1500,1500,1500,1500,1500,1500
1747549556.7201626,0.03,0.01,-0.3,0.001090830782496456,0.001090830782496456,-0.001090830782496456,-0.008204982526796889,0.10294935044226805,-0.0003005009127112153,0,0,0,0,0,0,1500,1500,1500,1500,1500,1500
1747549556.7201626,0.03,0.01,-0.3,0.001090830782496456,0.001090830782496456,-0.001090830782496456,-0.008204982526796889,0.10294935044226805,-0.0003005009127112153,0,0,0,0,0,0,1500,1500,1500,1500,1500,1500
1747549556.819895,0.03,0.01,-0.3,0.001090830782496456,0.001090830782496456,-0.001090830782496456,-0.008204982526796889,0.10294935044226805,-0.0003005009127112153,0,0,0,0,0,0,1500,1500,1500,1500,1500,1500
1747549556.8212736,0.03,0.01,-0.3,0.001090830782496456,0.001090830782496456,-0.001090830782496456,-0.008204982526796889,0.10294935044226805,-0.0003005009127112153,0,0,0,0,0,0,1500,1500,1500,1500,1500,1500
1747549556.9206245,0.05,0.01,-0.29,0.004363323129985824,0.003272492347489368,-0.001090830782496456,-0.008204982526796889,0.10294935044226805,-0.0003005009127112153,0,0,0,0,0,0,1500,1500,1500,1500,1500,1500
1747549556.9206245,0.05,0.01,-0.29,0.004363323129985824,0.003272492347489368,-0.001090830782496456,-0.008204982526796889,0.10294935044226805,-0.0003005009127112153,0,0,0,0,0,0,1500,1500,1500,1500,1500,1500
1747549557.020494,0.04,0.0,-0.35000000000000003,0.002181661564992912,0.001090830782496456,0.0,-0.008204982526796889,0.10294935044226805,-0.0003005009127112153,0,0,0,0,0,0,1500,1500,1500,1500,1500,1500
1747549557.0216093,0.04,0.0,-0.35000000000000003,0.002181661564992912,0.001090830782496456,0.0,-0.008204982526796889,0.10294935044226805,-0.0003005009127112153,0,0,0,0,0,0,1500,1500,1500,1500,1500,1500
1747549557.1042,0.04,0.0,-0.35000000000000003,0.002181661564992912,0.001090830782496456,0.0,-0.008204982526796889,0.10294935044226805,-0.0003005009127112153,0,0.087373,0,0,0,0,1500,1500,1500,1500,1500,1500
1747549557.1042,0.04,0.0,-0.35000000000000003,0.002181661564992912,0.001090830782496456,0.0,-0.008204982526796889,0.10294935044226805,-0.0003005009127112153,0,0.087373,0,0,0,0,1500,1500,1500,1500,1500,1500
1747549557.2040033,0.04,0.0,-0.32,0.002181661564992912,0.003272492347489368,0.0,-0.008204982526796889,0.10294935044226805,-0.0003005009127112153,0,0.24991,0,0,0,0,1500,1500,1500,1500,1500,1500
1747549557.2050002,0.04,0.0,-0.32,0.002181661564992912,0.003272492347489368,0.0,-0.008204982526796889,0.10294935044226805,-0.0003005009127112153,0,0.24991,0,0,0,0,1500,1500,1500,1500,1500,1500
1747549557.3034222,0.03,0.0,-0.36,-0.001090830782496456,0.0,0.0,-0.008204982526796889,0.10294935044226805,-0.0003005009127112153,0,0.24991,0,0,0,0,1500,1500,1500,1500,1500,1500
1747549557.3049278,0.03,0.0,-0.36,-0.001090830782496456,0.0,0.0,-0.008204982526796889,0.10294935044226805,-0.0003005009127112153,0,0.24991,0,0,0,0,1500,1500,1500,1500,1500,1500
1747549557.3841994,0.06,0.0,-0.34,-0.001090830782496456,-0.001090830782496456,0.002181661564992912,-0.008204982526796889,0.10294935044226805,-0.0003005009127112153,0,0.24991,0,0,0,0,1500,1500,1500,1500,1500,1500
1747549557.4039657,0.06,0.0,-0.34,-0.001090830782496456,-0.001090830782496456,0.002181661564992912,-0.008204982526796889,0.10294935044226805,-0.0003005009127112153,0,0.279946,0,0,0,0,1500,1500,1500,1500,1500,1500
1747549557.4877493,0.02,0.03,-1.57,0.002181661564992912,-0.003272492347489368,-0.002181661564992912,-0.008204982526796889,0.10294935044226805,-0.0003005009127112153,0,0.279946,0,0,0,0,1500,1500,1500,1500,1500,1500
1747549557.5037532,0.02,0.03,-1.57,0.002181661564992912,-0.003272492347489368,-0.002181661564992912,-0.008204982526796889,0.10294935044226805,-0.0003005009127112153,0,0.279946,0,0,0,0,1500,1500,1500,1500,1500,1500
1747549557.5706577,0.04,0.0,-0.34,0.0,-0.004363323129985824,-0.001090830782496456,-0.008204982526796889,0.10294935044226805,-0.0003005009127112153,0,0.279946,0,0,0,0,1500,1500,1500,1500,1500,1500
1747549557.587537,0.04,0.0,-0.34,0.0,-0.004363323129985824,-0.001090830782496456,-0.008204982526796889,0.10294935044226805,-0.0003005009127112153,0,0.311685,0,0,0,0,1500,1500,1500,1500,1500,1500
1747549557.6707368,0.02,-0.01,-0.33,0.0,0.003272492347489368,0.0,-0.008204982526796889,0.10294935044226805,-0.0003005009127112153,0,1.051254,0,0,0,0,1500,1500,1500,1500,1500,1500
1747549557.6834717,0.04,0.01,-0.31,-0.00545415391248228,0.00545415391248228,0.002181661564992912,-0.008204982526796889,0.10294935044226805,-0.0003005009127112153,0,1.051254,0,0,0,0,1500,1500,1500,1500,1500,1500
1747549557.770263,0.04,0.01,-0.31,-0.00545415391248228,0.00545415391248228,0.002181661564992912,-0.008204982526796889,0.10294935044226805,-0.0003005009127112153,0,1.051254,0,0,0,0,1500,1500,1500,1500,1500,1500
1747549557.78764,0.04,0.01,-0.31,-0.00545415391248228,0.00545415391248228,0.002181661564992912,-0.008204982526796889,0.10294935044226805,-0.0003005009127112153,0,1.051254,0,0,0,0,1500,1500,1500,1500,1500,1500
1747549557.8534787,0.05,0.0,-0.35000000000000003,-0.00545415391248228,-0.001090830782496456,0.002181661564992912,-0.008204982526796889,0.10294935044226805,-0.0003005009127112153,0,1.051254,0,0,0,0,1500,1500,1500,1500,1500,1500
1747549557.870749,0.05,0.0,-0.35000000000000003,-0.00545415391248228,-0.001090830782496456,0.002181661564992912,-0.008204982526796889,0.10294935044226805,-0.0003005009127112153,0,1.051254,0,0,0,0,1500,1500,1500,1500,1500,1500
1747549557.9540935,0.06,0.0,-0.32,0.001090830782496456,0.0,0.0,-0.008204982526796889,0.10294935044226805,-0.0003005009127112153,0,1.658957,0,0,0,0,1500,1500,1500,1500,1500,1500
1747549557.9703948,0.03,0.04,-0.3,0.001090830782496456,-0.002181661564992912,0.001090830782496456,-0.008204982526796889,0.10294935044226805,-0.0003005009127112153,0,1.97335,0,0,0,0,1500,1500,1500,1500,1500,1500
1747549558.0542245,0.03,0.04,-0.3,0.001090830782496456,-0.002181661564992912,0.001090830782496456,-0.008204982526796889,0.10294935044226805,-0.0003005009127112153,0,3.183414,0,0,0,0,1540,1540,1540,1500,1500,1500
1747549558.0552268,0.03,0.04,-0.3,0.001090830782496456,-0.002181661564992912,0.001090830782496456,-0.008204982526796889,0.10294935044226805,-0.0003005009127112153,0,3.183414,0,0,0,0,1545,1544,1540,1500,1500,1500
1747549558.1535428,0.04,0.0,-0.35000000000000003,0.0,0.003272492347489368,-0.002181661564992912,-0.008204982526796889,0.10294935044226805,-0.0003005009127112153,0,6.767781,0,0,0,0,1559,1558,1551,1500,1500,1500
1747549558.1550443,0.04,0.0,-0.35000000000000003,0.0,0.003272492347489368,-0.002181661564992912,-0.008204982526796889,0.10294935044226805,-0.0003005009127112153,0,6.767781,0,0,0,0,1559,1558,1551,1500,1500,1500
1747549558.2534738,0.04,0.0,-0.29,-0.002181661564992912,-0.002181661564992912,-0.001090830782496456,-0.008204982526796889,0.10294935044226805,-0.0003005009127112153,0,12.5,0,0,0,0,1577,1576,1567,1500,1500,1500
1747549558.2549796,0.04,0.0,-0.29,-0.002181661564992912,-0.002181661564992912,-0.001090830782496456,-0.008204982526796889,0.10294935044226805,-0.0003005009127112153,0,12.5,0,0,0,0,1577,1576,1567,1500,1500,1500
1747549558.3377166,0.04,0.0,-0.29,-0.002181661564992912,-0.002181661564992912,-0.001090830782496456,-0.008204982526796889,0.10294935044226805,-0.0003005009127112153,0,12.5,0,0,0,0,1577,1576,1567,1500,1500,1500
1747549558.3377166,0.04,0.0,-0.29,-0.002181661564992912,-0.002181661564992912,-0.001090830782496456,-0.008204982526796889,0.10294935044226805,-0.0003005009127112153,0,12.5,0,0,0,0,1577,1576,1567,1500,1500,1500
1747549558.436738,-0.04,-0.01,-0.5,0.007635815477475192,0.0,0.0,-0.007837213433343097,0.1028267734657919,-0.00028107517565550825,0,12.5,0,0,0,6.1e-05,1577,1576,1567,1500,1500,1500
1747549558.4380338,-0.04,-0.01,-0.5,0.007635815477475192,0.0,0.0,-0.007837213433343097,0.1028267734657919,-0.00028107517565550825,0,12.5,0,0,0,6.1e-05,1577,1576,1567,1500,1500,1500
1747549558.5372827,0.12,0.0,-0.39,-0.006544984694978736,0.0,0.0,-0.00795986396033269,0.10294933546179116,-0.00028787236987050233,0,12.5,0,0,0,0.000216,1577,1576,1567,1500,1500,1500
1747549558.5385654,0.12,0.0,-0.39,-0.006544984694978736,0.0,0.0,-0.00795986396033269,0.10294933546179116,-0.00028787236987050233,0,12.5,0,0,0,0.000216,1577,1576,1567,1500,1500,1500
1747549558.6213143,0.12,0.0,-0.39,-0.006544984694978736,0.0,0.0,-0.00795986396033269,0.10294933546179116,-0.00028787236987050233,0,12.5,0,0,0,0.000216,1577,1576,1567,1500,1500,1500
1747549558.6372006,0.05,0.01,-0.35000000000000003,0.004363323129985824,-0.002181661564992912,0.001090830782496456,-0.008082423183253352,0.10294934295202961,-0.000294186641302588,0,12.5,0,0,0,0.000216,1577,1576,1567,1500,1500,1500
1747549558.7207685,0.0,-0.1,-0.35000000000000003,-0.006544984694978736,-0.001090830782496456,0.002181661564992912,-0.00795986396033269,0.10294933546179116,-0.00028787236987050233,0,0,0,0,0,0,1537,1536,1527,1500,1500,1500
1747549558.737314,0.0,-0.1,-0.35000000000000003,-0.006544984694978736,-0.001090830782496456,0.002181661564992912,-0.00795986396033269,0.10294933546179116,-0.00028787236987050233,0,0,0,0,0,0,1500,1500,1500,1500,1500,1500
1747549558.8207293,0.04,0.02,-0.34,0.004363323129985824,0.0,0.0,-0.008082328666858823,0.10282678844607923,-0.00029368857887383413,0,0,0,0,0,0,1500,1500,1500,1500,1500,1500
1747549558.8220062,0.04,0.02,-0.34,0.004363323129985824,0.0,0.0,-0.008082328666858823,0.10282678844607923,-0.00029368857887383413,0,0,0,0,0,0,1500,1500,1500,1500,1500,1500
1747549558.9204555,0.23,0.02,-0.25,0.00545415391248228,-0.001090830782496456,-0.001090830782496456,-0.007837030946724525,0.1025816691019643,-0.00028010937929182924,0,0,0,0,0,0,1500,1500,1500,1500,1500,1500
1747549558.9216597,0.23,0.02,-0.25,0.00545415391248228,-0.001090830782496456,-0.001090830782496456,-0.007837030946724525,0.1025816691019643,-0.00028010937929182924,0,0,0,0,0,0,1500,1500,1500,1500,1500,1500
1747549559.0208297,0.23,0.02,-0.25,0.00545415391248228,-0.001090830782496456,-0.001090830782496456,-0.007837030946724525,0.1025816691019643,-0.00028010937929182924,0,0,0,0,0,0,1500,1500,1500,1500,1500,1500
1747549559.0208297,0.23,0.02,-0.25,0.00545415391248228,-0.001090830782496456,-0.001090830782496456,-0.007837030946724525,0.1025816691019643,-0.00028010937929182924,0,0,0,0,0,0,1500,1500,1500,1500,1500,1500
1747549559.1034122,0.04,-0.05,-0.25,-0.002181661564992912,0.002181661564992912,-0.001090830782496456,-0.007837122130184494,0.10270422050989556,-0.0002805922692884046,0,0,0,0,0,0,1500,1500,1500,1500,1500,1500
1747549559.10492,0.04,-0.05,-0.25,-0.002181661564992912,0.002181661564992912,-0.001090830782496456,-0.007837122130184494,0.10270422050989556,-0.0002805922692884046,0,0,0,0,0,0,1500,1500,1500,1500,1500,1500
1747549559.2031624,0.09,-0.03,-0.35000000000000003,0.0,-0.006544984694978736,0.001090830782496456,-0.007837122130184494,0.10270422050989556,-0.0002805922692884046,0,0,0,0,0,0,1500,1500,1500,1500,1500,1500
1747549559.2050507,0.09,-0.03,-0.35000000000000003,0.0,-0.006544984694978736,0.001090830782496456,-0.007837122130184494,0.10270422050989556,-0.0002805922692884046,0,0,0,0,0,0,1500,1500,1500,1500,1500,1500
1747549559.2912133,0.0,0.02,-0.3,0.004363323129985824,0.001090830782496456,-0.001090830782496456,-0.007837030946724525,0.1025816691019643,-0.00028010937929182924,0,0,0,0,0,0,1500,1500,1500,1500,1500,1500
1747549559.2912133,0.0,0.02,-0.3,0.004363323129985824,0.001090830782496456,-0.001090830782496456,-0.007837030946724525,0.1025816691019643,-0.00028010937929182924,0,0,0,0,0,0,1500,1500,1500,1500,1500,1500
1747549559.3876958,0.06,0.03,-0.34,-0.001090830782496456,-0.001090830782496456,0.0,-0.007837030946724525,0.1025816691019643,-0.00028010937929182924,0,0,0,0,0,0,1500,1500,1500,1500,1500,1500
1747549559.3876958,0.06,0.03,-0.34,-0.001090830782496456,-0.001090830782496456,0.0,-0.007837030946724525,0.1025816691019643,-0.00028010937929182924,0,0,0,0,0,0,1500,1500,1500,1500,1500,1500
1747549559.4869213,0.04,0.0,-0.37,0.0,0.001090830782496456,-0.001090830782496456,-0.007837030946724525,0.1025816691019643,-0.00028010937929182924,0,0,0,0,0,0,1500,1500,1500,1500,1500,1500
1747549559.4879377,0.04,0.0,-0.37,0.0,0.001090830782496456,-0.001090830782496456,-0.007837030946724525,0.1025816691019643,-0.00028010937929182924,0,0,0,0,0,0,1500,1500,1500,1500,1500,1500
1747549559.571118,0.04,-0.01,-0.33,0.001090830782496456,-0.003272492347489368,-0.002181661564992912,-0.007837030946724525,0.1025816691019643,-0.00028010937929182924,0,0,0,0,0,0,1500,1500,1500,1500,1500,1500
1747549559.572505,0.04,-0.01,-0.33,0.001090830782496456,-0.003272492347489368,-0.002181661564992912,-0.007837030946724525,0.1025816691019643,-0.00028010937929182924,0,0,0,0,0,0,1500,1500,1500,1500,1500,1500
1747549559.6708045,0.04,-0.01,-0.37,-0.002181661564992912,-0.006544984694978736,0.001090830782496456,-0.007837030946724525,0.1025816691019643,-0.00028010937929182924,0,0,0,0,0,0,1500,1500,1500,1500,1500,1500
1747549559.6718209,0.04,-0.01,-0.37,-0.002181661564992912,-0.006544984694978736,0.001090830782496456,-0.007837030946724525,0.1025816691019643,-0.00028010937929182924,0,0,0,0,0,0,1500,1500,1500,1500,1500,1500
1747549559.771353,0.03,0.0,-0.35000000000000003,-0.001090830782496456,0.002181661564992912,-0.001090830782496456,-0.007837030946724525,0.1025816691019643,-0.00028010937929182924,0,0,0,0,0,0,1500,1500,1500,1500,1500,1500
1747549559.7723563,0.03,0.0,-0.35000000000000003,-0.001090830782496456,0.002181661564992912,-0.001090830782496456,-0.007837030946724525,0.1025816691019643,-0.00028010937929182924,0,0,0,0,0,0,1500,1500,1500,1500,1500,1500
1747549559.854881,0.03,0.0,-0.32,0.0,-0.001090830782496456,0.0,-0.007837030946724525,0.1025816691019643,-0.00028010937929182924,0,0,0,0,0,0,1500,1500,1500,1500,1500,1500
1747549559.8553827,0.03,0.0,-0.32,0.0,-0.001090830782496456,0.0,-0.007837030946724525,0.1025816691019643,-0.00028010937929182924,0,0,0,0,0,0,1500,1500,1500,1500,1500,1500
1747549559.9579232,0.06,0.01,-0.36,0.0,0.0,-0.001090830782496456,-0.007837030946724525,0.1025816691019643,-0.00028010937929182924,0,0,0,0,0,0,1500,1500,1500,1500,1500,1500
1747549559.9592261,0.06,0.01,-0.36,0.0,0.0,-0.001090830782496456,-0.007837030946724525,0.1025816691019643,-0.00028010937929182924,0,0,0,0,0,0,1500,1500,1500,1500,1500,1500
1747549560.0399315,0.07,0.0,-0.37,0.001090830782496456,0.001090830782496456,-0.003272492347489368,-0.007837030946724525,0.1025816691019643,-0.00028010937929182924,0,0,0,0,0,0,1500,1500,1500,1500,1500,1500
1747549560.073475,0.07,0.0,-0.37,0.001090830782496456,0.001090830782496456,-0.003272492347489368,-0.007837030946724525,0.1025816691019643,-0.00028010937929182924,0,0,0,0,0,0,1500,1500,1500,1500,1500,1500
1747549560.1379912,0.03,0.0,-0.35000000000000003,0.001090830782496456,-0.003272492347489368,-0.003272492347489368,-0.007837030946724525,0.1025816691019643,-0.00028010937929182924,0,0,0,0,0,0,1500,1500,1500,1500,1500,1500
1747549560.1724274,0.03,0.0,-0.35000000000000003,0.001090830782496456,-0.003272492347489368,-0.003272492347489368,-0.007837030946724525,0.1025816691019643,-0.00028010937929182924,0,0,0,0,0,0,1500,1500,1500,1500,1500,1500
1747549560.238743,0.03,0.0,-0.35000000000000003,0.001090830782496456,-0.003272492347489368,-0.003272492347489368,-0.007837030946724525,0.1025816691019643,-0.00028010937929182924,0,0,0,0,0,0,1500,1500,1500,1500,1500,1500
1747549560.2676673,0.05,-0.01,-0.33,0.003272492347489368,-0.001090830782496456,-0.002181661564992912,-0.007837030946724525,0.1025816691019643,-0.00028010937929182924,0,0,0,0,0,0,1500,1500,1500,1500,1500,1500
1747549560.321764,0.05,-0.01,-0.33,0.003272492347489368,-0.001090830782496456,-0.002181661564992912,-0.007837030946724525,0.1025816691019643,-0.00028010937929182924,0,0,0,0,0,0,1500,1500,1500,1500,1500,1500
1747549560.3536427,0.05,-0.01,-0.33,0.003272492347489368,-0.001090830782496456,-0.002181661564992912,-0.007837030946724525,0.1025816691019643,-0.00028010937929182924,0,0,0,0,0,0,1500,1500,1500,1500,1500,1500
1747549560.4251223,0.03,0.01,-0.32,0.0,0.0,-0.001090830782496456,-0.007837030946724525,0.1025816691019643,-0.00028010937929182924,0,0,0,0,0,0,1500,1500,1500,1500,1500,1500
1747549560.4532735,0.03,0.01,-0.32,0.0,0.0,-0.001090830782496456,-0.007837030946724525,0.1025816691019643,-0.00028010937929182924,0,0,0,0,0,0,1500,1500,1500,1500,1500,1500
1747549560.5207586,0.03,0.01,-0.32,0.0,0.0,-0.001090830782496456,-0.007837030946724525,0.1025816691019643,-0.00028010937929182924,0,0,0,0,0,0,1500,1500,1500,1500,1500,1500
1747549560.553621,0.04,-0.02,-0.31,-0.001090830782496456,0.004363323129985824,0.002181661564992912,-0.007837030946724525,0.1025816691019643,-0.00028010937929182924,0,0,0,0,0,0,1500,1500,1500,1500,1500,1500
1747549560.603965,0.04,-0.02,-0.31,-0.001090830782496456,0.004363323129985824,0.002181661564992912,-0.007837030946724525,0.1025816691019643,-0.00028010937929182924,0,0,0,0,0,0,1500,1500,1500,1500,1500,1500
1747549560.6383018,0.04,-0.02,-0.31,-0.001090830782496456,0.004363323129985824,0.002181661564992912,-0.007837030946724525,0.1025816691019643,-0.00028010937929182924,0,0,0,0,0,0,1500,1500,1500,1500,1500,1500
1747549560.7035942,0.06,-0.01,-0.37,-0.001090830782496456,0.0,0.001090830782496456,-0.007837030946724525,0.1025816691019643,-0.00028010937929182924,0,0,0,0,0,0,1500,1500,1500,1500,1500,1500
1747549560.736841,0.06,-0.01,-0.37,-0.001090830782496456,0.0,0.001090830782496456,-0.007837030946724525,0.1025816691019643,-0.00028010937929182924,0,0,0,0,0,0,1500,1500,1500,1500,1500,1500
1747549560.8014755,0.05,0.0,-0.35000000000000003,0.002181661564992912,-0.001090830782496456,0.001090830782496456,-0.007837030946724525,0.1025816691019643,-0.00028010937929182924,0,0,0,0,0,0,1500,1500,1500,1500,1500,1500
1747549560.8199496,0.03,0.0,-0.29,0.0,0.002181661564992912,0.001090830782496456,-0.007837030946724525,0.1025816691019643,-0.00028010937929182924,0,0,0,0,0,0,1500,1500,1500,1500,1500,1500
1747549560.8886335,0.03,0.0,-0.29,0.0,0.002181661564992912,0.001090830782496456,-0.007837030946724525,0.1025816691019643,-0.00028010937929182924,0,0,0,0,0,0,1500,1500,1500,1500,1500,1500
1747549560.921405,0.03,0.0,-0.29,0.0,0.002181661564992912,0.001090830782496456,-0.007837030946724525,0.1025816691019643,-0.00028010937929182924,0,0,0,0,0,0,1500,1500,1500,1500,1500,1500
1747549560.9877443,0.05,-0.02,-0.34,0.001090830782496456,0.004363323129985824,0.002181661564992912,-0.007837030946724525,0.1025816691019643,-0.00028010937929182924,0,0,0,0,0,0,1500,1500,1500,1500,1500,1500
1747549561.0205183,0.05,-0.02,-0.34,0.001090830782496456,0.004363323129985824,0.002181661564992912,-0.007837030946724525,0.1025816691019643,-0.00028010937929182924,0,0,0,0,0,0,1500,1500,1500,1500,1500,1500
1747549561.0873885,0.05,0.03,-0.35000000000000003,-0.006544984694978736,0.0,-0.001090830782496456,-0.007837030946724525,0.1025816691019643,-0.00028010937929182924,0,0,0,0,0,0,1500,1500,1500,1500,1500,1500
1747549561.1041458,0.01,-0.02,-0.3,0.0,-0.004363323129985824,0.001090830782496456,-0.007837030946724525,0.1025816691019643,-0.00028010937929182924,0,0,0,0,0,0,1500,1500,1500,1500,1500,1500
1747549561.187219,0.01,-0.02,-0.3,0.0,-0.004363323129985824,0.001090830782496456,-0.007837030946724525,0.1025816691019643,-0.00028010937929182924,0,0,0,0,0,0,1500,1500,1500,1500,1500,1500
1747549561.2034903,0.01,-0.02,-0.3,0.0,-0.004363323129985824,0.001090830782496456,-0.007837030946724525,0.1025816691019643,-0.00028010937929182924,0,0,0,0,0,0,1500,1500,1500,1500,1500,1500
1747549561.286742,0.04,0.0,-0.33,-0.001090830782496456,0.0,-0.001090830782496456,-0.007837030946724525,0.1025816691019643,-0.00028010937929182924,0,0,0,0,0,0,1500,1500,1500,1500,1500,1500
1747549561.3040552,0.04,0.0,-0.33,-0.001090830782496456,0.0,-0.001090830782496456,-0.007837030946724525,0.1025816691019643,-0.00028010937929182924,0,0,0,0,0,0,1500,1500,1500,1500,1500,1500
1747549561.370338,0.05,0.0,-0.35000000000000003,-0.001090830782496456,0.004363323129985824,0.0,-0.007837030946724525,0.1025816691019643,-0.00028010937929182924,0,0,0,0,0,0,1500,1500,1500,1500,1500,1500
1747549561.4034646,0.05,0.0,-0.35000000000000003,-0.001090830782496456,0.004363323129985824,0.0,-0.007837030946724525,0.1025816691019643,-0.00028010937929182924,0,0,0,0,0,0,1500,1500,1500,1500,1500,1500
1747549561.4704509,0.04,0.01,-0.33,0.003272492347489368,-0.003272492347489368,0.0,-0.007837030946724525,0.1025816691019643,-0.00028010937929182924,0,0,0,0,0,0,1500,1500,1500,1500,1500,1500
1747549561.5035996,0.04,0.01,-0.33,0.003272492347489368,-0.003272492347489368,0.0,-0.007837030946724525,0.1025816691019643,-0.00028010937929182924,0,0,0,0,0,0,1500,1500,1500,1500,1500,1500
1747549561.5595543,0.04,0.0,-0.35000000000000003,0.003272492347489368,0.0,0.001090830782496456,-0.007837030946724525,0.1025816691019643,-0.00028010937929182924,0,0,0,0,0,0,1500,1500,1500,1500,1500,1500
1747549561.587008,0.04,0.0,-0.35000000000000003,0.003272492347489368,0.0,0.001090830782496456,-0.007837030946724525,0.1025816691019643,-0.00028010937929182924,0,0,0,0,0,0,1500,1500,1500,1500,1500,1500
1747549561.6542518,0.04,0.0,-0.35000000000000003,0.003272492347489368,0.0,0.001090830782496456,-0.007837030946724525,0.1025816691019643,-0.00028010937929182924,0,0,0,0,0,0,1500,1500,1500,1500,1500,1500
1747549561.6864297,0.05,0.01,-0.31,0.002181661564992912,0.0,-0.002181661564992912,-0.007837030946724525,0.1025816691019643,-0.00028010937929182924,0,0,0,0,0,0,1500,1500,1500,1500,1500,1500
1747549561.7528977,0.04,0.0,-0.28,0.001090830782496456,0.001090830782496456,0.001090830782496456,-0.007837030946724525,0.1025816691019643,-0.00028010937929182924,0,0,0,0,0,0,1500,1500,1500,1500,1500,1500
1747549561.787251,0.04,0.0,-0.28,0.001090830782496456,0.001090830782496456,0.001090830782496456,-0.007837030946724525,0.1025816691019643,-0.00028010937929182924,0,0,0,0,0,0,1500,1500,1500,1500,1500,1500
1747549561.841265,0.04,0.0,-0.35000000000000003,0.001090830782496456,0.001090830782496456,-0.001090830782496456,-0.007837030946724525,0.1025816691019643,-0.00028010937929182924,0,0,0,0,0,0,1500,1500,1500,1500,1500,1500
1747549561.8711257,0.04,0.0,-0.35000000000000003,0.001090830782496456,0.001090830782496456,-0.001090830782496456,-0.007837030946724525,0.1025816691019643,-0.00028010937929182924,0,0,0,0,0,0,1500,1500,1500,1500,1500,1500
1747549561.938852,0.04,0.0,-0.35000000000000003,0.001090830782496456,0.001090830782496456,-0.001090830782496456,-0.007837030946724525,0.1025816691019643,-0.00028010937929182924,0,0,0,0,0,0,1500,1500,1500,1500,1500,1500
1747549561.9717603,0.04,0.0,-0.33,0.004363323129985824,0.002181661564992912,-0.001090830782496456,-0.007837030946724525,0.1025816691019643,-0.00028010937929182924,0,0,0,0,0,0,1500,1500,1500,1500,1500,1500
1747549562.0386927,0.04,0.0,-0.33,0.004363323129985824,0.002181661564992912,-0.001090830782496456,-0.007837030946724525,0.1025816691019643,-0.00028010937929182924,0,0,0,0,0,0,1500,1500,1500,1500,1500,1500
1747549562.0716588,0.04,0.0,-0.33,0.004363323129985824,0.002181661564992912,-0.001090830782496456,-0.007837030946724525,0.1025816691019643,-0.00028010937929182924,0,0,0,0,0,0,1500,1500,1500,1500,1500,1500
1747549562.138626,0.03,0.0,-0.34,-0.001090830782496456,0.0,0.002181661564992912,-0.007837030946724525,0.1025816691019643,-0.00028010937929182924,0,0,0,0,0,0,1500,1500,1500,1500,1500,1500
1747549562.1708906,0.03,0.0,-0.34,-0.001090830782496456,0.0,0.002181661564992912,-0.007837030946724525,0.1025816691019643,-0.00028010937929182924,0,0,0,0,0,0,1500,1500,1500,1500,1500,1500
1747549562.2382987,0.04,0.01,-0.32,0.0,0.003272492347489368,-0.001090830782496456,-0.007837030946724525,0.1025816691019643,-0.00028010937929182924,0,0,0,0,0,0,1500,1500,1500,1500,1500,1500
1747549562.2593057,0.03,0.01,-0.35000000000000003,0.001090830782496456,0.002181661564992912,-0.001090830782496456,-0.007837030946724525,0.1025816691019643,-0.00028010937929182924,0,0,0,0,0,0,1500,1500,1500,1500,1500,1500
1747549562.3217056,0.03,0.01,-0.35000000000000003,0.001090830782496456,0.002181661564992912,-0.001090830782496456,-0.007837030946724525,0.1025816691019643,-0.00028010937929182924,0,0,0,0,0,0,1500,1500,1500,1500,1500,1500
1747549562.3552067,0.03,0.01,-0.35000000000000003,0.001090830782496456,0.002181661564992912,-0.001090830782496456,-0.007837030946724525,0.1025816691019643,-0.00028010937929182924,0,0,0,0,0,0,1500,1500,1500,1500,1500,1500
1747549562.4224513,0.03,-0.01,-0.33,-0.001090830782496456,0.002181661564992912,0.001090830782496456,-0.007837030946724525,0.1025816691019643,-0.00028010937929182924,0,0,0,0,0,0,1500,1500,1500,1500,1500,1500
1747549562.4552686,0.03,-0.01,-0.33,-0.001090830782496456,0.002181661564992912,0.001090830782496456,-0.007837030946724525,0.1025816691019643,-0.00028010937929182924,0,0,0,0,0,0,1500,1500,1500,1500,1500,1500
1747549562.522026,0.05,0.0,-0.31,0.0,0.0,0.002181661564992912,-0.007837030946724525,0.1025816691019643,-0.00028010937929182924,0,0,0,0,0,0,1500,1500,1500,1500,1500,1500
1747549562.5552132,0.06,0.01,-0.37,0.0,-0.001090830782496456,-0.001090830782496456,-0.007837030946724525,0.1025816691019643,-0.00028010937929182924,0,0,0,0,0,0,1500,1500,1500,1500,1500,1500
1747549562.6056054,0.06,0.01,-0.37,0.0,-0.001090830782496456,-0.001090830782496456,-0.007837030946724525,0.1025816691019643,-0.00028010937929182924,0,0,0,0,0,0,1500,1500,1500,1500,1500,1500
1747549562.6550262,0.04,0.0,-0.29,0.001090830782496456,-0.001090830782496456,0.003272492347489368,-0.007837030946724525,0.1025816691019643,-0.00028010937929182924,0,0,0,0,0,0,1500,1500,1500,1500,1500,1500
1747549562.7204802,0.03,-0.02,-0.34,-0.002181661564992912,0.002181661564992912,0.0,-0.007837030946724525,0.1025816691019643,-0.00028010937929182924,0,0,0,0,0,0,1500,1500,1500,1500,1500,1500
1747549562.7551725,0.03,-0.02,-0.34,-0.002181661564992912,0.002181661564992912,0.0,-0.007837030946724525,0.1025816691019643,-0.00028010937929182924,0,0,0,0,0,0,1500,1500,1500,1500,1500,1500
1747549562.8073583,0.05,0.0,-0.37,0.0,0.001090830782496456,0.002181661564992912,-0.007837030946724525,0.1025816691019643,-0.00028010937929182924,0,0,0,0,0,0,1500,1500,1500,1500,1500,1500
1747549562.8387837,0.05,0.0,-0.37,0.0,0.001090830782496456,0.002181661564992912,-0.007837030946724525,0.1025816691019643,-0.00028010937929182924,0,0,0,0,0,0,1500,1500,1500,1500,1500,1500
1747549562.9049664,0.05,0.0,-0.37,0.0,0.001090830782496456,0.002181661564992912,-0.007837030946724525,0.1025816691019643,-0.00028010937929182924,0,0,0,0,0,0,1500,1500,1500,1500,1500,1500
1747549562.9381006,0.06,0.0,-0.34,0.0,0.0,0.0,-0.007837030946724525,0.1025816691019643,-0.00028010937929182924,0,0,0,0,0,0,1500,1500,1500,1500,1500,1500
1747549563.0051146,0.06,0.0,-0.34,0.0,0.0,0.0,-0.007837030946724525,0.1025816691019643,-0.00028010937929182924,0,0,0,0,0,0,1500,1500,1500,1500,1500,1500
1747549563.0383785,0.06,0.0,-0.34,0.0,0.0,0.0,-0.007837030946724525,0.1025816691019643,-0.00028010937929182924,0,0,0,0,0,0,1500,1500,1500,1500,1500,1500
1747549563.087694,0.06,0.01,-0.36,0.001090830782496456,0.002181661564992912,0.001090830782496456,-0.007837030946724525,0.1025816691019643,-0.00028010937929182924,0,0,0,0,0,0,1500,1500,1500,1500,1500,1500
1747549563.1377718,0.06,0.01,-0.36,0.001090830782496456,0.002181661564992912,0.001090830782496456,-0.007837030946724525,0.1025816691019643,-0.00028010937929182924,0,0,0,0,0,0,1500,1500,1500,1500,1500,1500
1747549563.1874,0.06,0.01,-0.36,0.001090830782496456,0.002181661564992912,0.001090830782496456,-0.007837030946724525,0.1025816691019643,-0.00028010937929182924,0,-3.503365,0,0,0,-0.000811,1460,1460,1460,1500,1500,1500
1747549563.2365553,0.02,0.0,-0.31,0.0,0.004363323129985824,-0.001090830782496456,-0.007837030946724525,0.1025816691019643,-0.00028010937929182924,0,-11.489294,0,0,0,-0.01399,1420,1420,1420,1500,1500,1500
1747549563.2879117,0.02,0.0,-0.31,0.0,0.004363323129985824,-0.001090830782496456,-0.007837030946724525,0.1025816691019643,-0.00028010937929182924,0,-12.5,0,0,0,-0.01399,1380,1380,1395,1500,1500,1500
1747549563.3374238,0.03,0.0,-0.35000000000000003,0.0,0.004363323129985824,-0.001090830782496456,-0.007837030946724525,0.1025816691019643,-0.00028010937929182924,0,-12.5,0,0,0,-0.01399,1375,1377,1395,1500,1500,1500
1747549563.3704212,0.03,0.0,-0.38,0.0,0.004363323129985824,-0.001090830782496456,-0.007837030946724525,0.1025816691019643,-0.00028010937929182924,0,-12.5,0,0,0,-0.01399,1375,1377,1395,1500,1500,1500
1747549563.4375958,0.03,0.0,-0.38,0.0,0.004363323129985824,-0.001090830782496456,-0.007837030946724525,0.1025816691019643,-0.00028010937929182924,0,-12.5,0,0,0,-0.01399,1375,1377,1395,1500,1500,1500
1747549563.4711711,0.03,0.0,-0.38,0.0,0.004363323129985824,-0.001090830782496456,-0.007837030946724525,0.1025816691019643,-0.00028010937929182924,0,-12.5,0,0,0,-0.01399,1375,1377,1395,1500,1500,1500
1747549563.5371532,1.03,0.5,-0.39,0.006544984694978736,0.0,0.004363323129985824,-0.00796577660598316,0.1024586398890702,-0.0004084596057330646,0,-12.5,0,0,0,-0.01399,1375,1377,1395,1500,1500,1500
1747549563.569932,1.03,0.5,-0.39,0.006544984694978736,0.0,0.004363323129985824,-0.00796577660598316,0.1024586398890702,-0.0004084596057330646,0,-12.5,0,0,0,-0.01399,1375,1377,1395,1500,1500,1500
1747549563.6209047,0.06,0.04,-0.32,-0.007635815477475192,-0.002181661564992912,0.004363323129985824,-0.007959492811269897,0.10245912672995897,-0.00028591049947188036,0,-12.5,0,0,0,-0.01399,1375,1377,1395,1500,1500,1500
1747549563.6711023,0.06,0.04,-0.32,-0.006544984694978736,0.0,0.0,-0.007959492811269897,0.10245912672995897,-0.00028591049947188036,0,-12.5,0,0,0,-0.01399,1375,1377,1395,1500,1500,1500
1747549563.7204785,0.06,0.04,-0.32,-0.006544984694978736,0.0,0.0,-0.007959492811269897,0.10245912672995897,-0.00028591049947188036,0,-12.5,0,0,0,-0.01399,1375,1377,1395,1500,1500,1500
1747549563.7714283,0.12,-0.14,-0.36,-0.008726646259971648,-0.004363323129985824,0.003272492347489368,-0.007959492811269897,0.10245912672995897,-0.00028591049947188036,0,-12.5,0,0,0,-0.015672,1375,1377,1395,1500,1500,1500
1747549563.8209007,0.12,-0.14,-0.36,-0.008726646259971648,-0.004363323129985824,0.003272492347489368,-0.007959492811269897,0.10245912672995897,-0.00028591049947188036,0,-12.5,0,0,0,-0.015672,1375,1377,1395,1500,1500,1500
1747549563.8533165,0.12,-0.14,-0.36,-0.008726646259971648,-0.004363323129985824,0.003272492347489368,-0.007959492811269897,0.10245912672995897,-0.00028591049947188036,0,-12.5,0,0,0,-0.015672,1375,1377,1395,1500,1500,1500
1747549563.9203131,0.06,-0.04,-0.33,0.002181661564992912,0.00545415391248228,-0.001090830782496456,-0.007959492811269897,0.10245912672995897,-0.00028591049947188036,0,-12.5,0,0,0,-0.015672,1375,1377,1395,1500,1500,1500
1747549563.9535146,0.06,-0.04,-0.33,0.002181661564992912,0.00545415391248228,-0.001090830782496456,-0.007959492811269897,0.10245912672995897,-0.00028591049947188036,0,-12.5,0,0,0,-0.015672,1375,1377,1395,1500,1500,1500
1747549564.0200162,0.08,-0.08,-0.3,-0.002181661564992912,0.0,0.002181661564992912,-0.007959492811269897,0.10245912672995897,-0.00028591049947188036,0,-12.5,0,0,0,-0.015672,1375,1377,1395,1500,1500,1500
1747549564.053336,0.08,0.0,-0.28,0.001090830782496456,-0.001090830782496456,0.001090830782496456,-0.007959492811269897,0.10245912672995897,-0.00028591049947188036,0,-12.5,0,0,0,-0.017449,1375,1377,1395,1500,1500,1500
1747549564.103332,0.08,0.0,-0.28,0.001090830782496456,-0.001090830782496456,0.001090830782496456,-0.007959492811269897,0.10245912672995897,-0.00028591049947188036,0,-12.5,0,0,0,-0.017449,1375,1377,1395,1500,1500,1500
1747549564.1365495,0.08,0.0,-0.28,0.001090830782496456,-0.001090830782496456,0.001090830782496456,-0.007959492811269897,0.10245912672995897,-0.00028591049947188036,0,-12.5,0,0,0,-0.017449,1375,1377,1395,1500,1500,1500
1747549564.2032924,0.03,-0.02,-0.41000000000000003,0.002181661564992912,0.002181661564992912,0.0,-0.007959492811269897,0.10245912672995897,-0.00028591049947188036,0,-12.5,0,0,0,-0.019321,1375,1377,1395,1500,1500,1500
1747549564.2367454,0.03,-0.02,-0.41000000000000003,0.002181661564992912,0.002181661564992912,0.0,-0.007959492811269897,0.10245912672995897,-0.00028591049947188036,0,-12.5,0,0,0,-0.019321,1375,1377,1395,1500,1500,1500
1747549564.2920108,0.02,-0.02,-0.29,0.0,0.0,0.002181661564992912,-0.007959492811269897,0.10245912672995897,-0.00028591049947188036,0,-12.5,0,0,0,-0.019321,1375,1377,1395,1500,1500,1500
1747549564.336891,0.09,0.0,-0.3,0.0,0.0,0.002181661564992912,-0.007959492811269897,0.10245912672995897,-0.00028591049947188036,0,-12.5,0,0,0,-0.019321,1375,1377,1395,1500,1500,1500
1747549564.3868115,0.09,0.0,-0.3,0.0,0.0,0.002181661564992912,-0.007959492811269897,0.10245912672995897,-0.00028591049947188036,0,-12.5,0,0,0,-0.019321,1375,1377,1395,1500,1500,1500
1747549564.4371567,0.06,0.07,-0.31,-0.001090830782496456,0.003272492347489368,0.002181661564992912,-0.007959492811269897,0.10245912672995897,-0.00028591049947188036,0,-12.5,0,0,0,-0.019321,1375,1377,1395,1500,1500,1500
1747549564.4877632,0.03,-0.04,-0.33,-0.001090830782496456,0.001090830782496456,0.0,-0.007959492811269897,0.10245912672995897,-0.00028591049947188036,0,-12.5,0,0,0,-0.019321,1375,1377,1395,1500,1500,1500
1747549564.5372322,0.03,-0.04,-0.33,-0.001090830782496456,0.001090830782496456,0.0,-0.007959492811269897,0.10245912672995897,-0.00028591049947188036,0,-12.5,0,0,0,-0.025512,1375,1377,1395,1500,1500,1500
1747549564.573644,0.1,-0.12,-0.32,0.001090830782496456,-0.001090830782496456,0.002181661564992912,-0.007959492811269897,0.10245912672995897,-0.00028591049947188036,0,-12.5,0,0,0,-0.025512,1375,1377,1395,1500,1500,1500
1747549564.6201699,0.06,-0.05,-0.37,-0.00545415391248228,0.004363323129985824,-0.001090830782496456,-0.007959492811269897,0.10245912672995897,-0.00028591049947188036,0,-12.5,0,0,0,-0.025512,1375,1377,1395,1500,1500,1500
1747549564.669978,0.06,-0.05,-0.37,-0.00545415391248228,0.004363323129985824,-0.001090830782496456,-0.007959492811269897,0.10245912672995897,-0.00028591049947188036,0,-12.5,0,0,0,-0.025512,1375,1377,1395,1500,1500,1500
1747549564.720416,0.06,-0.05,-0.37,-0.00545415391248228,0.004363323129985824,-0.001090830782496456,-0.007959492811269897,0.10245912672995897,-0.00028591049947188036,0,-12.5,0,0,0,-0.025512,1375,1377,1395,1500,1500,1500
1747549564.7705324,0.0,-0.01,-0.45,0.0,0.002181661564992912,0.002181661564992912,-0.007959492811269897,0.10245912672995897,-0.00028591049947188036,0,-12.5,0,0,0,-0.025512,1375,1377,1395,1500,1500,1500
1747549564.820575,-0.02,0.02,-0.49,0.001090830782496456,-0.002181661564992912,0.0,-0.007959492811269897,0.10245912672995897,-0.00028591049947188036,0,-12.5,0,0,0,-0.025512,1375,1377,1395,1500,1500,1500
1747549564.8533933,-0.02,0.02,-0.49,0.001090830782496456,-0.002181661564992912,0.0,-0.007959492811269897,0.10245912672995897,-0.00028591049947188036,0,-12.5,0,0,0,-0.025512,1375,1377,1395,1500,1500,1500
1747549564.920477,0.05,-0.01,-0.22,-0.006544984694978736,0.003272492347489368,0.003272492347489368,-0.007959492811269897,0.10245912672995897,-0.00028591049947188036,0,-12.5,0,0,0,-0.035101,1375,1377,1395,1500,1500,1500
1747549564.9538748,0.06,0.04,-0.28,0.0,0.004363323129985824,0.0,-0.007959492811269897,0.10245912672995897,-0.00028591049947188036,0,-12.5,0,0,0,-0.043296,1375,1377,1395,1500,1500,1500
1747549565.0197747,0.06,0.04,-0.28,0.0,0.004363323129985824,0.0,-0.007959492811269897,0.10245912672995897,-0.00028591049947188036,0,-12.5,0,0,0,-0.009517,1375,1377,1395,1500,1500,1500
1747549565.042786,0.04,0.0,-0.31,-0.002181661564992912,-0.001090830782496456,0.001090830782496456,-0.007959492811269897,0.10245912672995897,-0.00028591049947188036,0,-12.5,0,0,0,-0.001252,1375,1377,1395,1500,1500,1500
1747549565.1034398,0.04,0.04,-0.39,0.003272492347489368,-0.001090830782496456,0.001090830782496456,-0.007959492811269897,0.10245912672995897,-0.00028591049947188036,0,-12.5,0,0,0,0,1375,1377,1395,1500,1500,1500
1747549565.1367116,0.04,0.04,-0.39,0.003272492347489368,-0.001090830782496456,0.001090830782496456,-0.007959492811269897,0.10245912672995897,-0.00028591049947188036,0,-12.5,0,0,0,0,1375,1377,1395,1500,1500,1500
1747549565.2037601,0.04,0.04,-0.39,0.003272492347489368,-0.001090830782496456,0.001090830782496456,-0.007959492811269897,0.10245912672995897,-0.00028591049947188036,0,-3.613487,0,0,0,0,1415,1417,1435,1500,1500,1500
1747549565.2368493,0.01,-0.02,-0.46,-0.001090830782496456,0.002181661564992912,0.003272492347489368,-0.007959492811269897,0.10245912672995897,-0.00028591049947188036,0,-0.105417,0,0,0,0,1455,1457,1475,1500,1500,1500
1747549565.303753,-0.05,0.04,-0.44,0.0,0.002181661564992912,0.0,-0.007959492811269897,0.10245912672995897,-0.00028591049947188036,0,0,0,0,0,0,1495,1497,1500,1500,1500,1500
1747549565.337105,-0.05,0.04,-0.44,0.0,0.002181661564992912,0.0,-0.007959492811269897,0.10245912672995897,-0.00028591049947188036,0,0,0,0,0,0,1500,1500,1500,1500,1500,1500
1747549565.3865256,0.24,0.0,-0.35000000000000003,-0.006544984694978736,-0.004363323129985824,0.006544984694978736,-0.007959492811269897,0.10245912672995897,-0.00028591049947188036,0,0,0,0,0,0,1500,1500,1500,1500,1500,1500
1747549565.4364128,-0.19,0.38,-0.46,0.004363323129985824,0.0,0.006544984694978736,-0.007959492811269897,0.10245912672995897,-0.00028591049947188036,0,0,0,0,0,0,1500,1500,1500,1500,1500,1500
1747549565.486554,-0.19,0.38,-0.46,0.004363323129985824,0.0,0.006544984694978736,-0.007959492811269897,0.10245912672995897,-0.00028591049947188036,0,0,0,0,0,0,1500,1500,1500,1500,1500,1500
1747549565.5369778,,,,0.006544984694978736,0.003272492347489368,-0.001090830782496456,-0.008088329646902067,0.1024586398890702,-0.00041474359895226265,0,0,0,0,0,0,1500,1500,1500,1500,1500,1500
1747549565.586699,0.0,-0.01,-0.28,-0.014180800172453928,0.001090830782496456,0.0,-0.00808204585838178,0.10245913421981898,-0.0002921944932777169,0,0,0,0,0,0,1500,1500,1500,1500,1500,1500
1747549565.619832,0.0,-0.01,-0.28,-0.014180800172453928,0.001090830782496456,0.0,-0.00808204585838178,0.10245913421981898,-0.0002921944932777169,0,0,0,0,0,0,1500,1500,1500,1500,1500,1500
1747549565.6874182,0.05,-0.09,-0.3,-0.008726646259971648,0.002181661564992912,0.001090830782496456,-0.008204599026116168,0.102459141709679,-0.0002984784870604768,0,0,0,0,0,0,1500,1500,1500,1500,1500,1500
1747549565.7201443,0.05,-0.09,-0.3,-0.008726646259971648,0.002181661564992912,0.001090830782496456,-0.008204599026116168,0.102459141709679,-0.0002984784870604768,0,0,0,0,0,0,1500,1500,1500,1500,1500,1500
1747549565.7873762,0.08,-0.09,-0.29,0.0,-0.001090830782496456,-0.002181661564992912,-0.008204599026116168,0.102459141709679,-0.0002984784870604768,0,0,0,0,0,0,1500,1500,1500,1500,1500,1500
1747549565.8203423,0.08,-0.09,-0.29,0.0,-0.001090830782496456,-0.002181661564992912,-0.008204599026116168,0.102459141709679,-0.0002984784870604768,0,0,0,0,0,0,1500,1500,1500,1500,1500,1500
1747549565.8696034,0.03,0.06,-0.36,0.001090830782496456,0.002181661564992912,-0.003272492347489368,-0.008204599026116168,0.102459141709679,-0.0002984784870604768,0,0,0,0,0,0,1500,1500,1500,1500,1500,1500
1747549565.920453,0.0,0.06,-0.36,-0.002181661564992912,-0.002181661564992912,-0.001090830782496456,-0.008204599026116168,0.102459141709679,-0.0002984784870604768,0,0,0,0,0,0,1500,1500,1500,1500,1500,1500
1747549565.970407,0.0,0.06,-0.36,-0.002181661564992912,-0.002181661564992912,-0.001090830782496456,-0.008204599026116168,0.102459141709679,-0.0002984784870604768,0,0,0,0,0,0,1500,1500,1500,1500,1500,1500
1747549566.0206623,0.06,0.05,-0.27,0.001090830782496456,0.002181661564992912,0.001090830782496456,-0.008204599026116168,0.102459141709679,-0.0002984784870604768,0,0,0,0,0,0,1500,1500,1500,1500,1500,1500
1747549566.0703733,0.04,-0.01,-0.28,-0.002181661564992912,0.001090830782496456,-0.001090830782496456,-0.008204599026116168,0.102459141709679,-0.0002984784870604768,0,0,0,0,0,0,1500,1500,1500,1500,1500,1500
1747549566.103029,0.04,-0.01,-0.28,-0.002181661564992912,0.001090830782496456,-0.001090830782496456,-0.008204599026116168,0.102459141709679,-0.0002984784870604768,0,0,0,0,0,0,1500,1500,1500,1500,1500,1500
1747549566.169868,0.04,-0.01,-0.28,-0.002181661564992912,0.001090830782496456,-0.001090830782496456,-0.008204599026116168,0.102459141709679,-0.0002984784870604768,0,0,0,0,0,0,1500,1500,1500,1500,1500,1500
1747549566.2039137,0.05,0.0,-0.36,-0.002181661564992912,0.004363323129985824,0.0,-0.008204599026116168,0.102459141709679,-0.0002984784870604768,0,0,0,0,0,0,1500,1500,1500,1500,1500,1500
1747549566.2706363,0.06,0.0,-0.37,-0.001090830782496456,0.0,-0.002181661564992912,-0.008204599026116168,0.102459141709679,-0.0002984784870604768,0,0,0,0,0,0,1500,1500,1500,1500,1500,1500
1747549566.303336,0.06,0.0,-0.37,-0.001090830782496456,0.0,-0.002181661564992912,-0.008204599026116168,0.102459141709679,-0.0002984784870604768,0,0,0,0,0,0,1500,1500,1500,1500,1500,1500
1747549566.3535101,0.05,-0.02,-0.32,-0.003272492347489368,0.001090830782496456,0.001090830782496456,-0.008204599026116168,0.102459141709679,-0.0002984784870604768,0,0,0,0,0,0,1500,1500,1500,1500,1500,1500
1747549566.3877158,0.03,0.02,-0.33,0.001090830782496456,-0.002181661564992912,0.001090830782496456,-0.008204599026116168,0.102459141709679,-0.0002984784870604768,0,0,0,0,0,0,1500,1500,1500,1500,1500,1500
1747549566.4535985,0.03,0.02,-0.33,0.001090830782496456,-0.002181661564992912,0.001090830782496456,-0.008204599026116168,0.102459141709679,-0.0002984784870604768,0,0,0,0,0,0,1500,1500,1500,1500,1500,1500
1747549566.482726,0.03,0.04,-0.35000000000000003,0.003272492347489368,-0.001090830782496456,0.001090830782496456,-0.008204599026116168,0.102459141709679,-0.0002984784870604768,0,0,0,0,0,0,1500,1500,1500,1500,1500,1500
1747549566.5539129,0.05,0.01,-0.34,-0.00545415391248228,0.001090830782496456,0.0,-0.008204599026116168,0.102459141709679,-0.0002984784870604768,0,0,0,0,0,0,1500,1500,1500,1500,1500,1500
1747549566.58628,0.05,0.01,-0.34,-0.00545415391248228,0.001090830782496456,0.0,-0.008204599026116168,0.102459141709679,-0.0002984784870604768,0,0,0,0,0,0,1500,1500,1500,1500,1500,1500
1747549566.6361566,0.05,0.01,-0.34,-0.00545415391248228,0.001090830782496456,0.0,-0.008204599026116168,0.102459141709679,-0.0002984784870604768,0,0,0,0,0,0,1500,1500,1500,1500,1500,1500
1747549566.686833,0.05,0.0,-0.28,0.001090830782496456,0.0,0.002181661564992912,-0.008204599026116168,0.102459141709679,-0.0002984784870604768,0,0,0,0,0,0,1500,1500,1500,1500,1500,1500
1747549566.7371907,0.05,-0.01,-0.29,0.0,0.002181661564992912,0.0,-0.008204599026116168,0.102459141709679,-0.0002984784870604768,0,0,0,0,0,0,1500,1500,1500,1500,1500,1500
1747549566.788025,0.05,-0.01,-0.29,0.0,0.002181661564992912,0.0,-0.008204599026116168,0.102459141709679,-0.0002984784870604768,0,0,0,0,0,0,1500,1500,1500,1500,1500,1500
1747549566.8367977,0.06,0.02,-0.36,0.0,0.0,-0.001090830782496456,-0.008204599026116168,0.102459141709679,-0.0002984784870604768,0,0,0,0,0,0,1500,1500,1500,1500,1500,1500
1747549566.87003,0.05,0.01,-0.35000000000000003,-0.001090830782496456,-0.003272492347489368,-0.001090830782496456,-0.008204599026116168,0.102459141709679,-0.0002984784870604768,0,0,0,0,0,0,1500,1500,1500,1500,1500,1500
1747549566.9366732,0.05,0.01,-0.35000000000000003,-0.001090830782496456,-0.003272492347489368,-0.001090830782496456,-0.008204599026116168,0.102459141709679,-0.0002984784870604768,0,0,0,0,0,0,1500,1500,1500,1500,1500,1500
1747549567.0158021,0.05,0.01,-0.35000000000000003,-0.001090830782496456,-0.003272492347489368,-0.001090830782496456,-0.008204599026116168,0.102459141709679,-0.0002984784870604768,0,0,0,0,0,0,1500,1500,1500,1500,1500,1500
1747549567.039827,,,,0.0,-0.001090830782496456,-0.002181661564992912,-0.008204599026116168,0.102459141709679,-0.0002984784870604768,0,0,0,0,0,0,1500,1500,1500,1500,1500,1500
1747549567.1036308,,,,0.0,-0.001090830782496456,-0.002181661564992912,-0.008204599026116168,0.102459141709679,-0.0002984784870604768,0,0,0,0,0,0,1500,1500,1500,1500,1500,1500
1747549567.1366553,0.07,0.01,-0.34,0.002181661564992912,0.001090830782496456,0.001090830782496456,-0.008204599026116168,0.102459141709679,-0.0002984784870604768,0,0,0,0,0,0,1500,1500,1500,1500,1500,1500
1747549567.2041366,0.04,-0.01,-0.34,-0.002181661564992912,-0.001090830782496456,0.001090830782496456,-0.008204599026116168,0.102459141709679,-0.0002984784870604768,0,0,0,0,0,0,1500,1500,1500,1500,1500,1500
1747549567.2370944,0.04,-0.01,-0.34,-0.002181661564992912,-0.001090830782496456,0.001090830782496456,-0.008204599026116168,0.102459141709679,-0.0002984784870604768,0,0,0,0,0,0,1500,1500,1500,1500,1500,1500
1747549567.3037925,0.04,-0.01,-0.31,0.002181661564992912,0.002181661564992912,0.002181661564992912,-0.008204599026116168,0.102459141709679,-0.0002984784870604768,0,0,0,0,0,0,1500,1500,1500,1500,1500,1500
1747549567.3275197,0.03,0.0,-0.25,-0.003272492347489368,0.002181661564992912,-0.002181661564992912,-0.008204599026116168,0.102459141709679,-0.0002984784870604768,0,0,0,0,0,0,1500,1500,1500,1500,1500,1500
1747549567.3866785,0.03,0.0,-0.25,-0.003272492347489368,0.002181661564992912,-0.002181661564992912,-0.008204599026116168,0.102459141709679,-0.0002984784870604768,0,0,0,0,0,0,1500,1500,1500,1500,1500,1500
1747549567.4202833,0.03,0.0,-0.25,-0.003272492347489368,0.002181661564992912,-0.002181661564992912,-0.008204599026116168,0.102459141709679,-0.0002984784870604768,0,0,0,0,0,0,1500,1500,1500,1500,1500,1500
1747549567.4831648,0.04,0.0,-0.33,-0.001090830782496456,-0.004363323129985824,0.0,-0.008204599026116168,0.102459141709679,-0.0002984784870604768,0,0,0,0,0,0,1500,1500,1500,1500,1500,1500
1747549567.5205412,0.04,0.0,-0.33,-0.001090830782496456,-0.004363323129985824,0.0,-0.008204599026116168,0.102459141709679,-0.0002984784870604768,0,0,0,0,0,0,1500,1500,1500,1500,1500,1500
1747549567.5872626,0.04,0.0,-0.33,-0.001090830782496456,-0.004363323129985824,0.0,-0.008204599026116168,0.102459141709679,-0.0002984784870604768,0,0,0,0,0,0,1500,1500,1500,1500,1500,1500
1747549567.6043043,0.04,0.0,-0.28,0.001090830782496456,0.0,-0.001090830782496456,-0.008204599026116168,0.102459141709679,-0.0002984784870604768,0,0,0,0,0,0,1500,1500,1500,1500,1500,1500
1747549567.6875823,0.05,0.0,-0.32,0.0,0.001090830782496456,0.002181661564992912,-0.008204599026116168,0.102459141709679,-0.0002984784870604768,0,0,0,0,0,0,1500,1500,1500,1500,1500,1500
1747549567.7033076,0.05,0.0,-0.32,0.0,0.001090830782496456,0.002181661564992912,-0.008204599026116168,0.102459141709679,-0.0002984784870604768,0,0,0,0,0,0,1500,1500,1500,1500,1500,1500
1747549567.787349,0.04,0.0,-0.36,0.0,0.002181661564992912,0.0,-0.008204599026116168,0.102459141709679,-0.0002984784870604768,0,0,0,0,0,0,1500,1500,1500,1500,1500,1500
1747549567.803314,0.04,0.0,-0.36,0.0,0.002181661564992912,0.0,-0.008204599026116168,0.102459141709679,-0.0002984784870604768,0,0,0,0,0,0,1500,1500,1500,1500,1500,1500
