time,ay,ax,az,gy,gx,gz,roll,pitch,yaw,cmd_fx,cmd_fy,cmd_fz,cmd_tx,cmd_ty,cmd_tz,pwm_1,pwm_2,pwm_3,pwm_4,pwm_5,pwm_6
1748735558.1669414,0.0,0.0,0.0,0.0,0.0,0.0,0.0,0.0,0.0,0,0,0,0,0,0,1500,1500,1500,1500,1500,1500
1748735558.2626922,0.01,-0.02,0.05,0.001090830782496456,-0.001090830782496456,0.002181661564992912,0.005550345120494604,0.7266628260897459,1.6111550684999687,0,0,0,0,0,0,1500,1500,1500,1500,1500,1500
1748735558.3633285,0.01,-0.02,0.05,0.001090830782496456,-0.001090830782496456,0.002181661564992912,0.005550345120494604,0.7266628260897459,1.6111550684999687,0,0,0,0,0,0,1500,1500,1500,1500,1500,1500
1748735558.4635124,0.0,-0.01,0.02,0.002181661564992912,-0.002181661564992912,0.001090830782496456,0.005550345120494604,0.7266628260897459,1.6111550684999687,0,0,0,0,0,0,1500,1500,1500,1500,1500,1500
1748735558.5634475,0.01,0.0,0.01,0.0,-0.004363323129985824,0.002181661564992912,0.005550345120494604,0.7266628260897459,1.6111550684999687,0,0,0,0,0,0,1500,1500,1500,1500,1500,1500
1748735558.6464334,0.01,0.0,0.01,0.0,-0.004363323129985824,0.002181661564992912,0.005550345120494604,0.7266628260897459,1.6111550684999687,0,0,0,0,0,0,1500,1500,1500,1500,1500,1500
1748735558.7460556,0.0,-0.03,0.06,-0.002181661564992912,-0.001090830782496456,0.004363323129985824,0.005550345120494604,0.7266628260897459,1.6111550684999687,0,0,0,0,0,0,1500,1500,1500,1500,1500,1500
1748735558.846084,0.0,-0.03,0.06,-0.002181661564992912,-0.001090830782496456,0.004363323129985824,0.005550345120494604,0.7266628260897459,1.6111550684999687,0,0,0,0,0,0,1500,1500,1500,1500,1500,1500
1748735558.9297426,0.0,-0.01,0.01,0.002181661564992912,-0.004363323129985824,0.001090830782496456,0.005550345120494604,0.7266628260897459,1.6111550684999687,0,0,0,0,0,0,1500,1500,1500,1500,1500,1500
1748735559.024865,0.01,-0.02,0.0,0.001090830782496456,-0.002181661564992912,0.0,0.005550345120494604,0.7266628260897459,1.6111550684999687,0,0,0,0,0,0,1500,1500,1500,1500,1500,1500
1748735559.1294212,0.01,-0.02,0.0,0.001090830782496456,-0.002181661564992912,0.0,0.005550345120494604,0.7266628260897459,1.6111550684999687,0,0,0,0,0,0,1500,1500,1500,1500,1500,1500
1748735559.229383,-0.01,0.01,0.01,0.00545415391248228,-0.001090830782496456,0.001090830782496456,0.9394714400776331,-0.33398280480558984,-1.5862833842841817,0,0,0,0,0,0,1500,1500,1500,1500,1500,1500
1748735559.3299854,-0.01,0.01,0.01,0.00545415391248228,-0.001090830782496456,0.001090830782496456,0.9394714400776331,-0.33398280480558984,-1.5862833842841817,0,0,0,0,0,0,1500,1500,1500,1500,1500,1500
1748735559.4128253,0.0,-0.02,0.05,0.003272492347489368,-0.001090830782496456,0.001090830782496456,0.005550345120494604,0.7266628260897459,1.6111550684999687,0,0,0,0,0,0,1500,1500,1500,1500,1500,1500
1748735559.5130398,0.02,0.0,0.02,-0.003272492347489368,0.003272492347489368,0.001090830782496456,0.005550345120494604,0.7266628260897459,1.6111550684999687,0,0,0,0,0,0,1500,1500,1500,1500,1500,1500
1748735559.6125636,0.02,0.0,0.02,-0.003272492347489368,0.003272492347489368,0.001090830782496456,0.005550345120494604,0.7266628260897459,1.6111550684999687,0,0,0,0,0,0,1500,1500,1500,1500,1500,1500
1748735559.6963682,0.02,0.0,0.01,0.0,0.001090830782496456,0.002181661564992912,0.005550345120494604,0.7266628260897459,1.6111550684999687,0,0,0,0,0,0,1500,1500,1500,1500,1500,1500
1748735559.795426,0.02,0.0,0.01,0.0,0.001090830782496456,0.002181661564992912,0.005550345120494604,0.7266628260897459,1.6111550684999687,0,0,0,0,0,0,1500,1500,1500,1500,1500,1500
1748735559.8979948,-0.03,0.0,0.03,-0.003272492347489368,0.001090830782496456,0.001090830782496456,0.005550345120494604,0.7266628260897459,1.6111550684999687,0,0,0,0,0,0,1500,1500,1500,1500,1500,1500
1748735559.9964178,0.0,-0.06,0.03,-0.003272492347489368,0.0,-0.002181661564992912,0.005550345120494604,0.7266628260897459,1.6111550684999687,0,0,0,0,0,0,1500,1500,1500,1500,1500,1500
1748735560.0973127,0.0,-0.06,0.03,-0.003272492347489368,0.0,-0.002181661564992912,0.005550345120494604,0.7266628260897459,1.6111550684999687,0,0,0,0,0,0,1500,1500,1500,1500,1500,1500
1748735560.1797516,0.02,-0.03,0.06,-0.003272492347489368,-0.002181661564992912,0.001090830782496456,0.005550345120494604,0.7266628260897459,1.6111550684999687,0,0,0,0,0,0,1500,1500,1500,1500,1500,1500
1748735560.2791066,0.02,-0.03,0.06,-0.003272492347489368,-0.002181661564992912,0.001090830782496456,0.005550345120494604,0.7266628260897459,1.6111550684999687,0,0,0,0,0,0,1500,1500,1500,1500,1500,1500
1748735560.3792176,0.01,0.0,0.0,-0.001090830782496456,0.004363323129985824,0.001090830782496456,0.005550345120494604,0.7266628260897459,1.6111550684999687,0,0,0,0,0,0,1500,1500,1500,1500,1500,1500
1748735560.479656,0.0,0.0,0.05,-0.001090830782496456,0.002181661564992912,0.001090830782496456,0.005550345120494604,0.7266628260897459,1.6111550684999687,0,0,0,0,0,0,1500,1500,1500,1500,1500,1500
1748735560.5791993,0.0,0.0,0.05,-0.001090830782496456,0.002181661564992912,0.001090830782496456,0.005550345120494604,0.7266628260897459,1.6111550684999687,0,0,0,0,0,0,1500,1500,1500,1500,1500,1500
1748735560.6630983,0.0,-0.02,0.07,-0.002181661564992912,-0.00545415391248228,-0.001090830782496456,0.005550345120494604,0.7266628260897459,1.6111550684999687,0,0,0,0,0,0,1500,1500,1500,1500,1500,1500
1748735560.7625089,0.0,-0.02,0.07,-0.002181661564992912,-0.00545415391248228,-0.001090830782496456,0.005550345120494604,0.7266628260897459,1.6111550684999687,0,0,0,0,0,0,1500,1500,1500,1500,1500,1500
1748735560.8632271,0.0,0.01,0.04,0.001090830782496456,0.002181661564992912,-0.001090830782496456,0.005550345120494604,0.7266628260897459,1.6111550684999687,0,0,0,0,0,0,1500,1500,1500,1500,1500,1500
1748735560.946107,0.0,0.0,0.03,-0.003272492347489368,0.00545415391248228,-0.001090830782496456,0.005550345120494604,0.7266628260897459,1.6111550684999687,0,0,0,0,0,0,1500,1500,1500,1500,1500,1500
1748735561.0463881,0.0,0.0,0.03,-0.003272492347489368,0.00545415391248228,-0.001090830782496456,0.005550345120494604,0.7266628260897459,1.6111550684999687,0,0,0,0,0,0,1500,1500,1500,1500,1500,1500
1748735561.1300962,0.02,-0.03,0.02,0.0,0.002181661564992912,-0.002181661564992912,0.005550345120494604,0.7266628260897459,1.6111550684999687,0,0,0,0,0,0,1500,1500,1500,1500,1500,1500
1748735561.229344,0.02,-0.03,0.02,0.0,0.002181661564992912,-0.002181661564992912,0.005550345120494604,0.7266628260897459,1.6111550684999687,0,0,0,0,0,0,1500,1500,1500,1500,1500,1500
1748735561.3294528,0.0,-0.03,0.0,-0.003272492347489368,-0.002181661564992912,0.0,0.005550345120494604,0.7266628260897459,1.6111550684999687,0,0,0,0,0,0,1500,1500,1500,1500,1500,1500
1748735561.413125,0.0,0.0,0.02,0.002181661564992912,0.002181661564992912,-0.001090830782496456,0.005550345120494604,0.7266628260897459,1.6111550684999687,0,0,0,0,0,0,1500,1500,1500,1500,1500,1500
1748735561.5134578,0.0,0.0,0.02,0.002181661564992912,0.002181661564992912,-0.001090830782496456,0.005550345120494604,0.7266628260897459,1.6111550684999687,0,0,0,0,0,0,1500,1500,1500,1500,1500,1500
1748735561.6121426,0.0,-0.01,0.05,-0.001090830782496456,0.002181661564992912,0.0,0.005550345120494604,0.7266628260897459,1.6111550684999687,0,0,0,0,0,0,1500,1500,1500,1500,1500,1500
1748735561.6961055,0.0,-0.01,0.05,-0.001090830782496456,0.002181661564992912,0.0,0.005550345120494604,0.7266628260897459,1.6111550684999687,0,0,0,0,0,0,1500,1500,1500,1500,1500,1500
1748735561.7961175,0.01,-0.03,0.04,-0.001090830782496456,0.0,0.0,0.005550345120494604,0.7266628260897459,1.6111550684999687,0,0,0,0,0,0,1500,1500,1500,1500,1500,1500
1748735561.8806436,0.01,-0.05,0.0,0.001090830782496456,-0.003272492347489368,-0.001090830782496456,0.005550345120494604,0.7266628260897459,1.6111550684999687,0,0,0,0,0,0,1500,1500,1500,1500,1500,1500
1748735561.9797535,0.01,-0.05,0.0,0.001090830782496456,-0.003272492347489368,-0.001090830782496456,0.005550345120494604,0.7266628260897459,1.6111550684999687,0,0,0,0,0,0,1500,1500,1500,1500,1500,1500
1748735562.0794213,0.0,0.0,0.02,0.0,0.003272492347489368,0.002181661564992912,0.005550345120494604,0.7266628260897459,1.6111550684999687,0,0,0,0,0,0,1500,1500,1500,1500,1500,1500
1748735562.1635172,0.0,0.0,0.02,0.0,0.003272492347489368,0.002181661564992912,0.005550345120494604,0.7266628260897459,1.6111550684999687,0,0,0,0,0,0,1500,1500,1500,1500,1500,1500
1748735562.263261,0.0,-0.01,0.03,0.0,-0.001090830782496456,0.001090830782496456,0.005550345120494604,0.7266628260897459,1.6111550684999687,0,0,0,0,0,0,1500,1500,1500,1500,1500,1500
1748735562.3514621,-0.01,-0.03,0.06,0.002181661564992912,0.004363323129985824,0.001090830782496456,0.005550345120494604,0.7266628260897459,1.6111550684999687,0,0,0,0,0,0,1500,1500,1500,1500,1500,1500
1748735562.4463406,-0.01,-0.03,0.06,0.002181661564992912,0.004363323129985824,0.001090830782496456,0.005550345120494604,0.7266628260897459,1.6111550684999687,0,0,0,0,0,0,1500,1500,1500,1500,1500,1500
1748735562.5462415,0.0,0.0,0.01,0.001090830782496456,0.004363323129985824,0.001090830782496456,0.005550345120494604,0.7266628260897459,1.6111550684999687,0,0,0,0,0,0,1500,1500,1500,1500,1500,1500
1748735562.6463962,0.0,0.0,0.01,0.001090830782496456,0.004363323129985824,0.001090830782496456,0.005550345120494604,0.7266628260897459,1.6111550684999687,0,0,0,0,0,0,1500,1500,1500,1500,1500,1500
1748735562.7463484,-0.02,-0.01,0.06,0.0,0.00545415391248228,-0.001090830782496456,0.005550345120494604,0.7266628260897459,1.6111550684999687,0,0,0,0,0,0,1500,1500,1500,1500,1500,1500
1748735562.8468115,0.0,-0.01,0.03,-0.001090830782496456,-0.004363323129985824,0.001090830782496456,0.005550345120494604,0.7266628260897459,1.6111550684999687,0,0,0,0,0,0,1500,1500,1500,1500,1500,1500
1748735562.9294655,0.0,-0.01,0.03,-0.001090830782496456,-0.004363323129985824,0.001090830782496456,0.005550345120494604,0.7266628260897459,1.6111550684999687,0,0,0,0,0,0,1500,1500,1500,1500,1500,1500
1748735563.0294518,0.01,-0.03,0.03,-0.002181661564992912,0.002181661564992912,0.0,0.005550345120494604,0.7266628260897459,1.6111550684999687,0,0,0,0,0,0,1500,1500,1500,1500,1500,1500
1748735563.1290815,0.01,-0.03,0.03,-0.002181661564992912,0.002181661564992912,0.0,0.005550345120494604,0.7266628260897459,1.6111550684999687,0,0,0,0,0,0,1500,1500,1500,1500,1500,1500
1748735563.2273426,0.0,-0.01,0.01,-0.001090830782496456,-0.001090830782496456,0.0,0.005550345120494604,0.7266628260897459,1.6111550684999687,0,0,0,0,0,0,1500,1500,1500,1500,1500,1500
1748735563.3310316,0.01,0.0,0.0,0.004363323129985824,0.001090830782496456,-0.001090830782496456,0.005550345120494604,0.7266628260897459,1.6111550684999687,0,0,0,0,0,0,1500,1500,1500,1500,1500,1500
1748735563.414139,0.01,0.0,0.0,0.004363323129985824,0.001090830782496456,-0.001090830782496456,0.005550345120494604,0.7266628260897459,1.6111550684999687,0,0,0,0,0,0,1500,1500,1500,1500,1500,1500
1748735563.5150747,0.01,-0.04,0.0,-0.002181661564992912,-0.00545415391248228,0.001090830782496456,0.005550345120494604,0.7266628260897459,1.6111550684999687,0,0,0,0,0,0,1500,1500,1500,1500,1500,1500
1748735563.6130664,0.01,-0.04,0.0,-0.002181661564992912,-0.00545415391248228,0.001090830782496456,0.005550345120494604,0.7266628260897459,1.6111550684999687,0,0,0,0,0,0,1500,1500,1500,1500,1500,1500
1748735563.6961262,0.03,-0.01,0.0,0.0,-0.002181661564992912,0.0,0.005550345120494604,0.7266628260897459,1.6111550684999687,0,0,0,0,0,0,1500,1500,1500,1500,1500,1500
1748735563.7961013,0.0,0.01,0.0,-0.001090830782496456,-0.003272492347489368,0.0,0.005550345120494604,0.7266628260897459,1.6111550684999687,0,0,0,0,0,0,1500,1500,1500,1500,1500,1500
1748735563.8947926,0.0,0.01,0.0,-0.001090830782496456,-0.003272492347489368,0.0,0.005550345120494604,0.7266628260897459,1.6111550684999687,0,0,0,0,0,0,1500,1500,1500,1500,1500,1500
1748735563.996191,-0.01,0.0,0.02,-0.002181661564992912,-0.003272492347489368,0.001090830782496456,0.005550345120494604,0.7266628260897459,1.6111550684999687,0,0,0,0,0,0,1500,1500,1500,1500,1500,1500
1748735564.0952902,-0.01,0.0,0.02,-0.002181661564992912,-0.003272492347489368,0.001090830782496456,0.005550345120494604,0.7266628260897459,1.6111550684999687,0,0,0,0,0,0,1500,1500,1500,1500,1500,1500
1748735564.1787932,0.0,-0.02,0.06,0.003272492347489368,0.001090830782496456,0.0,0.005550345120494604,0.7266628260897459,1.6111550684999687,0,0,0,0,0,0,1500,1500,1500,1500,1500,1500
1748735564.2796602,0.0,-0.04,0.06,0.001090830782496456,-0.001090830782496456,0.001090830782496456,0.005550345120494604,0.7266628260897459,1.6111550684999687,0,0,0,0,0,0,1500,1500,1500,1500,1500,1500
1748735564.3807745,0.0,-0.04,0.06,0.001090830782496456,-0.001090830782496456,0.001090830782496456,0.005550345120494604,0.7266628260897459,1.6111550684999687,0,0,0,0,0,0,1500,1500,1500,1500,1500,1500
1748735564.4795203,-0.01,0.01,0.02,-0.003272492347489368,-0.001090830782496456,0.001090830782496456,0.005550345120494604,0.7266628260897459,1.6111550684999687,0,0,0,0,0,0,1500,1500,1500,1500,1500,1500
1748735564.5675492,0.0,-0.04,0.06,0.002181661564992912,-0.002181661564992912,-0.001090830782496456,0.005550345120494604,0.7266628260897459,1.6111550684999687,0,0,0,0,0,0,1500,1500,1500,1500,1500,1500
1748735564.6627991,0.0,-0.04,0.06,0.002181661564992912,-0.002181661564992912,-0.001090830782496456,0.005550345120494604,0.7266628260897459,1.6111550684999687,0,0,0,0,0,0,1500,1500,1500,1500,1500,1500
1748735564.7630587,0.01,-0.03,0.04,0.001090830782496456,0.001090830782496456,0.002181661564992912,0.005550345120494604,0.7266628260897459,1.6111550684999687,0,0,0,0,0,0,1500,1500,1500,1500,1500,1500
1748735564.8624575,0.01,-0.03,0.04,0.001090830782496456,0.001090830782496456,0.002181661564992912,0.005550345120494604,0.7266628260897459,1.6111550684999687,0,0,0,0,0,0,1500,1500,1500,1500,1500,1500
1748735564.9460707,0.01,0.0,0.02,0.0,-0.004363323129985824,-0.003272492347489368,0.005550345120494604,0.7266628260897459,1.6111550684999687,0,0,0,0,0,0,1500,1500,1500,1500,1500,1500
1748735565.0454953,0.01,0.0,0.02,0.0,-0.004363323129985824,-0.003272492347489368,0.005550345120494604,0.7266628260897459,1.6111550684999687,0,0,0,0,0,0,1500,1500,1500,1500,1500,1500
1748735565.145075,0.01,0.0,0.0,0.0,-0.002181661564992912,-0.001090830782496456,0.005550345120494604,0.7266628260897459,1.6111550684999687,0,0,0,0,0,0,1500,1500,1500,1500,1500,1500
1748735565.2455523,0.01,-0.01,0.03,0.0,0.003272492347489368,0.0,0.005550345120494604,0.7266628260897459,1.6111550684999687,0,0,0,0,0,0,1500,1500,1500,1500,1500,1500
1748735565.346255,0.01,-0.01,0.03,0.0,0.003272492347489368,0.0,0.005550345120494604,0.7266628260897459,1.6111550684999687,0,0,0,0,0,0,1500,1500,1500,1500,1500,1500
1748735565.4290874,0.02,-0.01,0.0,-0.002181661564992912,0.001090830782496456,0.003272492347489368,0.005550345120494604,0.7266628260897459,1.6111550684999687,0,0,0,0,0,0,1500,1500,1500,1500,1500,1500
1748735565.5289454,0.0,0.0,0.02,0.0,0.0,-0.001090830782496456,0.005550345120494604,0.7266628260897459,1.6111550684999687,0,0,0,0,0,0,1500,1500,1500,1500,1500,1500
1748735565.6283321,0.0,0.0,0.02,0.0,0.0,-0.001090830782496456,0.005550345120494604,0.7266628260897459,1.6111550684999687,0,0,0,0,0,0,1500,1500,1500,1500,1500,1500
1748735565.7296042,0.0,0.01,0.01,-0.002181661564992912,0.001090830782496456,0.0,0.005550345120494604,0.7266628260897459,1.6111550684999687,0,0,0,0,0,0,1500,1500,1500,1500,1500,1500
1748735565.8288293,0.0,0.01,0.01,-0.002181661564992912,0.001090830782496456,0.0,0.005550345120494604,0.7266628260897459,1.6111550684999687,0,0,0,0,0,0,1500,1500,1500,1500,1500,1500
1748735565.912019,0.0,-0.01,0.03,0.001090830782496456,0.002181661564992912,0.0,0.005550345120494604,0.7266628260897459,1.6111550684999687,0,0,0,0,0,0,1500,1500,1500,1500,1500,1500
1748735566.0123081,0.0,-0.02,0.05,-0.001090830782496456,-0.003272492347489368,0.001090830782496456,0.005550345120494604,0.7266628260897459,1.6111550684999687,0,0,0,0,0,0,1500,1500,1500,1500,1500,1500
1748735566.11211,0.0,-0.02,0.05,-0.001090830782496456,-0.003272492347489368,0.001090830782496456,0.005550345120494604,0.7266628260897459,1.6111550684999687,0,0,0,0,0,0,1500,1500,1500,1500,1500,1500
1748735566.1954596,0.0,0.0,0.03,0.0,0.002181661564992912,0.002181661564992912,0.005550345120494604,0.7266628260897459,1.6111550684999687,0,0,0,0,0,0,1500,1500,1500,1500,1500,1500
1748735566.29599,0.0,0.0,0.03,0.0,0.002181661564992912,0.002181661564992912,0.005550345120494604,0.7266628260897459,1.6111550684999687,0,0,0,0,0,0,1500,1500,1500,1500,1500,1500
1748735566.3960657,0.01,-0.02,0.06,0.003272492347489368,0.003272492347489368,-0.001090830782496456,0.005550345120494604,0.7266628260897459,1.6111550684999687,0,0,0,0,0,0,1500,1500,1500,1500,1500,1500
1748735566.4965491,0.0,-0.03,0.02,-0.002181661564992912,-0.002181661564992912,-0.001090830782496456,0.005550345120494604,0.7266628260897459,1.6111550684999687,0,0,0,0,0,0,1500,1500,1500,1500,1500,1500
1748735566.595159,0.0,-0.03,0.02,-0.002181661564992912,-0.002181661564992912,-0.001090830782496456,0.005550345120494604,0.7266628260897459,1.6111550684999687,0,0,0,0,0,0,1500,1500,1500,1500,1500,1500
1748735566.6797547,0.01,-0.01,0.04,0.0,-0.007635815477475192,-0.001090830782496456,0.005550345120494604,0.7266628260897459,1.6111550684999687,0,0,0,0,0,0,1500,1500,1500,1500,1500,1500
1748735566.7793374,0.01,-0.01,0.04,0.0,-0.007635815477475192,-0.001090830782496456,0.005550345120494604,0.7266628260897459,1.6111550684999687,0,0,0,0,0,0,1500,1500,1500,1500,1500,1500
1748735566.8795986,0.0,0.0,0.02,0.0,0.0,-0.003272492347489368,0.005550345120494604,0.7266628260897459,1.6111550684999687,0,0,0,0,0,0,1500,1500,1500,1500,1500,1500
1748735566.9795842,0.0,0.0,0.04,0.001090830782496456,-0.004363323129985824,-0.001090830782496456,0.005550345120494604,0.7266628260897459,1.6111550684999687,0,0,0,0,0,0,1500,1500,1500,1500,1500,1500
1748735567.0782895,0.0,0.0,0.04,0.001090830782496456,-0.004363323129985824,-0.001090830782496456,0.005550345120494604,0.7266628260897459,1.6111550684999687,0,0,0,0,0,0,1500,1500,1500,1500,1500,1500
1748735567.1620853,0.0,-0.04,0.04,-0.002181661564992912,-0.001090830782496456,0.0,0.005550345120494604,0.7266628260897459,1.6111550684999687,0,0,0,0,0,0,1500,1500,1500,1500,1500,1500
1748735567.2622046,0.0,-0.04,0.04,-0.002181661564992912,-0.001090830782496456,0.0,0.005550345120494604,0.7266628260897459,1.6111550684999687,0,0,0,0,0,0,1500,1500,1500,1500,1500,1500
1748735567.3626046,0.02,-0.01,0.03,0.0,-0.003272492347489368,0.001090830782496456,0.005550345120494604,0.7266628260897459,1.6111550684999687,0,0,0,0,0,0,1500,1500,1500,1500,1500,1500
1748735567.4460511,0.02,-0.01,0.0,-0.001090830782496456,0.002181661564992912,0.0,0.005550345120494604,0.7266628260897459,1.6111550684999687,0,0,0,0,0,0,1500,1500,1500,1500,1500,1500
1748735567.5462525,0.02,-0.01,0.0,-0.001090830782496456,0.002181661564992912,0.0,0.005550345120494604,0.7266628260897459,1.6111550684999687,0,0,0,0,0,0,1500,1500,1500,1500,1500,1500
1748735567.6453161,0.01,0.0,0.04,-0.003272492347489368,0.002181661564992912,-0.001090830782496456,0.005550345120494604,0.7266628260897459,1.6111550684999687,0,0,0,0,0,0,1500,1500,1500,1500,1500,1500
1748735567.7460666,0.01,0.0,0.04,-0.003272492347489368,0.002181661564992912,-0.001090830782496456,0.005550345120494604,0.7266628260897459,1.6111550684999687,0,0,0,0,0,0,1500,1500,1500,1500,1500,1500
1748735567.8451464,0.0,-0.03,0.02,-0.002181661564992912,0.0,0.003272492347489368,0.005550345120494604,0.7266628260897459,1.6111550684999687,0,0,0,0,0,0,1500,1500,1500,1500,1500,1500
1748735567.9281068,0.0,0.0,0.02,0.002181661564992912,-0.001090830782496456,-0.002181661564992912,0.005550345120494604,0.7266628260897459,1.6111550684999687,0,0,0,0,0,0,1500,1500,1500,1500,1500,1500
1748735568.0295653,0.0,0.0,0.02,0.002181661564992912,-0.001090830782496456,-0.002181661564992912,0.005550345120494604,0.7266628260897459,1.6111550684999687,0,0,0,0,0,0,1500,1500,1500,1500,1500,1500
1748735568.1291027,0.01,-0.02,0.01,0.001090830782496456,0.002181661564992912,-0.001090830782496456,0.005550345120494604,0.7266628260897459,1.6111550684999687,0,0,0,0,0,0,1500,1500,1500,1500,1500,1500
1748735568.228134,0.0,-0.02,0.03,0.0,0.001090830782496456,0.001090830782496456,0.005550345120494604,0.7266628260897459,1.6111550684999687,0,0,0,0,0,0,1500,1500,1500,1500,1500,1500
1748735568.3282218,0.0,-0.02,0.03,0.0,0.001090830782496456,0.001090830782496456,0.005550345120494604,0.7266628260897459,1.6111550684999687,0,0,0,0,0,0,1500,1500,1500,1500,1500,1500
1748735568.4121704,-0.01,-0.02,0.04,0.0,0.001090830782496456,0.0,0.005550345120494604,0.7266628260897459,1.6111550684999687,0,0,0,0,0,0,1500,1500,1500,1500,1500,1500
1748735568.5116537,-0.01,-0.02,0.04,0.0,0.001090830782496456,0.0,0.005550345120494604,0.7266628260897459,1.6111550684999687,0,0,0,0,0,0,1500,1500,1500,1500,1500,1500
1748735568.6126957,0.0,-0.02,0.03,0.002181661564992912,-0.002181661564992912,0.001090830782496456,0.005550345120494604,0.7266628260897459,1.6111550684999687,0,0,0,0,0,0,1500,1500,1500,1500,1500,1500
1748735568.6954606,0.0,-0.02,0.03,0.002181661564992912,-0.002181661564992912,0.001090830782496456,0.005550345120494604,0.7266628260897459,1.6111550684999687,0,0,0,0,0,0,1500,1500,1500,1500,1500,1500
1748735568.7955508,0.01,0.0,0.03,0.004363323129985824,0.0,0.0,0.005550345120494604,0.7266628260897459,1.6111550684999687,0,0,0,0,0,0,1500,1500,1500,1500,1500,1500
1748735568.894559,0.02,-0.05,0.04,0.0,0.0,-0.003272492347489368,0.005550345120494604,0.7266628260897459,1.6111550684999687,0,0,0,0,0,0,1500,1500,1500,1500,1500,1500
1748735568.9945338,0.02,-0.05,0.04,0.0,0.0,-0.003272492347489368,0.005550345120494604,0.7266628260897459,1.6111550684999687,0,0,0,0,0,0,1500,1500,1500,1500,1500,1500
1748735569.096054,0.0,-0.02,0.01,-0.002181661564992912,-0.001090830782496456,-0.001090830782496456,0.005550345120494604,0.7266628260897459,1.6111550684999687,0,0,0,0,0,0,1500,1500,1500,1500,1500,1500
1748735569.1796317,0.02,-0.01,0.06,-0.002181661564992912,-0.002181661564992912,0.002181661564992912,0.005550345120494604,0.7266628260897459,1.6111550684999687,0,0,0,0,0,0,1500,1500,1500,1500,1500,1500
1748735569.2780044,0.02,-0.01,0.06,-0.002181661564992912,-0.002181661564992912,0.002181661564992912,0.005550345120494604,0.7266628260897459,1.6111550684999687,0,0,0,0,0,0,1500,1500,1500,1500,1500,1500
1748735569.3793075,0.0,-0.01,1.28,-0.001090830782496456,0.003272492347489368,-0.001090830782496456,0.005550345120494604,0.7266628260897459,1.6111550684999687,0,0,0,0,0,0,1500,1500,1500,1500,1500,1500
1748735569.4791644,0.0,-0.01,1.28,-0.001090830782496456,0.003272492347489368,-0.001090830782496456,0.005550345120494604,0.7266628260897459,1.6111550684999687,0,0,0,0,0,0,1500,1500,1500,1500,1500,1500
1748735569.578342,0.0,-0.04,0.06,0.001090830782496456,-0.003272492347489368,0.001090830782496456,0.005550345120494604,0.7266628260897459,1.6111550684999687,0,0,0,0,0,0,1500,1500,1500,1500,1500,1500
1748735569.6627288,-0.01,-0.03,0.01,0.0,0.001090830782496456,-0.002181661564992912,0.005550345120494604,0.7266628260897459,1.6111550684999687,0,0,0,0,0,0,1500,1500,1500,1500,1500,1500
1748735569.7622273,-0.01,-0.03,0.01,0.0,0.001090830782496456,-0.002181661564992912,0.005550345120494604,0.7266628260897459,1.6111550684999687,0,0,0,0,0,0,1500,1500,1500,1500,1500,1500
1748735569.8613565,0.0,0.02,0.02,0.0,0.002181661564992912,0.0,0.005550345120494604,0.7266628260897459,1.6111550684999687,0,0,0,0,0,0,1500,1500,1500,1500,1500,1500
1748735569.9449968,0.0,0.02,0.02,0.0,0.002181661564992912,0.0,0.005550345120494604,0.7266628260897459,1.6111550684999687,0,0,0,0,0,0,1500,1500,1500,1500,1500,1500
1748735570.046345,0.0,-0.01,0.0,0.003272492347489368,0.001090830782496456,0.0,0.005550345120494604,0.7266628260897459,1.6111550684999687,0,0,0,0,0,0,1500,1500,1500,1500,1500,1500
1748735570.1303213,0.0,-0.01,0.01,-0.001090830782496456,-0.001090830782496456,0.0,0.005550345120494604,0.7266628260897459,1.6111550684999687,0,0,0,0,0,0,1500,1500,1500,1500,1500,1500
1748735570.2279565,0.0,-0.01,0.01,-0.001090830782496456,-0.001090830782496456,0.0,0.005550345120494604,0.7266628260897459,1.6111550684999687,0,0,0,0,0,0,1500,1500,1500,1500,1500,1500
1748735570.328952,0.0,-0.04,0.03,0.001090830782496456,-0.001090830782496456,-0.001090830782496456,0.005550345120494604,0.7266628260897459,1.6111550684999687,0,0,0,0,0,0,1500,1500,1500,1500,1500,1500
1748735570.4120336,0.0,-0.04,0.03,0.001090830782496456,-0.001090830782496456,-0.001090830782496456,0.005550345120494604,0.7266628260897459,1.6111550684999687,0,0,0,0,0,0,1500,1500,1500,1500,1500,1500
1748735570.51233,0.0,-0.01,0.02,-0.002181661564992912,-0.001090830782496456,-0.001090830782496456,0.005550345120494604,0.7266628260897459,1.6111550684999687,0,0,0,0,0,0,1500,1500,1500,1500,1500,1500
1748735570.610715,-0.03,0.0,0.03,0.002181661564992912,0.006544984694978736,0.0,0.005550345120494604,0.7266628260897459,1.6111550684999687,0,0,0,0,0,0,1500,1500,1500,1500,1500,1500
1748735570.696198,-0.03,0.0,0.03,0.002181661564992912,0.006544984694978736,0.0,0.005550345120494604,0.7266628260897459,1.6111550684999687,0,0,0,0,0,0,1500,1500,1500,1500,1500,1500
1748735570.7962992,0.0,0.0,0.05,0.002181661564992912,0.001090830782496456,0.0,0.005550345120494604,0.7266628260897459,1.6111550684999687,0,0,0,0,0,0,1500,1500,1500,1500,1500,1500
1748735570.8950324,0.0,0.0,0.05,0.002181661564992912,0.001090830782496456,0.0,0.005550345120494604,0.7266628260897459,1.6111550684999687,0,0,0,0,0,0,1500,1500,1500,1500,1500,1500
1748735570.9954548,0.0,-0.05,0.04,0.0,0.002181661564992912,0.001090830782496456,0.005550345120494604,0.7266628260897459,1.6111550684999687,0,0,0,0,0,0,1500,1500,1500,1500,1500,1500
1748735571.094667,0.01,0.0,0.0,-0.001090830782496456,0.001090830782496456,0.0,0.005550345120494604,0.7266628260897459,1.6111550684999687,0,0,0,0,0,0,1500,1500,1500,1500,1500,1500
1748735571.1788316,0.01,0.0,0.0,-0.001090830782496456,0.001090830782496456,0.0,0.005550345120494604,0.7266628260897459,1.6111550684999687,0,0,0,0,0,0,1500,1500,1500,1500,1500,1500
1748735571.2786283,0.01,0.02,0.01,-0.001090830782496456,0.003272492347489368,0.0,0.005550345120494604,0.7266628260897459,1.6111550684999687,0,0,0,0,0,0,1500,1500,1500,1500,1500,1500
1748735571.379235,0.01,0.02,0.01,-0.001090830782496456,0.003272492347489368,0.0,0.005550345120494604,0.7266628260897459,1.6111550684999687,0,0,0,0,0,0,1500,1500,1500,1500,1500,1500
1748735571.4786234,0.0,-0.03,0.03,0.002181661564992912,0.002181661564992912,0.001090830782496456,0.005550345120494604,0.7266628260897459,1.6111550684999687,0,0,0,0,0,0,1500,1500,1500,1500,1500,1500
1748735571.5781088,0.0,-0.01,0.03,0.0,0.0,0.001090830782496456,0.005550345120494604,0.7266628260897459,1.6111550684999687,0,0,0,0,0,0,1500,1500,1500,1500,1500,1500
1748735571.6620793,0.0,-0.01,0.03,0.0,0.0,0.001090830782496456,0.005550345120494604,0.7266628260897459,1.6111550684999687,0,0,0,0,0,0,1500,1500,1500,1500,1500,1500
1748735571.7616153,0.02,0.0,0.0,-0.001090830782496456,0.0,0.002181661564992912,0.005550345120494604,0.7266628260897459,1.6111550684999687,0,0,0,0,0,0,1500,1500,1500,1500,1500,1500
1748735571.8619854,0.02,0.0,0.0,-0.001090830782496456,0.0,0.002181661564992912,0.005550345120494604,0.7266628260897459,1.6111550684999687,0,0,0,0,0,0,1500,1500,1500,1500,1500,1500
1748735571.9449594,0.01,0.0,0.03,0.001090830782496456,0.002181661564992912,0.0,0.005550345120494604,0.7266628260897459,1.6111550684999687,0,0,0,0,0,0,1500,1500,1500,1500,1500,1500
1748735572.043252,0.0,-0.02,0.05,-0.001090830782496456,-0.003272492347489368,-0.001090830782496456,0.005550345120494604,0.7266628260897459,1.6111550684999687,0,0,0,0,0,0,1500,1500,1500,1500,1500,1500
1748735572.1462092,0.0,-0.02,0.05,-0.001090830782496456,-0.003272492347489368,-0.001090830782496456,0.005550345120494604,0.7266628260897459,1.6111550684999687,0,0,0,0,0,0,1500,1500,1500,1500,1500,1500
1748735572.244722,0.0,0.0,0.05,-0.001090830782496456,0.002181661564992912,0.0,0.005550345120494604,0.7266628260897459,1.6111550684999687,0,0,0,0,0,0,1500,1500,1500,1500,1500,1500
1748735572.3465889,0.0,0.0,0.05,-0.001090830782496456,0.002181661564992912,0.0,0.005550345120494604,0.7266628260897459,1.6111550684999687,0,0,0,0,0,0,1500,1500,1500,1500,1500,1500
1748735572.4289632,0.0,0.01,0.01,-0.001090830782496456,0.003272492347489368,0.001090830782496456,0.005550345120494604,0.7266628260897459,1.6111550684999687,0,0,0,0,0,0,1500,1500,1500,1500,1500,1500
1748735572.5261707,0.0,-0.03,0.06,0.003272492347489368,0.0,0.001090830782496456,0.005550345120494604,0.7266628260897459,1.6111550684999687,0,0,0,0,0,0,1500,1500,1500,1500,1500,1500
1748735572.6283815,0.0,-0.03,0.06,0.003272492347489368,0.0,0.001090830782496456,0.005550345120494604,0.7266628260897459,1.6111550684999687,0,0,0,0,0,0,1500,1500,1500,1500,1500,1500
1748735572.7132442,0.0,-0.04,0.01,0.0,-0.002181661564992912,0.001090830782496456,0.005550345120494604,0.7266628260897459,1.6111550684999687,0,0,0,0,0,0,1500,1500,1500,1500,1500,1500
1748735572.8115969,0.0,-0.04,0.01,0.0,-0.002181661564992912,0.001090830782496456,0.005550345120494604,0.7266628260897459,1.6111550684999687,0,0,0,0,0,0,1500,1500,1500,1500,1500,1500
1748735572.9122345,0.01,0.0,0.0,-0.001090830782496456,0.001090830782496456,0.001090830782496456,0.005550345120494604,0.7266628260897459,1.6111550684999687,0,0,0,0,0,0,1500,1500,1500,1500,1500,1500
1748735573.012782,0.01,0.0,0.0,-0.002181661564992912,0.0,0.003272492347489368,2.6796822506313043,-1.5707963267948966,1.5881359164472606,0,0,0,0,0,0,1500,1500,1500,1500,1500,1500
1748735573.1125221,0.01,0.0,0.0,-0.002181661564992912,0.0,0.003272492347489368,2.6796822506313043,-1.5707963267948966,1.5881359164472606,0,0,0,0,0,0,1500,1500,1500,1500,1500,1500
1748735573.2123492,0.0,-0.03,0.04,-0.001090830782496456,0.001090830782496456,0.0,0.005550345120494604,0.7266628260897459,1.6111550684999687,0,0,0,0,0,0,1500,1500,1500,1500,1500,1500
1748735573.3127866,0.0,-0.03,0.04,-0.001090830782496456,0.001090830782496456,0.0,0.005550345120494604,0.7266628260897459,1.6111550684999687,0,0,0,0,0,0,1500,1500,1500,1500,1500,1500
1748735573.3946698,0.0,-0.01,0.02,-0.002181661564992912,0.0,0.001090830782496456,0.005550345120494604,0.7266628260897459,1.6111550684999687,0,0,0,0,0,0,1500,1500,1500,1500,1500,1500
1748735573.4964166,0.0,0.0,0.03,-0.001090830782496456,-0.001090830782496456,0.0,0.005550345120494604,0.7266628260897459,1.6111550684999687,0,0,0,0,0,0,1500,1500,1500,1500,1500,1500
1748735573.596174,0.0,0.0,0.03,-0.001090830782496456,-0.001090830782496456,0.0,0.005550345120494604,0.7266628260897459,1.6111550684999687,0,0,0,0,0,0,1500,1500,1500,1500,1500,1500
1748735573.6787665,0.01,0.0,0.01,-0.002181661564992912,0.003272492347489368,0.001090830782496456,0.005550345120494604,0.7266628260897459,1.6111550684999687,0,0,0,0,0,0,1500,1500,1500,1500,1500,1500
1748735573.7791095,0.01,0.0,0.01,-0.002181661564992912,0.003272492347489368,0.001090830782496456,0.005550345120494604,0.7266628260897459,1.6111550684999687,0,0,0,0,0,0,1500,1500,1500,1500,1500,1500
1748735573.8783214,-0.01,0.0,0.04,0.003272492347489368,0.001090830782496456,0.001090830782496456,0.005550345120494604,0.7266628260897459,1.6111550684999687,0,0,0,0,0,0,1500,1500,1500,1500,1500,1500
1748735573.9624622,0.0,-0.05,0.03,0.0,0.0,0.001090830782496456,0.005550345120494604,0.7266628260897459,1.6111550684999687,0,0,0,0,0,0,1500,1500,1500,1500,1500,1500
1748735574.0619226,0.0,-0.05,0.03,0.0,0.0,0.001090830782496456,0.005550345120494604,0.7266628260897459,1.6111550684999687,0,0,0,0,0,0,1500,1500,1500,1500,1500,1500
1748735574.1448534,0.0,-0.04,0.05,-0.002181661564992912,0.0,0.001090830782496456,0.005550345120494604,0.7266628260897459,1.6111550684999687,0,0,0,0,0,0,1500,1500,1500,1500,1500,1500
1748735574.2451978,0.0,-0.04,0.05,-0.002181661564992912,0.0,0.001090830782496456,0.005550345120494604,0.7266628260897459,1.6111550684999687,0,0,0,0,0,0,1500,1500,1500,1500,1500,1500
1748735574.3449357,0.01,-0.01,0.03,0.0,0.003272492347489368,0.001090830782496456,0.005550345120494604,0.7266628260897459,1.6111550684999687,0,0,0,0,0,0,1500,1500,1500,1500,1500,1500
1748735574.4287906,0.01,-0.01,0.03,0.0,0.003272492347489368,0.001090830782496456,0.005550345120494604,0.7266628260897459,1.6111550684999687,0,0,0,0,0,0,1500,1500,1500,1500,1500,1500
1748735574.529153,0.0,-0.04,0.02,0.0,0.0,0.0,0.005550345120494604,0.7266628260897459,1.6111550684999687,0,0,0,0,0,0,1500,1500,1500,1500,1500,1500
1748735574.6287885,0.01,-0.02,0.02,0.002181661564992912,0.001090830782496456,-0.002181661564992912,0.005550345120494604,0.7266628260897459,1.6111550684999687,0,0,0,0,0,0,1500,1500,1500,1500,1500,1500
1748735574.7128606,0.01,-0.02,0.02,0.002181661564992912,0.001090830782496456,-0.002181661564992912,0.005550345120494604,0.7266628260897459,1.6111550684999687,0,0,0,0,0,0,1500,1500,1500,1500,1500,1500
1748735574.81241,-0.01,0.0,0.01,-0.003272492347489368,0.002181661564992912,0.002181661564992912,0.005550345120494604,0.7266628260897459,1.6111550684999687,0,0,0,0,0,0,1500,1500,1500,1500,1500,1500
1748735574.9098504,0.02,0.0,0.03,0.002181661564992912,-0.003272492347489368,0.001090830782496456,0.005550345120494604,0.7266628260897459,1.6111550684999687,0,0,0,0,0,0,1500,1500,1500,1500,1500,1500
1748735575.0123787,0.02,0.0,0.03,0.002181661564992912,-0.003272492347489368,0.001090830782496456,0.005550345120494604,0.7266628260897459,1.6111550684999687,0,0,0,0,0,0,1500,1500,1500,1500,1500,1500
1748735575.1128228,0.01,-0.01,0.01,0.003272492347489368,-0.004363323129985824,0.001090830782496456,0.005550345120494604,0.7266628260897459,1.6111550684999687,0,0,0,0,0,0,1500,1500,1500,1500,1500,1500
1748735575.194731,0.01,-0.01,0.01,0.003272492347489368,-0.004363323129985824,0.001090830782496456,0.005550345120494604,0.7266628260897459,1.6111550684999687,0,0,0,0,0,0,1500,1500,1500,1500,1500,1500
1748735575.2963352,0.01,-0.03,0.03,-0.003272492347489368,-0.003272492347489368,0.002181661564992912,0.005550345120494604,0.7266628260897459,1.6111550684999687,0,0,0,0,0,0,1500,1500,1500,1500,1500,1500
1748735575.3951705,-0.01,0.0,0.0,0.001090830782496456,-0.003272492347489368,-0.002181661564992912,0.005550345120494604,0.7266628260897459,1.6111550684999687,0,0,0,0,0,0,1500,1500,1500,1500,1500,1500
1748735575.4947016,-0.01,0.0,0.0,0.001090830782496456,-0.003272492347489368,-0.002181661564992912,0.005550345120494604,0.7266628260897459,1.6111550684999687,0,0,0,0,0,0,1500,1500,1500,1500,1500,1500
1748735575.5951495,0.0,-0.01,0.01,0.0,-0.002181661564992912,-0.002181661564992912,0.005550345120494604,0.7266628260897459,1.6111550684999687,0,0,0,0,0,0,1500,1500,1500,1500,1500,1500
1748735575.679189,0.0,-0.01,0.01,0.0,-0.002181661564992912,-0.002181661564992912,0.005550345120494604,0.7266628260897459,1.6111550684999687,0,0,0,0,0,0,1500,1500,1500,1500,1500,1500
1748735575.7787874,-0.01,-0.02,0.03,0.0,-0.002181661564992912,0.0,0.005550345120494604,0.7266628260897459,1.6111550684999687,0,0,0,0,0,0,1500,1500,1500,1500,1500,1500
1748735575.8790953,0.0,-0.02,0.01,0.0,-0.00545415391248228,0.0,0.005550345120494604,0.7266628260897459,1.6111550684999687,0,0,0,0,0,0,1500,1500,1500,1500,1500,1500
1748735575.9795072,0.0,-0.02,0.01,0.0,-0.00545415391248228,0.0,0.005550345120494604,0.7266628260897459,1.6111550684999687,0,0,0,0,0,0,1500,1500,1500,1500,1500,1500
1748735576.0791683,0.0,0.02,0.0,-0.003272492347489368,0.003272492347489368,-0.001090830782496456,0.005550345120494604,0.7266628260897459,1.6111550684999687,0,0,0,0,0,0,1500,1500,1500,1500,1500,1500
1748735576.1695104,0.01,-0.01,0.06,0.0,0.0,0.001090830782496456,-0.008088037674066658,0.7408318754092839,1.6113653832451211,0,0,0,0,0,0,1500,1500,1500,1500,1500,1500
1748735576.262553,0.01,-0.01,0.06,0.0,0.0,0.001090830782496456,-0.008088037674066658,0.7408318754092839,1.6113653832451211,0,0,0,0,0,0,1500,1500,1500,1500,1500,1500
1748735576.3618982,0.0,-0.04,0.06,-0.001090830782496456,0.0,0.001090830782496456,0.005550345120494604,0.7266628260897459,1.6111550684999687,0,0,0,0,0,0,1500,1500,1500,1500,1500,1500
1748735576.4461753,0.0,-0.04,0.06,-0.001090830782496456,0.0,0.001090830782496456,0.005550345120494604,0.7266628260897459,1.6111550684999687,0,0,0,0,0,0,1500,1500,1500,1500,1500,1500
1748735576.5461123,0.03,-0.02,0.0,0.001090830782496456,0.002181661564992912,-0.001090830782496456,0.005550345120494604,0.7266628260897459,1.6111550684999687,0,0,0,0,0,0,1500,1500,1500,1500,1500,1500
1748735576.6447685,0.03,-0.02,0.0,0.001090830782496456,0.002181661564992912,-0.001090830782496456,0.005550345120494604,0.7266628260897459,1.6111550684999687,0,0,0,0,0,0,1500,1500,1500,1500,1500,1500
1748735576.75155,0.0,0.01,0.01,-0.001090830782496456,0.004363323129985824,0.0,0.9394714400776331,-0.33398280480558984,-1.5862833842841817,0,0,0,0,0,0,1500,1500,1500,1500,1500,1500
1748735576.846001,0.01,-0.03,0.05,0.0,0.0,0.0,0.005550345120494604,0.7266628260897459,1.6111550684999687,0,0,0,0,0,0,1500,1500,1500,1500,1500,1500
1748735576.9284618,0.01,-0.03,0.05,0.0,0.0,0.0,0.005550345120494604,0.7266628260897459,1.6111550684999687,0,0,0,0,0,0,1500,1500,1500,1500,1500,1500
1748735577.029025,0.0,-0.02,0.0,-0.002181661564992912,-0.002181661564992912,0.003272492347489368,0.005550345120494604,0.7266628260897459,1.6111550684999687,0,0,0,0,0,0,1500,1500,1500,1500,1500,1500
1748735577.128899,0.0,0.01,0.0,0.0,-0.001090830782496456,0.0,0.005550345120494604,0.7266628260897459,1.6111550684999687,0,0,0,0,0,0,1500,1500,1500,1500,1500,1500
1748735577.2118711,0.0,0.01,0.0,0.0,-0.001090830782496456,0.0,0.005550345120494604,0.7266628260897459,1.6111550684999687,0,0,0,0,0,0,1500,1500,1500,1500,1500,1500
1748735577.3120122,0.02,-0.03,0.06,-0.002181661564992912,0.0,-0.001090830782496456,0.005550345120494604,0.7266628260897459,1.6111550684999687,0,0,0,0,0,0,1500,1500,1500,1500,1500,1500
1748735577.4124742,0.02,-0.03,0.06,-0.002181661564992912,0.0,-0.001090830782496456,0.005550345120494604,0.7266628260897459,1.6111550684999687,0,0,0,0,0,0,1500,1500,1500,1500,1500,1500
1748735577.5111125,-0.01,-0.02,0.02,-0.001090830782496456,-0.004363323129985824,0.001090830782496456,0.005550345120494604,0.7266628260897459,1.6111550684999687,0,0,0,0,0,0,1500,1500,1500,1500,1500,1500
1748735577.6091259,0.01,-0.02,0.03,0.001090830782496456,-0.001090830782496456,0.002181661564992912,0.005550345120494604,0.7266628260897459,1.6111550684999687,0,0,0,0,0,0,1500,1500,1500,1500,1500,1500
1748735577.6957257,0.01,-0.02,0.03,0.001090830782496456,-0.001090830782496456,0.002181661564992912,0.005550345120494604,0.7266628260897459,1.6111550684999687,0,0,0,0,0,0,1500,1500,1500,1500,1500,1500
1748735577.7949133,0.0,0.0,0.01,-0.001090830782496456,0.003272492347489368,0.001090830782496456,0.005550345120494604,0.7266628260897459,1.6111550684999687,0,0,0,0,0,0,1500,1500,1500,1500,1500,1500
1748735577.8951685,0.0,0.0,0.01,-0.001090830782496456,0.003272492347489368,0.001090830782496456,0.005550345120494604,0.7266628260897459,1.6111550684999687,0,0,0,0,0,0,1500,1500,1500,1500,1500,1500
1748735577.9953647,0.02,0.0,0.03,-0.002181661564992912,-0.002181661564992912,0.001090830782496456,0.005550345120494604,0.7266628260897459,1.6111550684999687,0,0,0,0,0,0,1500,1500,1500,1500,1500,1500
1748735578.0866044,0.01,-0.03,0.06,-0.001090830782496456,0.0,0.0,0.005550345120494604,0.7266628260897459,1.6111550684999687,0,0,0,0,0,0,1500,1500,1500,1500,1500,1500
1748735578.1804073,0.01,-0.03,0.06,-0.001090830782496456,0.0,0.0,0.005550345120494604,0.7266628260897459,1.6111550684999687,0,0,0,0,0,0,1500,1500,1500,1500,1500,1500
1748735578.2788162,0.0,-0.03,0.02,0.001090830782496456,0.001090830782496456,0.002181661564992912,0.005550345120494604,0.7266628260897459,1.6111550684999687,0,0,0,0,0,0,1500,1500,1500,1500,1500,1500
1748735578.3789873,0.0,-0.03,0.02,0.001090830782496456,0.001090830782496456,0.002181661564992912,0.005550345120494604,0.7266628260897459,1.6111550684999687,0,0,0,0,0,0,1500,1500,1500,1500,1500,1500
1748735578.4783876,0.0,0.0,0.0,0.002181661564992912,-0.003272492347489368,0.0,0.005550345120494604,0.7266628260897459,1.6111550684999687,0,0,0,0,0,0,1500,1500,1500,1500,1500,1500
1748735578.5786195,0.0,0.0,0.02,-0.001090830782496456,-0.004363323129985824,0.0,0.005550345120494604,0.7266628260897459,1.6111550684999687,0,0,0,0,0,0,1500,1500,1500,1500,1500,1500
1748735578.6776407,0.0,0.0,0.02,-0.001090830782496456,-0.004363323129985824,0.0,0.005550345120494604,0.7266628260897459,1.6111550684999687,0,0,0,0,0,0,1500,1500,1500,1500,1500,1500
1748735578.7788475,0.0,-0.01,0.05,0.002181661564992912,-0.002181661564992912,-0.002181661564992912,0.005550345120494604,0.7266628260897459,1.6111550684999687,0,0,0,0,0,0,1500,1500,1500,1500,1500,1500
1748735578.8789527,0.01,-0.02,0.04,0.001090830782496456,-0.001090830782496456,0.002181661564992912,0.005550345120494604,0.7266628260897459,1.6111550684999687,0,0,0,0,0,0,1500,1500,1500,1500,1500,1500
1748735578.978304,0.01,-0.02,0.04,0.001090830782496456,-0.001090830782496456,0.002181661564992912,0.005550345120494604,0.7266628260897459,1.6111550684999687,0,0,0,0,0,0,1500,1500,1500,1500,1500,1500
1748735579.0796478,0.0,0.0,0.01,0.001090830782496456,-0.001090830782496456,0.001090830782496456,0.005550345120494604,0.7266628260897459,1.6111550684999687,0,0,0,0,0,0,1500,1500,1500,1500,1500,1500
1748735579.161871,0.0,0.0,0.01,0.001090830782496456,-0.001090830782496456,0.001090830782496456,0.005550345120494604,0.7266628260897459,1.6111550684999687,0,0,0,0,0,0,1500,1500,1500,1500,1500,1500
1748735579.2626884,0.02,0.0,0.01,0.002181661564992912,0.0,-0.001090830782496456,0.005550345120494604,0.7266628260897459,1.6111550684999687,0,0,0,0,0,0,1500,1500,1500,1500,1500,1500
1748735579.3621323,0.01,-0.02,0.04,-0.001090830782496456,-0.002181661564992912,-0.001090830782496456,0.005550345120494604,0.7266628260897459,1.6111550684999687,0,0,0,0,0,0,1500,1500,1500,1500,1500,1500
1748735579.445088,0.01,-0.02,0.04,-0.001090830782496456,-0.002181661564992912,-0.001090830782496456,0.005550345120494604,0.7266628260897459,1.6111550684999687,0,0,0,0,0,0,1500,1500,1500,1500,1500,1500
1748735579.5449653,0.01,0.0,0.0,-0.003272492347489368,0.006544984694978736,0.002181661564992912,0.005550345120494604,0.7266628260897459,1.6111550684999687,0,0,0,0,0,0,1500,1500,1500,1500,1500,1500
1748735579.646467,0.01,0.0,0.0,-0.003272492347489368,0.006544984694978736,0.002181661564992912,0.005550345120494604,0.7266628260897459,1.6111550684999687,0,0,0,0,0,0,1500,1500,1500,1500,1500,1500
1748735579.7455275,0.01,0.02,0.02,0.002181661564992912,0.001090830782496456,0.001090830782496456,0.005550345120494604,0.7266628260897459,1.6111550684999687,0,0,0,0,0,0,1500,1500,1500,1500,1500,1500
1748735579.8461635,0.0,0.0,0.02,0.002181661564992912,-0.003272492347489368,0.001090830782496456,0.005550345120494604,0.7266628260897459,1.6111550684999687,0,0,0,0,0,0,1500,1500,1500,1500,1500,1500
1748735579.929337,0.0,0.0,0.02,0.002181661564992912,-0.003272492347489368,0.001090830782496456,0.005550345120494604,0.7266628260897459,1.6111550684999687,0,0,0,0,0,0,1500,1500,1500,1500,1500,1500
1748735580.0288777,0.01,-0.03,0.06,0.003272492347489368,-0.003272492347489368,0.001090830782496456,0.005550345120494604,0.7266628260897459,1.6111550684999687,0,0,0,0,0,0,1500,1500,1500,1500,1500,1500
1748735580.1295395,0.01,-0.03,0.06,0.003272492347489368,-0.003272492347489368,0.001090830782496456,0.005550345120494604,0.7266628260897459,1.6111550684999687,0,0,0,0,0,0,1500,1500,1500,1500,1500,1500
1748735580.228878,-0.01,-0.01,0.04,-0.001090830782496456,-0.00545415391248228,0.001090830782496456,0.005550345120494604,0.7266628260897459,1.6111550684999687,0,0,0,0,0,0,1500,1500,1500,1500,1500,1500
1748735580.3292725,0.01,0.0,0.01,-0.001090830782496456,-0.002181661564992912,-0.001090830782496456,0.005550345120494604,0.7266628260897459,1.6111550684999687,0,0,0,0,0,0,1500,1500,1500,1500,1500,1500
1748735580.412515,0.01,0.0,0.01,-0.001090830782496456,-0.002181661564992912,-0.001090830782496456,0.005550345120494604,0.7266628260897459,1.6111550684999687,0,0,0,0,0,0,1500,1500,1500,1500,1500,1500
1748735580.5114918,0.02,0.0,0.03,0.0,-0.003272492347489368,0.001090830782496456,0.005550345120494604,0.7266628260897459,1.6111550684999687,0,0,0,0,0,0,1500,1500,1500,1500,1500,1500
1748735580.61207,0.02,0.0,0.03,0.0,-0.003272492347489368,0.001090830782496456,0.005550345120494604,0.7266628260897459,1.6111550684999687,0,0,0,0,0,0,1500,1500,1500,1500,1500,1500
1748735580.6947901,0.0,-0.01,0.06,0.001090830782496456,0.002181661564992912,0.0,0.005550345120494604,0.7266628260897459,1.6111550684999687,0,0,0,0,0,0,1500,1500,1500,1500,1500,1500
1748735580.7911499,0.0,-0.03,0.01,-0.003272492347489368,0.001090830782496456,-0.001090830782496456,0.005550345120494604,0.7266628260897459,1.6111550684999687,0,0,0,0,0,0,1500,1500,1500,1500,1500,1500
1748735580.895575,0.0,-0.03,0.01,-0.003272492347489368,0.001090830782496456,-0.001090830782496456,0.005550345120494604,0.7266628260897459,1.6111550684999687,0,0,0,0,0,0,1500,1500,1500,1500,1500,1500
1748735580.9964566,0.01,0.0,0.0,-0.002181661564992912,0.002181661564992912,0.003272492347489368,0.005550345120494604,0.7266628260897459,1.6111550684999687,0,0,0,0,0,0,1500,1500,1500,1500,1500,1500
1748735581.0948663,0.01,0.0,0.0,-0.002181661564992912,0.002181661564992912,0.003272492347489368,0.005550345120494604,0.7266628260897459,1.6111550684999687,0,0,0,0,0,0,1500,1500,1500,1500,1500,1500
1748735581.1792126,0.01,0.0,0.04,0.0,0.0,-0.003272492347489368,0.005550345120494604,0.7266628260897459,1.6111550684999687,0,0,0,0,0,0,1500,1500,1500,1500,1500,1500
1748735581.2792475,-0.01,-0.04,0.05,-0.001090830782496456,0.0,-0.002181661564992912,0.005550345120494604,0.7266628260897459,1.6111550684999687,0,0,0,0,0,0,1500,1500,1500,1500,1500,1500
1748735581.3790085,-0.01,-0.04,0.05,-0.001090830782496456,0.0,-0.002181661564992912,0.005550345120494604,0.7266628260897459,1.6111550684999687,0,0,0,0,0,0,1500,1500,1500,1500,1500,1500
1748735581.4792495,0.01,-0.02,0.03,-0.001090830782496456,-0.001090830782496456,0.0,0.005550345120494604,0.7266628260897459,1.6111550684999687,0,0,0,0,0,0,1500,1500,1500,1500,1500,1500
1748735581.578423,0.01,-0.02,0.03,-0.001090830782496456,-0.001090830782496456,0.0,0.005550345120494604,0.7266628260897459,1.6111550684999687,0,0,0,0,0,0,1500,1500,1500,1500,1500,1500
1748735581.661886,0.0,0.01,0.02,-0.001090830782496456,0.003272492347489368,-0.002181661564992912,0.005550345120494604,0.7266628260897459,1.6111550684999687,0,0,0,0,0,0,1500,1500,1500,1500,1500,1500
1748735581.7616544,0.01,-0.01,0.03,-0.001090830782496456,0.004363323129985824,-0.001090830782496456,0.005550345120494604,0.7266628260897459,1.6111550684999687,0,0,0,0,0,0,1500,1500,1500,1500,1500,1500
1748735581.8622875,0.01,-0.01,0.03,-0.001090830782496456,0.004363323129985824,-0.001090830782496456,0.005550345120494604,0.7266628260897459,1.6111550684999687,0,0,0,0,0,0,1500,1500,1500,1500,1500,1500
1748735581.9454243,0.0,-0.03,0.07,-0.003272492347489368,-0.003272492347489368,0.0,0.005550345120494604,0.7266628260897459,1.6111550684999687,0,0,0,0,0,0,1500,1500,1500,1500,1500,1500
1748735582.0462184,0.0,-0.03,0.07,-0.003272492347489368,-0.003272492347489368,0.0,0.005550345120494604,0.7266628260897459,1.6111550684999687,0,0,0,0,0,0,1500,1500,1500,1500,1500,1500
1748735582.1463068,0.03,0.01,0.02,0.002181661564992912,-0.002181661564992912,0.002181661564992912,0.005550345120494604,0.7266628260897459,1.6111550684999687,0,0,0,0,0,0,1500,1500,1500,1500,1500,1500
1748735582.2453887,0.01,0.0,0.02,-0.002181661564992912,0.0,-0.001090830782496456,0.005550345120494604,0.7266628260897459,1.6111550684999687,0,0,0,0,0,0,1500,1500,1500,1500,1500,1500
1748735582.3446634,0.01,0.0,0.02,-0.002181661564992912,0.0,-0.001090830782496456,0.005550345120494604,0.7266628260897459,1.6111550684999687,0,0,0,0,0,0,1500,1500,1500,1500,1500,1500
1748735582.4288507,0.0,-0.01,0.04,0.002181661564992912,0.003272492347489368,0.001090830782496456,0.005550345120494604,0.7266628260897459,1.6111550684999687,0,0,0,0,0,0,1500,1500,1500,1500,1500,1500
1748735582.5283077,0.0,-0.01,0.04,0.002181661564992912,0.003272492347489368,0.001090830782496456,0.005550345120494604,0.7266628260897459,1.6111550684999687,0,0,0,0,0,0,1500,1500,1500,1500,1500,1500
1748735582.6288543,0.0,-0.03,0.01,0.001090830782496456,-0.003272492347489368,0.0,0.005550345120494604,0.7266628260897459,1.6111550684999687,0,0,0,0,0,0,1500,1500,1500,1500,1500,1500
1748735582.712712,0.0,0.0,-0.02,0.0,-0.001090830782496456,-0.001090830782496456,0.005550345120494604,0.7266628260897459,1.6111550684999687,0,0,0,0,0,0,1500,1500,1500,1500,1500,1500
1748735582.8119943,0.0,0.0,-0.02,0.0,-0.001090830782496456,-0.001090830782496456,0.005550345120494604,0.7266628260897459,1.6111550684999687,0,0,0,0,0,0,1500,1500,1500,1500,1500,1500
1748735582.8946066,0.0,0.0,0.03,-0.001090830782496456,0.0,0.0,0.005550345120494604,0.7266628260897459,1.6111550684999687,0,0,0,0,0,0,1500,1500,1500,1500,1500,1500
1748735582.9954386,0.0,0.0,0.03,-0.001090830782496456,0.0,0.0,0.005550345120494604,0.7266628260897459,1.6111550684999687,0,0,0,0,0,0,1500,1500,1500,1500,1500,1500
1748735583.0947301,0.01,-0.01,0.01,0.001090830782496456,0.0,0.0,0.005550345120494604,0.7266628260897459,1.6111550684999687,0,0,0,0,0,0,1500,1500,1500,1500,1500,1500
1748735583.1791027,0.0,-0.05,0.02,0.0,0.0,0.0,0.005550345120494604,0.7266628260897459,1.6111550684999687,0,0,0,0,0,0,1500,1500,1500,1500,1500,1500
1748735583.2787046,0.0,-0.05,0.02,0.0,0.0,0.0,0.005550345120494604,0.7266628260897459,1.6111550684999687,0,0,0,0,0,0,1500,1500,1500,1500,1500,1500
1748735583.3781483,0.01,0.0,0.01,0.001090830782496456,-0.002181661564992912,0.002181661564992912,0.005550345120494604,0.7266628260897459,1.6111550684999687,0,0,0,0,0,0,1500,1500,1500,1500,1500,1500
1748735583.4621148,0.01,0.0,0.01,0.001090830782496456,-0.002181661564992912,0.002181661564992912,0.005550345120494604,0.7266628260897459,1.6111550684999687,0,0,0,0,0,0,1500,1500,1500,1500,1500,1500
1748735583.5620944,0.0,-0.01,0.04,0.001090830782496456,-0.004363323129985824,-0.001090830782496456,0.005550345120494604,0.7266628260897459,1.6111550684999687,0,0,0,0,0,0,1500,1500,1500,1500,1500,1500
1748735583.6591334,0.0,-0.03,0.05,0.001090830782496456,0.001090830782496456,0.002181661564992912,0.005550345120494604,0.7266628260897459,1.6111550684999687,0,0,0,0,0,0,1500,1500,1500,1500,1500,1500
1748735583.7455106,0.0,-0.03,0.05,0.001090830782496456,0.001090830782496456,0.002181661564992912,0.005550345120494604,0.7266628260897459,1.6111550684999687,0,0,0,0,0,0,1500,1500,1500,1500,1500,1500
1748735583.8449633,0.0,-0.01,0.02,-0.001090830782496456,0.001090830782496456,0.001090830782496456,0.005550345120494604,0.7266628260897459,1.6111550684999687,0,0,0,0,0,0,1500,1500,1500,1500,1500,1500
1748735583.928426,0.0,-0.01,0.02,-0.001090830782496456,0.001090830782496456,0.001090830782496456,0.005550345120494604,0.7266628260897459,1.6111550684999687,0,0,0,0,0,0,1500,1500,1500,1500,1500,1500
1748735584.0290265,0.0,-0.03,0.04,-0.001090830782496456,-0.001090830782496456,-0.002181661564992912,0.005550345120494604,0.7266628260897459,1.6111550684999687,0,0,0,0,0,0,1500,1500,1500,1500,1500,1500
1748735584.1236663,0.0,0.0,0.03,-0.001090830782496456,0.002181661564992912,0.0,0.005550345120494604,0.7266628260897459,1.6111550684999687,0,0,0,0,0,0,1500,1500,1500,1500,1500,1500
1748735584.2133114,0.0,0.0,0.03,-0.001090830782496456,0.002181661564992912,0.0,0.005550345120494604,0.7266628260897459,1.6111550684999687,0,0,0,0,0,0,1500,1500,1500,1500,1500,1500
1748735584.3121142,0.0,-0.04,0.07,0.001090830782496456,0.001090830782496456,0.0,0.005550345120494604,0.7266628260897459,1.6111550684999687,0,0,0,0,0,0,1500,1500,1500,1500,1500,1500
1748735584.4117515,0.0,-0.04,0.07,0.001090830782496456,0.001090830782496456,0.0,0.005550345120494604,0.7266628260897459,1.6111550684999687,0,0,0,0,0,0,1500,1500,1500,1500,1500,1500
1748735584.512946,0.0,-0.01,0.04,-0.001090830782496456,0.002181661564992912,-0.001090830782496456,0.005550345120494604,0.7266628260897459,1.6111550684999687,0,0,0,0,0,0,1500,1500,1500,1500,1500,1500
1748735584.6120672,0.0,0.0,0.02,-0.001090830782496456,0.001090830782496456,0.0,0.005550345120494604,0.7266628260897459,1.6111550684999687,0,0,0,0,0,0,1500,1500,1500,1500,1500,1500
1748735584.694992,0.0,0.0,0.02,-0.001090830782496456,0.001090830782496456,0.0,0.005550345120494604,0.7266628260897459,1.6111550684999687,0,0,0,0,0,0,1500,1500,1500,1500,1500,1500
1748735584.795299,0.0,-0.02,0.03,0.003272492347489368,0.001090830782496456,-0.001090830782496456,0.005550345120494604,0.7266628260897459,1.6111550684999687,0,0,0,0,0,0,1500,1500,1500,1500,1500,1500
1748735584.8945198,0.0,-0.02,0.03,0.003272492347489368,0.001090830782496456,-0.001090830782496456,0.005550345120494604,0.7266628260897459,1.6111550684999687,0,0,0,0,0,0,1500,1500,1500,1500,1500,1500
1748735584.9947462,0.0,-0.04,0.04,0.001090830782496456,0.003272492347489368,-0.001090830782496456,0.005550345120494604,0.7266628260897459,1.6111550684999687,0,0,0,0,0,0,1500,1500,1500,1500,1500,1500
1748735585.0961998,0.0,-0.03,0.02,-0.001090830782496456,0.003272492347489368,0.001090830782496456,0.005550345120494604,0.7266628260897459,1.6111550684999687,0,0,0,0,0,0,1500,1500,1500,1500,1500,1500
1748735585.1788251,0.0,-0.03,0.02,-0.001090830782496456,0.003272492347489368,0.001090830782496456,0.005550345120494604,0.7266628260897459,1.6111550684999687,0,0,0,0,0,0,1500,1500,1500,1500,1500,1500
1748735585.279221,0.0,0.0,0.02,0.0,-0.002181661564992912,0.001090830782496456,0.005550345120494604,0.7266628260897459,1.6111550684999687,0,0,0,0,0,0,1500,1500,1500,1500,1500,1500
1748735585.3787355,0.0,0.0,0.02,0.0,-0.002181661564992912,0.001090830782496456,0.005550345120494604,0.7266628260897459,1.6111550684999687,0,0,0,0,0,0,1500,1500,1500,1500,1500,1500
1748735585.4618192,0.01,-0.02,0.04,0.002181661564992912,0.001090830782496456,0.0,0.005550345120494604,0.7266628260897459,1.6111550684999687,0,0,0,0,0,0,1500,1500,1500,1500,1500,1500
1748735585.5621345,0.0,-0.03,0.0,0.0,-0.001090830782496456,0.0,0.005550345120494604,0.7266628260897459,1.6111550684999687,0,0,0,0,0,0,1500,1500,1500,1500,1500,1500
1748735585.6615674,0.0,-0.03,0.0,0.0,-0.001090830782496456,0.0,0.005550345120494604,0.7266628260897459,1.6111550684999687,0,0,0,0,0,0,1500,1500,1500,1500,1500,1500
1748735585.7616446,0.0,-0.01,0.0,0.002181661564992912,-0.002181661564992912,-0.002181661564992912,0.005550345120494604,0.7266628260897459,1.6111550684999687,0,0,0,0,0,0,1500,1500,1500,1500,1500,1500
1748735585.8621879,0.0,-0.01,0.0,0.002181661564992912,-0.002181661564992912,-0.002181661564992912,0.005550345120494604,0.7266628260897459,1.6111550684999687,0,0,0,0,0,0,1500,1500,1500,1500,1500,1500
1748735585.945468,0.0,0.02,0.0,-0.001090830782496456,0.001090830782496456,-0.002181661564992912,0.005550345120494604,0.7266628260897459,1.6111550684999687,0,0,0,0,0,0,1500,1500,1500,1500,1500,1500
1748735586.0454657,-0.02,-0.03,0.03,0.001090830782496456,-0.002181661564992912,0.001090830782496456,0.005550345120494604,0.7266628260897459,1.6111550684999687,0,0,0,0,0,0,1500,1500,1500,1500,1500,1500
1748735586.145439,-0.02,-0.03,0.03,0.001090830782496456,-0.002181661564992912,0.001090830782496456,0.005550345120494604,0.7266628260897459,1.6111550684999687,0,0,0,0,0,0,1500,1500,1500,1500,1500,1500
1748735586.2452784,0.0,-0.03,0.05,0.002181661564992912,0.0,0.002181661564992912,0.005550345120494604,0.7266628260897459,1.6111550684999687,0,0,0,0,0,0,1500,1500,1500,1500,1500,1500
1748735586.3442583,0.01,0.01,0.01,0.002181661564992912,-0.003272492347489368,0.0,0.005550345120494604,0.7266628260897459,1.6111550684999687,0,0,0,0,0,0,1500,1500,1500,1500,1500,1500
1748735586.4297328,0.01,0.01,0.01,0.002181661564992912,-0.003272492347489368,0.0,0.005550345120494604,0.7266628260897459,1.6111550684999687,0,0,0,0,0,0,1500,1500,1500,1500,1500,1500
1748735586.5294077,0.0,0.0,0.04,-0.001090830782496456,-0.002181661564992912,-0.001090830782496456,0.005550345120494604,0.7266628260897459,1.6111550684999687,0,0,0,0,0,0,1500,1500,1500,1500,1500,1500
1748735586.6293778,0.0,0.0,0.04,-0.001090830782496456,-0.002181661564992912,-0.001090830782496456,0.005550345120494604,0.7266628260897459,1.6111550684999687,0,0,0,0,0,0,1500,1500,1500,1500,1500,1500
1748735586.7294872,0.0,-0.05,0.02,0.0,0.002181661564992912,0.0,0.005550345120494604,0.7266628260897459,1.6111550684999687,0,0,0,0,0,0,1500,1500,1500,1500,1500,1500
1748735586.8286772,0.0,-0.05,0.03,0.001090830782496456,-0.004363323129985824,-0.003272492347489368,0.005550345120494604,0.7266628260897459,1.6111550684999687,0,0,0,0,0,0,1500,1500,1500,1500,1500,1500
1748735586.9122145,0.0,-0.05,0.03,0.001090830782496456,-0.004363323129985824,-0.003272492347489368,0.005550345120494604,0.7266628260897459,1.6111550684999687,0,0,0,0,0,0,1500,1500,1500,1500,1500,1500
1748735587.0121183,0.0,0.01,0.03,0.002181661564992912,0.002181661564992912,0.0,0.005550345120494604,0.7266628260897459,1.6111550684999687,0,0,0,0,0,0,1500,1500,1500,1500,1500,1500
1748735587.1123857,0.0,0.01,0.03,0.002181661564992912,0.002181661564992912,0.0,0.005550345120494604,0.7266628260897459,1.6111550684999687,0,0,0,0,0,0,1500,1500,1500,1500,1500,1500
1748735587.194921,0.0,-0.03,0.03,0.0,-0.003272492347489368,0.001090830782496456,0.005550345120494604,0.7266628260897459,1.6111550684999687,0,0,0,0,0,0,1500,1500,1500,1500,1500,1500
1748735587.2870004,0.0,-0.02,0.04,0.001090830782496456,0.002181661564992912,0.002181661564992912,0.005550345120494604,0.7266628260897459,1.6111550684999687,0,0,0,0,0,0,1500,1500,1500,1500,1500,1500
1748735587.396238,0.0,-0.02,0.04,0.001090830782496456,0.002181661564992912,0.002181661564992912,0.005550345120494604,0.7266628260897459,1.6111550684999687,0,0,0,0,0,0,1500,1500,1500,1500,1500,1500
1748735587.4955103,0.01,-0.01,-0.01,0.002181661564992912,-0.003272492347489368,-0.002181661564992912,0.005550345120494604,0.7266628260897459,1.6111550684999687,0,0,0,0,0,0,1500,1500,1500,1500,1500,1500
1748735587.5965962,0.01,-0.01,-0.01,0.002181661564992912,-0.003272492347489368,-0.002181661564992912,0.005550345120494604,0.7266628260897459,1.6111550684999687,0,0,0,0,0,0,1500,1500,1500,1500,1500,1500
1748735587.6790476,0.0,0.0,0.01,0.0,0.003272492347489368,0.001090830782496456,0.005550345120494604,0.7266628260897459,1.6111550684999687,0,0,0,0,0,0,1500,1500,1500,1500,1500,1500
1748735587.7797627,0.01,0.0,0.02,0.0,0.001090830782496456,0.001090830782496456,0.005550345120494604,0.7266628260897459,1.6111550684999687,0,0,0,0,0,0,1500,1500,1500,1500,1500,1500
1748735587.8792067,0.01,0.0,0.02,0.0,0.001090830782496456,0.001090830782496456,0.005550345120494604,0.7266628260897459,1.6111550684999687,0,0,0,0,0,0,1500,1500,1500,1500,1500,1500
1748735587.9784472,-0.01,-0.06,0.04,0.001090830782496456,0.0,0.0,0.005550345120494604,0.7266628260897459,1.6111550684999687,0,0,0,0,0,0,1500,1500,1500,1500,1500,1500
1748735588.078924,-0.01,-0.06,0.04,0.001090830782496456,0.0,0.0,0.005550345120494604,0.7266628260897459,1.6111550684999687,0,0,0,0,0,0,1500,1500,1500,1500,1500,1500
1748735588.1629648,0.0,0.02,0.03,0.002181661564992912,0.00545415391248228,-0.001090830782496456,2.6796822506313043,-1.5707963267948966,1.5881359164472606,0,0,0,0,0,0,1500,1500,1500,1500,1500,1500
1748735588.26338,0.0,0.01,0.04,0.001090830782496456,0.002181661564992912,0.001090830782496456,0.005550345120494604,0.7266628260897459,1.6111550684999687,0,0,0,0,0,0,1500,1500,1500,1500,1500,1500
1748735588.3619955,0.0,0.01,0.04,0.001090830782496456,0.002181661564992912,0.001090830782496456,0.005550345120494604,0.7266628260897459,1.6111550684999687,0,0,0,0,0,0,1500,1500,1500,1500,1500,1500
1748735588.4447813,0.0,-0.03,0.06,0.002181661564992912,0.004363323129985824,0.002181661564992912,0.005550345120494604,0.7266628260897459,1.6111550684999687,0,0,0,0,0,0,1500,1500,1500,1500,1500,1500
1748735588.5449674,0.0,-0.03,0.06,0.002181661564992912,0.004363323129985824,0.002181661564992912,0.005550345120494604,0.7266628260897459,1.6111550684999687,0,0,0,0,0,0,1500,1500,1500,1500,1500,1500
1748735588.6463246,0.0,-0.05,0.02,0.001090830782496456,-0.001090830782496456,0.0,0.005550345120494604,0.7266628260897459,1.6111550684999687,0,0,0,0,0,0,1500,1500,1500,1500,1500,1500
