time,ay,ax,az,gy,gx,gz,roll,pitch,yaw,cmd_fx,cmd_fy,cmd_fz,cmd_tx,cmd_ty,cmd_tz,pwm_1,pwm_2,pwm_3,pwm_4,pwm_5,pwm_6
1747551046.2368846,0.0,0.0,0.0,0.0,0.0,0.0,0.0,0.0,0.0,0,0,0,0,0,0,1500,1500,1500,1500,1500,1500
1747551046.3367727,0.0,-0.17,0.15,-0.008726646259971648,-0.04363323129985824,0.009817477042468103,2.047491711017852,-0.17730953405728883,-0.3318091557704966,0,0,0,0,0,0,1500,1500,1500,1500,1500,1500
1747551046.436804,0.0,-0.17,0.15,-0.008726646259971648,-0.04363323129985824,0.009817477042468103,2.047491711017852,-0.17730953405728883,-0.3318091557704966,0,0,0,0,0,0,1500,1500,1500,1500,1500,1500
1747551046.536961,-0.09,-0.27,0.09,0.013089969389957472,-0.02181661564992912,0.030543261909900768,2.0483986337677536,-0.1780108921690472,-0.33769501697736953,0,0,0,0,0,0,1500,1500,1500,1500,1500,1500
1747551046.6205235,-0.04,-0.31,0.15,0.002181661564992912,-0.02945243112740431,0.017453292519943295,2.050327006728523,-0.18034183313851174,-0.3428782398508716,0,0,0,0,0,0,1500,1500,1500,1500,1500,1500
1747551046.71998,-0.04,-0.31,0.15,0.002181661564992912,-0.02945243112740431,0.017453292519943295,2.050327006728523,-0.18034183313851174,-0.3428782398508716,0,0,0,0,0,0,1500,1500,1500,1500,1500,1500
1747551046.8207128,0.0,-0.13,-0.05,-0.022907446432425576,-0.05781403147231216,-0.002181661564992912,2.049478308708085,-0.17776496432205732,-0.34913611431893604,0,0,0,0,0,0,1500,1500,1500,1500,1500,1500
1747551046.920304,0.0,-0.13,-0.05,-0.022907446432425576,-0.05781403147231216,-0.002181661564992912,2.049478308708085,-0.17776496432205732,-0.34913611431893604,0,0,0,0,0,0,1500,1500,1500,1500,1500,1500
1747551047.0204465,0.06,-0.09,0.08,-0.020725784867432664,-0.044724062082354694,0.01090830782496456,2.0472018139597936,-0.17426012010964045,-0.3561464111254342,0,0,0,0,0,0,1500,1500,1500,1500,1500,1500
1747551047.1032286,-0.02,-0.04,0.03,-0.00545415391248228,-0.0272707695624114,0.025089107997418487,2.0469450530013606,-0.17457448366559314,-0.36241923864732895,0,0,0,0,0,0,1500,1500,1500,1500,1500,1500
1747551047.2028892,-0.02,-0.04,0.03,-0.00545415391248228,-0.0272707695624114,0.025089107997418487,2.0469450530013606,-0.17457448366559314,-0.36241923864732895,0,0,0,0,0,0,1500,1500,1500,1500,1500,1500
1747551047.3030796,0.0,-0.03,0.12,-0.002181661564992912,-0.039269908169872414,0.014180800172453928,2.0479797594211937,-0.1752543290612468,-0.36833269621526776,0,0,0,0,0,0,1500,1500,1500,1500,1500,1500
1747551047.3868484,0.0,-0.03,0.12,-0.002181661564992912,-0.039269908169872414,0.014180800172453928,2.0479797594211937,-0.1752543290612468,-0.36833269621526776,0,0,0,0,0,0,1500,1500,1500,1500,1500,1500
1747551047.4865901,0.06,-0.07,0.03,-0.01090830782496456,-0.05781403147231216,0.003272492347489368,2.0491943079557355,-0.17195451515911744,-0.37559507845334505,0,0,0,0,0,0,1500,1500,1500,1500,1500,1500
1747551047.5874598,0.14,-0.05,0.04,-0.007635815477475192,-0.03490658503988659,0.017453292519943295,2.0496686131655832,-0.16936935938656733,-0.3825847980338834,0,0,0,0,0,0,1500,1500,1500,1500,1500,1500
1747551047.6868944,0.14,-0.05,0.04,-0.007635815477475192,-0.03490658503988659,0.017453292519943295,2.0496686131655832,-0.16936935938656733,-0.3825847980338834,0,0,0,0,0,0,1500,1500,1500,1500,1500,1500
1747551047.7865906,0.07,-0.07,-0.03,-0.011999138607461015,-0.0272707695624114,0.03381575425739013,2.048728481628495,-0.17143518831530377,-0.3876961213422938,0,0,0,0,0,0,1500,1500,1500,1500,1500,1500
1747551047.8702297,0.02,-1.33,0.05,-0.011999138607461015,-0.04145156973486533,0.019634954084936207,2.0483008058479073,-0.17329127276398723,-0.3940076514543753,0,0,0,0,0,0,1500,1500,1500,1500,1500,1500
1747551047.9700909,0.02,-1.33,0.05,-0.011999138607461015,-0.04145156973486533,0.019634954084936207,2.0483008058479073,-0.17329127276398723,-0.3940076514543753,0,0,0,0,0,0,1500,1500,1500,1500,1500,1500
1747551048.0704489,0.0,-0.08,0.01,-0.00545415391248228,-0.05126904677733343,0.0,2.049092808901625,-0.1705305271040056,-0.4010957958976372,0,0,0,0,0,0,1500,1500,1500,1500,1500,1500
1747551048.170221,0.0,-0.08,0.01,-0.00545415391248228,-0.05126904677733343,0.0,2.049092808901625,-0.1705305271040056,-0.4010957958976372,0,0,0,0,0,0,1500,1500,1500,1500,1500,1500
1747551048.2701252,,,,0.0,-0.03599741582238305,0.003272492347489368,2.050146744087421,-0.1674557992117336,-0.40732543231150536,0,0,0,0,0,0,1500,1500,1500,1500,1500,1500
1747551048.3534534,0.11,-0.14,0.02,-0.016362461737446838,-0.038179077387375956,0.006544984694978736,2.050237183735866,-0.16504341813432338,-0.4118807511343023,0,0,0,0,0,0,1500,1500,1500,1500,1500,1500
1747551048.4533455,0.11,-0.14,0.02,-0.016362461737446838,-0.038179077387375956,0.006544984694978736,2.050237183735866,-0.16504341813432338,-0.4118807511343023,0,0,0,0,0,0,1500,1500,1500,1500,1500,1500
1747551048.5544686,0.14,-0.1,0.11,-0.017453292519943295,-0.038179077387375956,0.01090830782496456,2.048505425610828,-0.1632456046400168,-0.417624084079918,0,0,0,0,0,0,1500,1500,1500,1500,1500,1500
1747551048.6530464,0.15,-0.06,0.0,-0.020725784867432664,-0.050178215994836975,0.016362461737446838,2.0472275456491227,-0.16219621591848155,-0.42525412994788814,0,0,0,0,0,0,1500,1500,1500,1500,1500,1500
1747551048.7536829,0.15,-0.06,0.0,-0.020725784867432664,-0.050178215994836975,0.016362461737446838,2.0472275456491227,-0.16219621591848155,-0.42525412994788814,0,0,0,0,0,0,1500,1500,1500,1500,1500,1500
1747551048.8367898,0.18,-0.02,0.04,-0.026179938779914945,-0.04581489286485115,0.015271630954950384,2.044983500044423,-0.16134398544569334,-0.4322733103128675,0,0,0,0,0,0,1500,1500,1500,1500,1500,1500
1747551048.9366574,0.18,-0.02,0.04,-0.026179938779914945,-0.04581489286485115,0.015271630954950384,2.044983500044423,-0.16134398544569334,-0.4322733103128675,0,0,0,0,0,0,1500,1500,1500,1500,1500,1500
1747551049.036059,0.14,-0.05,0.02,0.01090830782496456,0.007635815477475192,0.004363323129985824,2.043270788838093,-0.16117778972546093,-0.4366361656408394,0,0,0,0,0,0,1500,1500,1500,1500,1500,1500
1747551049.1204433,0.14,-0.1,0.13,0.031634092692397225,0.00545415391248228,0.008726646259971648,2.0465104254797746,-0.1612991845491256,-0.4363713254173139,0,0,0,0,0,0,1500,1500,1500,1500,1500,1500
1747551049.2204144,0.14,-0.1,0.13,0.031634092692397225,0.00545415391248228,0.008726646259971648,2.0465104254797746,-0.1612991845491256,-0.4363713254173139,0,0,0,0,0,0,1500,1500,1500,1500,1500,1500
1747551049.319015,0.08,-0.1,0.04,0.026179938779914945,-0.007635815477475192,0.0,2.051143062447962,-0.1613045440326108,-0.43626853074460015,0,0,0,0,0,0,1500,1500,1500,1500,1500,1500
1747551049.4110677,0.08,-0.1,0.04,0.026179938779914945,-0.007635815477475192,0.0,2.051143062447962,-0.1613045440326108,-0.43626853074460015,0,0,0,0,0,0,1500,1500,1500,1500,1500,1500
1747551049.5066402,0.14,-0.04,0.07,0.02399827721492203,-0.004363323129985824,-0.009817477042468103,2.0546612847871932,-0.16122874174421548,-0.43626674689383244,0,0,0,0,0,0,1500,1500,1500,1500,1500,1500
1747551049.5957074,0.2,-0.03,0.06,0.028361600344907856,0.001090830782496456,-0.013089969389957472,2.0585219171384854,-0.15929960679132288,-0.43527548072877836,0,0,0,0,0,0,1500,1500,1500,1500,1500,1500
1747551049.6901968,0.2,-0.03,0.06,0.028361600344907856,0.001090830782496456,-0.013089969389957472,2.0585219171384854,-0.15929960679132288,-0.43527548072877836,0,0,0,0,0,0,1500,1500,1500,1500,1500,1500
1747551049.7898545,0.18,-0.05,0.14,0.015271630954950384,0.00545415391248228,0.006544984694978736,2.0617052333729435,-0.1607716983422391,-0.43482004722706163,0,0,0,0,0,0,1500,1500,1500,1500,1500,1500
1747551049.8917053,0.11,-0.07,0.12,0.006544984694978736,0.001090830782496456,0.01090830782496456,2.06306369623059,-0.1638329551406408,-0.4354591227779966,0,0,0,0,0,0,1500,1500,1500,1500,1500,1500
1747551050.0020087,0.11,-0.07,0.12,0.006544984694978736,0.001090830782496456,0.01090830782496456,2.06306369623059,-0.1638329551406408,-0.4354591227779966,0,0,0,0,0,0,1500,1500,1500,1500,1500,1500
1747551050.0884676,0.12,-0.01,0.19,-0.007635815477475192,-0.004363323129985824,-0.008726646259971648,2.0623936094139164,-0.16482560988937373,-0.4353617121097267,0,0,0,0,0,0,1500,1500,1500,1500,1500,1500
1747551050.18897,0.12,-0.01,0.19,-0.007635815477475192,-0.004363323129985824,-0.008726646259971648,2.0623936094139164,-0.16482560988937373,-0.4353617121097267,0,0,0,0,0,0,1500,1500,1500,1500,1500,1500
1747551050.2746868,0.07,0.01,0.13,-0.003272492347489368,-0.008726646259971648,-0.004363323129985824,2.06020977231284,-0.16497024298855753,-0.43628589198257844,0,0,0,0,0,0,1500,1500,1500,1500,1500,1500
1747551050.3713336,0.09,-0.04,0.16,0.016362461737446838,0.0,0.009817477042468103,2.059993976167338,-0.16553458635032342,-0.436406297463559,0,0,0,0,0,0,1500,1500,1500,1500,1500,1500
1747551050.4704325,0.09,-0.04,0.16,0.016362461737446838,0.0,0.009817477042468103,2.059993976167338,-0.16553458635032342,-0.436406297463559,0,0,0,0,0,0,1500,1500,1500,1500,1500,1500
1747551050.5706353,0.04,-0.08,0.09,0.016362461737446838,0.001090830782496456,0.004363323129985824,2.061760211502002,-0.16603259389031227,-0.4363297178806522,0,0,0,0,0,0,1500,1500,1500,1500,1500,1500
1747551050.670738,0.04,-0.08,0.09,0.016362461737446838,0.001090830782496456,0.004363323129985824,2.061760211502002,-0.16603259389031227,-0.4363297178806522,0,0,0,0,0,0,1500,1500,1500,1500,1500,1500
1747551050.7707443,0.06,-0.04,0.18,0.016362461737446838,0.00545415391248228,0.0,2.0638362392911573,-0.16654399287006355,-0.43620431202567245,0,0,0,0,0,0,1500,1500,1500,1500,1500,1500
1747551050.8538713,,,,0.011999138607461015,-0.001090830782496456,-0.003272492347489368,2.0652852635369285,-0.16683595240161658,-0.436122237086294,0,0,0,0,0,0,1500,1500,1500,1500,1500,1500
1747551050.9535186,,,,0.011999138607461015,-0.001090830782496456,-0.003272492347489368,2.0652852635369285,-0.16683595240161658,-0.436122237086294,0,0,0,0,0,0,1500,1500,1500,1500,1500,1500
1747551051.053392,0.05,0.01,0.2,-0.00545415391248228,-0.006544984694978736,0.0,2.0643464177123954,-0.16705261751647588,-0.43605236889186805,0,0,0,0,0,0,1500,1500,1500,1500,1500,1500
1747551051.1544657,0.03,0.0,0.17,0.001090830782496456,-0.001090830782496456,-0.001090830782496456,2.062653483505088,-0.1678001941570559,-0.4358336250799716,0,0,0,0,0,0,1500,1500,1500,1500,1500,1500
1747551051.2526355,0.03,0.0,0.17,0.001090830782496456,-0.001090830782496456,-0.001090830782496456,2.062653483505088,-0.1678001941570559,-0.4358336250799716,0,0,0,0,0,0,1500,1500,1500,1500,1500,1500
1747551051.3365645,0.07,-0.01,0.19,0.006544984694978736,0.006544984694978736,0.01090830782496456,2.0615280006372165,-0.16869351128489665,-0.4356392714003731,0,0,0,0,0,0,1500,1500,1500,1500,1500,1500
1747551051.437389,0.07,-0.01,0.19,0.006544984694978736,0.006544984694978736,0.01090830782496456,2.0615280006372165,-0.16869351128489665,-0.4356392714003731,0,0,0,0,0,0,1500,1500,1500,1500,1500,1500
1747551051.5374665,0.0,-0.04,0.03,-0.002181661564992912,0.0,0.019634954084936207,2.0613305617672477,-0.1713167322623093,-0.4365017207457698,0,0,0,0,0,0,1500,1500,1500,1500,1500,1500
1747551051.6190794,0.0,0.0,0.13,0.001090830782496456,-0.003272492347489368,0.004363323129985824,2.061100462649111,-0.17290846311192268,-0.4373504757364437,0,0,0,0,0,0,1500,1500,1500,1500,1500,1500
1747551051.7205434,0.0,0.0,0.13,0.001090830782496456,-0.003272492347489368,0.004363323129985824,2.061100462649111,-0.17290846311192268,-0.4373504757364437,0,0,0,0,0,0,1500,1500,1500,1500,1500,1500
1747551051.8208685,-0.03,-0.02,0.12,0.008726646259971648,0.006544984694978736,-0.009817477042468103,2.0603006066494647,-0.17292679672923617,-0.4372452018249137,0,0,0,0,0,0,1500,1500,1500,1500,1500,1500
1747551051.920464,-0.03,-0.02,0.12,0.008726646259971648,0.006544984694978736,-0.009817477042468103,2.0603006066494647,-0.17292679672923617,-0.4372452018249137,0,0,0,0,0,0,1500,1500,1500,1500,1500,1500
1747551052.0201833,0.04,-0.03,0.22,0.01090830782496456,0.001090830782496456,0.004363323129985824,2.059589173728054,-0.1731307243648858,-0.4368284635838049,0,0,0,0,0,0,1500,1500,1500,1500,1500,1500
1747551052.103242,-0.04,-0.05,0.11,0.004363323129985824,-0.006544984694978736,0.019634954084936207,2.0590675039299358,-0.17472093992476667,-0.4375429552697078,0,0,0,0,0,0,1500,1500,1500,1500,1500,1500
1747551052.2031267,-0.04,-0.05,0.11,0.004363323129985824,-0.006544984694978736,0.019634954084936207,2.0590675039299358,-0.17472093992476667,-0.4375429552697078,0,0,0,0,0,0,1500,1500,1500,1500,1500,1500
1747551052.3035493,-0.01,-0.01,0.11,-0.001090830782496456,-0.002181661564992912,0.007635815477475192,2.058890710531921,-0.17637839670579597,-0.43850811916986737,0,0,0,0,0,0,1500,1500,1500,1500,1500,1500
1747551052.3874817,-0.01,-0.01,0.11,-0.001090830782496456,-0.002181661564992912,0.007635815477475192,2.058890710531921,-0.17637839670579597,-0.43850811916986737,0,0,0,0,0,0,1500,1500,1500,1500,1500,1500
1747551052.48704,-0.02,0.01,0.1,-0.002181661564992912,0.004363323129985824,-0.01090830782496456,2.0588831771132314,-0.17607913595232924,-0.43824609895599564,0,0,0,0,0,0,1500,1500,1500,1500,1500,1500
1747551052.5871809,0.02,0.02,0.14,-0.00545415391248228,0.00545415391248228,-0.001090830782496456,2.058841905446599,-0.1752764232326663,-0.43784643384631095,0,0,0,0,0,0,1500,1500,1500,1500,1500,1500
1747551052.6876087,0.02,0.02,0.14,-0.00545415391248228,0.00545415391248228,-0.001090830782496456,2.058841905446599,-0.1752764232326663,-0.43784643384631095,0,0,0,0,0,0,1500,1500,1500,1500,1500,1500
1747551052.7868664,-0.05,0.02,0.18,-0.001090830782496456,0.0,0.016362461737446838,2.0589446690082363,-0.17624538323058075,-0.4383006450174683,0,0,0,0,0,0,1500,1500,1500,1500,1500,1500
1747551052.869778,-0.05,0.02,0.18,-0.001090830782496456,0.0,0.016362461737446838,2.0589446690082363,-0.17624538323058075,-0.4383006450174683,0,0,0,0,0,0,1500,1500,1500,1500,1500,1500
1747551052.9705162,0.0,0.0,0.16,0.013089969389957472,-0.004363323129985824,0.008726646259971648,2.0598573827396285,-0.178221257038314,-0.4393261050302101,0,0,0,0,0,0,1500,1500,1500,1500,1500,1500
1747551053.0699282,-0.05,-0.03,0.2,0.007635815477475192,-0.003272492347489368,-0.004363323129985824,2.0614238703045062,-0.17831327714087358,-0.439483433466314,0,0,0,0,0,0,1500,1500,1500,1500,1500,1500
1747551053.1702955,-0.05,-0.03,0.2,0.007635815477475192,-0.003272492347489368,-0.004363323129985824,2.0614238703045062,-0.17831327714087358,-0.439483433466314,0,0,0,0,0,0,1500,1500,1500,1500,1500,1500
1747551053.2705965,-0.03,0.0,0.16,0.00545415391248228,0.004363323129985824,-0.00545415391248228,2.0613755198383914,-0.17824921493856458,-0.4393666028497466,0,0,0,0,0,0,1500,1500,1500,1500,1500,1500
1747551053.3527784,-0.04,0.02,0.22,0.019634954084936207,0.0,0.007635815477475192,2.063044968753073,-0.17827269877513435,-0.43943361949037474,0,0,0,0,0,0,1500,1500,1500,1500,1500,1500
1747551053.4529378,-0.04,0.02,0.22,0.019634954084936207,0.0,0.007635815477475192,2.063044968753073,-0.17827269877513435,-0.43943361949037474,0,0,0,0,0,0,1500,1500,1500,1500,1500,1500
1747551053.553781,-0.05,-0.01,0.14,0.007635815477475192,-0.002181661564992912,0.006544984694978736,2.0650242316264866,-0.17840065033476693,-0.4395741879698139,0,0,0,0,0,0,1500,1500,1500,1500,1500,1500
1747551053.6488423,-0.05,-0.01,0.14,0.007635815477475192,-0.002181661564992912,0.006544984694978736,2.0650242316264866,-0.17840065033476693,-0.4395741879698139,0,0,0,0,0,0,1500,1500,1500,1500,1500,1500
1747551053.7529304,-0.07,-0.02,0.16,0.0,0.00545415391248228,-0.001090830782496456,2.0650242316264866,-0.17840065033476693,-0.4395741879698139,0,0,0,0,0,0,1500,1500,1500,1500,1500,1500
1747551053.8446794,-0.07,0.04,0.1,-0.007635815477475192,0.01090830782496456,-0.003272492347489368,2.0648578099375445,-0.17853474485982695,-0.4392251468571771,0,0,0,0,0,0,1500,1500,1500,1500,1500,1500
1747551053.9362726,-0.07,0.04,0.1,-0.007635815477475192,0.01090830782496456,-0.003272492347489368,2.0648578099375445,-0.17853474485982695,-0.4392251468571771,0,0,0,0,0,0,1500,1500,1500,1500,1500,1500
1747551054.0355885,-0.04,0.07,0.26,0.001090830782496456,-0.015271630954950384,-0.001090830782496456,-1.7601743137872914,0.8426979894649437,-0.2954380809152365,0,0,0,0,0,0,1500,1500,1500,1500,1500,1500
1747551054.1193588,-0.04,0.07,0.26,0.001090830782496456,-0.015271630954950384,-0.001090830782496456,-1.7601743137872914,0.8426979894649437,-0.2954380809152365,0,0,0,0,0,0,1500,1500,1500,1500,1500,1500
1747551054.2202284,-0.08,0.0,0.14,0.01090830782496456,-0.01090830782496456,0.003272492347489368,2.0616761016808316,-0.17621215305750634,-0.4411388913537489,0,0,0,0,0,0,1500,1500,1500,1500,1500,1500
1747551054.3191867,-0.03,-0.06,0.22,0.016362461737446838,0.009817477042468103,0.004363323129985824,2.0627473933996208,-0.1759316228542569,-0.4406730321587022,0,0,0,0,0,0,1500,1500,1500,1500,1500,1500
1747551054.4195943,-0.03,-0.06,0.22,0.016362461737446838,0.009817477042468103,0.004363323129985824,2.0627473933996208,-0.1759316228542569,-0.4406730321587022,0,0,0,0,0,0,1500,1500,1500,1500,1500,1500
1747551054.5195997,-0.07,-0.05,1.36,-0.002181661564992912,0.015271630954950384,-0.003272492347489368,2.062813805998562,-0.17711089012027184,-0.43836065766835053,0,0,0,0,0,0,1500,1500,1500,1500,1500,1500
1747551054.603125,-0.07,-0.05,1.36,-0.002181661564992912,0.015271630954950384,-0.003272492347489368,2.062813805998562,-0.17711089012027184,-0.43836065766835053,0,0,0,0,0,0,1500,1500,1500,1500,1500,1500
1747551054.703278,-0.02,0.05,0.13,-0.011999138607461015,0.008726646259971648,-0.004363323129985824,2.0612020215155256,-0.1774367670787405,-0.4372166940478158,0,0,0,0,0,0,1500,1500,1500,1500,1500,1500
1747551054.8031127,-0.07,0.06,0.07,0.008726646259971648,0.006544984694978736,0.002181661564992912,2.0602786174634855,-0.17712260691909798,-0.4370000386423785,0,0,0,0,0,0,1500,1500,1500,1500,1500,1500
1747551054.8861606,-0.07,0.06,0.07,0.008726646259971648,0.006544984694978736,0.002181661564992912,2.0602786174634855,-0.17712260691909798,-0.4370000386423785,0,0,0,0,0,0,1500,1500,1500,1500,1500,1500
1747551054.9858298,-0.04,-0.05,0.1,0.015271630954950384,0.0,0.004363323129985824,2.061966623263451,-0.1769610413928668,-0.436558693561581,0,0,0,0,0,0,1500,1500,1500,1500,1500,1500
1747551055.085749,-0.04,-0.05,0.1,0.015271630954950384,0.0,0.004363323129985824,2.061966623263451,-0.1769610413928668,-0.436558693561581,0,0,0,0,0,0,1500,1500,1500,1500,1500,1500
1747551055.1858785,-0.05,-0.09,0.19,-0.002181661564992912,-0.001090830782496456,0.008726646259971648,2.0621517442859463,-0.1767333543984472,-0.4365213599188089,0,0,0,0,0,0,1500,1500,1500,1500,1500,1500
1747551055.2863595,0.01,0.01,0.17,-0.002181661564992912,0.018544123302439753,0.004363323129985824,2.061978404437461,-0.17710933090987752,-0.4358702507770858,0,0,0,0,0,0,1500,1500,1500,1500,1500,1500
1747551055.3691034,0.01,0.01,0.17,-0.002181661564992912,0.018544123302439753,0.004363323129985824,2.061978404437461,-0.17710933090987752,-0.4358702507770858,0,0,0,0,0,0,1500,1500,1500,1500,1500,1500
1747551055.4687917,-0.04,0.04,0.11,0.015271630954950384,0.03381575425739013,-0.004363323129985824,2.0621966688301883,-0.17940272057897225,-0.4314236451790549,0,0,0,0,0,0,1500,1500,1500,1500,1500,1500
1747551055.5555356,-0.02,-0.03,0.09,0.009817477042468103,0.0,-0.003272492347489368,2.063880637454972,-0.18079526394495998,-0.42876606709472614,0,0,0,0,0,0,1500,1500,1500,1500,1500,1500
1747551055.6531136,-0.02,-0.03,0.09,0.009817477042468103,0.0,-0.003272492347489368,2.063880637454972,-0.18079526394495998,-0.42876606709472614,0,0,0,0,0,0,1500,1500,1500,1500,1500,1500
1747551055.7529485,-0.03,-0.14,0.13,-0.004363323129985824,-0.009817477042468103,-0.001090830782496456,2.0639845162877832,-0.18058783035173762,-0.42918039966177557,0,0,0,0,0,0,1500,1500,1500,1500,1500,1500
1747551055.8527577,-0.03,-0.14,0.13,-0.004363323129985824,-0.009817477042468103,-0.001090830782496456,2.0639845162877832,-0.18058783035173762,-0.42918039966177557,0,0,0,0,0,0,1500,1500,1500,1500,1500,1500
1747551055.9526005,-0.06,-0.06,0.11,-0.007635815477475192,0.020725784867432664,-0.007635815477475192,2.063846269126158,-0.18083367198420766,-0.42858785801201893,0,0,0,0,0,0,1500,1500,1500,1500,1500,1500
1747551056.0525444,-0.06,-0.06,0.11,-0.007635815477475192,0.020725784867432664,-0.007635815477475192,2.063846269126158,-0.18083367198420766,-0.42858785801201893,0,0,0,0,0,0,1500,1500,1500,1500,1500,1500
1747551056.1368594,-0.05,0.05,0.13,-0.008726646259971648,0.038179077387375956,-0.009817477042468103,2.062942169444365,-0.18338946448665586,-0.42386814995517824,0,0,0,0,0,0,1500,1500,1500,1500,1500,1500
1747551056.236709,-0.1,0.07,0.2,-0.01090830782496456,0.15162547876700738,-0.006544984694978736,2.062128642530791,-0.18563411483225592,-0.41962545880491486,0,0,0,0,0,0,1500,1500,1500,1500,1500,1500
1747551056.3352828,-0.1,0.07,0.2,-0.01090830782496456,0.15162547876700738,-0.006544984694978736,2.062128642530791,-0.18563411483225592,-0.41962545880491486,0,0,0,0,-0.10205,0,1500,1500,1500,1500,1500,1500
1747551056.4356356,-0.06,0.05,0.15,-0.015271630954950384,-0.008726646259971648,-0.006544984694978736,2.0602790536922297,-0.1854849793770315,-0.41976926144932936,0,0,0,0.001789,-0.28,0,1500,1500,1500,1500,1460,1460
1747551056.5366242,-0.06,0.0,0.18,0.003272492347489368,0.009817477042468103,-0.011999138607461015,2.0601096742842095,-0.18517930756458104,-0.4196633546365684,0,0,0,0.001789,-0.28,0,1500,1500,1500,1500,1454,1454
1747551056.6198401,-0.06,0.0,0.18,0.003272492347489368,0.009817477042468103,-0.011999138607461015,2.0601096742842095,-0.18517930756458104,-0.4196633546365684,0,0,0,0,-0.28,0,1500,1500,1500,1500,1454,1454
1747551056.718962,-0.14,-0.09,0.24,-0.006544984694978736,0.037088246604879506,-0.00545415391248228,2.0594023140149877,-0.18534515683363534,-0.4151519780158996,0,0,0,0,-0.28,0,1500,1500,1500,1500,1454,1454
1747551056.8191423,-0.14,-0.09,0.24,-0.006544984694978736,0.037088246604879506,-0.00545415391248228,2.0594023140149877,-0.18534515683363534,-0.4151519780158996,0,0,0,0,-0.28,0,1500,1500,1500,1500,1454,1454
1747551056.9029977,-0.12,-0.05,0.19,-0.1559888018969932,0.037088246604879506,0.0,2.0414601048774013,-0.1872650914630088,-0.4094482921538492,0,0,0,0,-0.28,0,1500,1500,1500,1500,1454,1454
1747551057.0027566,-0.09,0.04,0.08,-0.20616701789183017,0.028361600344907856,-0.004363323129985824,2.0127548763993888,-0.18849951617390667,-0.4053267320453402,0,0,0,0,-0.28,0,1500,1500,1500,1500,1454,1454
1747551057.101939,-0.09,0.04,0.08,-0.20616701789183017,0.028361600344907856,-0.004363323129985824,2.0127548763993888,-0.18849951617390667,-0.4053267320453402,0,0,0,0,-0.28,0,1500,1500,1500,1500,1454,1454
1747551057.202008,-0.02,0.1,0.04,-0.22907446432425577,0.02945243112740431,-0.002181661564992912,1.9779868958040638,-0.1896833401111216,-0.40170154276202946,0,0,0,0,-0.28,0,1500,1500,1500,1500,1454,1454
1747551057.3017757,-0.07,-0.07,0.13,-0.23671027980173096,0.03490658503988659,0.017453292519943295,1.9406940514293485,-0.19238904523185152,-0.3969717176335474,0,0,0,0,-0.28,0,1500,1500,1500,1500,1454,1454
1747551057.3859947,-0.07,-0.07,0.13,-0.23671027980173096,0.03490658503988659,0.017453292519943295,1.9406940514293485,-0.19238904523185152,-0.3969717176335474,0,0,0,0,-0.28,0,1500,1500,1500,1500,1454,1454
1747551057.485791,-0.06,-0.19,0.24,-0.2454369260617026,0.028361600344907856,0.031634092692397225,1.904487099828233,-0.19753282134797942,-0.3934412369073709,0,0,0,0,-0.28,0,1500,1500,1500,1500,1454,1454
1747551057.5857074,-0.06,-0.19,0.24,-0.2454369260617026,0.028361600344907856,0.031634092692397225,1.904487099828233,-0.19753282134797942,-0.3934412369073709,0,0,0,0,-0.28,0,1500,1500,1500,1500,1454,1454
1747551057.6853464,-0.04,-0.15,0.1,-0.2378011105842274,0.031634092692397225,0.03381575425739013,1.86762821967331,-0.20344029605708513,-0.39053377218448226,0,0,0,0,-0.28,0,1500,1500,1500,1500,1454,1454
1747551057.785788,-0.04,-0.15,0.1,-0.21271200258680892,0.032724923474893676,0.030543261909900768,1.8313176149501362,-0.2099200798350571,-0.3865493106108175,0,0,0,0,-0.28,0,1500,1500,1500,1500,1454,1454
1747551057.8686814,-0.04,-0.15,0.1,-0.21271200258680892,0.032724923474893676,0.030543261909900768,1.8313176149501362,-0.2099200798350571,-0.3865493106108175,0,0,0,0,-0.28,0,1500,1500,1500,1500,1454,1454
1747551057.9684563,-0.01,-0.13,0.01,-0.19525871006686563,0.02181661564992912,0.039269908169872414,1.8007924696249091,-0.2157175858773678,-0.38330901606861506,0,0,0,0,-0.28,0,1500,1500,1500,1500,1454,1454
1747551058.0688682,-0.01,-0.13,0.01,-0.19525871006686563,0.02181661564992912,0.039269908169872414,1.8007924696249091,-0.2157175858773678,-0.38330901606861506,0,0,0,0,-0.28,0,1500,1500,1500,1500,1454,1454
1747551058.1526546,0.0,-0.19,0.07,-0.18435040224190105,0.017453292519943295,0.06544984694978735,1.7704586455799656,-0.224501826814199,-0.3817977533829182,0,0,0,0,-0.28,0,1500,1500,1500,1500,1454,1454
1747551058.2519617,-0.01,-0.18,0.1,-0.15162547876700738,0.016362461737446838,0.08072147790473774,1.7456593360643688,-0.23627987323889754,-0.38135991388527396,0,0,0,0,-0.28,0,1500,1500,1500,1500,1454,1454
1747551058.3355336,-0.01,-0.18,0.1,-0.15162547876700738,0.016362461737446838,0.08072147790473774,1.7456593360643688,-0.23627987323889754,-0.38135991388527396,0,0,0,0,-0.28,0,1500,1500,1500,1500,1454,1454
1747551058.4358535,0.01,-0.18,0.11,-0.1308996938995747,0.0,0.05999569303730508,1.7240563351664462,-0.24740006245996488,-0.38249794761620587,0,0,0,0,-0.28,0,1500,1500,1500,1500,1454,1454
1747551058.5351522,0.01,-0.18,0.11,-0.1308996938995747,0.0,0.05999569303730508,1.7240563351664462,-0.24740006245996488,-0.38249794761620587,0,0,0,0,-0.28,0,1500,1500,1500,1500,1452,1452
1747551058.618773,0.09,-0.24,0.08,-0.10471975511965978,-0.002181661564992912,0.04363323129985824,1.7061084420878017,-0.25457783603088646,-0.3835167271865346,0,0,0,0,-0.28,0,1500,1500,1500,1500,1451,1451
1747551058.718582,0.07,-0.23,0.0,-0.08072147790473774,-0.011999138607461015,0.05999569303730508,1.6923834035750103,-0.26232297835753665,-0.3855410371470353,0,0,0,0,-0.28,0,1500,1500,1500,1500,1451,1451
1747551058.8187368,0.07,-0.23,0.0,-0.08072147790473774,-0.011999138607461015,0.05999569303730508,1.6923834035750103,-0.26232297835753665,-0.3855410371470353,0,0,0,0,-0.28,0,1500,1500,1500,1500,1449,1449
1747551058.901901,0.11,-0.22,-0.01,-0.06654067773228381,-0.032724923474893676,0.06872233929727672,1.683150818049899,-0.2715410920067258,-0.39065865906554625,0,0,0,0,-0.28,0,1500,1500,1500,1500,1447,1447
1747551059.0021875,0.11,-0.22,-0.01,-0.06654067773228381,-0.032724923474893676,0.06872233929727672,1.683150818049899,-0.2715410920067258,-0.39065865906554625,0,0,0,0,-0.28,0,1500,1500,1500,1500,1445,1445
1747551059.1020155,0.0,-0.24,0.08,-0.07744898555724837,-0.04908738521234052,0.031634092692397225,1.6750913977639055,-0.2790290708666873,-0.3988669150822313,0,0,0,0,-0.28,0,1500,1500,1500,1500,1443,1443
1747551059.202278,0.11,-0.2,0.09,-0.09599310885968812,-0.037088246604879506,-0.002181661564992912,1.663903515491831,-0.27964144783247585,-0.4061240205497229,0,0,0,0,-0.28,0,1500,1500,1500,1500,1441,1441
1747551059.3020523,0.11,-0.2,0.09,-0.09599310885968812,-0.037088246604879506,-0.002181661564992912,1.663903515491831,-0.27964144783247585,-0.4061240205497229,0,0,0,0,-0.28,0,1500,1500,1500,1500,1441,1441
1747551059.3856444,0.15,-0.2,0.07,-0.12435470920459599,-0.04254240051736178,0.006544984694978736,1.649708034937202,-0.279211789869675,-0.4118036316431974,0,0,0,0,-0.28,0,1500,1500,1500,1500,1439,1439
1747551059.4860315,0.15,-0.2,0.07,-0.12435470920459599,-0.04254240051736178,0.006544984694978736,1.649708034937202,-0.279211789869675,-0.4118036316431974,0,0,0,0,-0.28,0,1500,1500,1500,1500,1436,1436
1747551059.586213,0.21,-0.29,-0.01,-0.14508049407202864,-0.07963064712224129,0.01090830782496456,1.6314200727746062,-0.28154214954869083,-0.42153508510359033,0,0,0,0,-0.28,0,1500,1500,1500,1500,1434,1434
1747551059.6856651,0.17,-0.32,-0.1,-0.21707532571679475,-0.09053895494720585,-0.019634954084936207,1.6073028663964148,-0.28324965590922935,-0.4360940974946708,0,0,0,0,-0.28,0,1500,1500,1500,1500,1431,1431
1747551059.7868834,0.17,-0.32,-0.1,-0.21707532571679475,-0.09053895494720585,-0.019634954084936207,1.6073028663964148,-0.28324965590922935,-0.4360940974946708,0,0,0,0,-0.28,0,1500,1500,1500,1500,1428,1428
1747551059.8686123,0.15,-0.34,0.01,-0.2683443724941282,-0.06872233929727672,-0.028361600344907856,1.576662288693887,-0.28282692852527735,-0.44807612436619704,0,0,0,0,-0.28,0,1500,1500,1500,1500,1428,1428
1747551059.969693,0.11,-0.25,0.05,-0.3337942194439155,-0.08072147790473774,-0.008726646259971648,1.5342784768088207,-0.2840102073823347,-0.45967914776663293,0,0,0,0,-0.28,0,1500,1500,1500,1500,1423,1423
1747551060.069132,0.11,-0.25,0.05,-0.3337942194439155,-0.08072147790473774,-0.008726646259971648,1.5342784768088207,-0.2840102073823347,-0.45967914776663293,0,0,0,0,-0.28,0,1500,1500,1500,1500,1421,1421
1747551060.1523929,0.1,-0.27,-0.03,-0.41560652813114973,-0.11017390903214205,0.002181661564992912,1.4808131444577044,-0.28802910304768553,-0.47527835844909366,0,0,0,0,-0.28,0,1500,1500,1500,1500,1418,1418
1747551060.2524638,0.1,-0.27,-0.03,-0.41560652813114973,-0.11017390903214205,0.002181661564992912,1.4808131444577044,-0.28802910304768553,-0.47527835844909366,0,0,0,0,-0.28,0,1500,1500,1500,1500,1413,1413
1747551060.3456714,0.06,-0.35000000000000003,-0.11,-0.48105637508093707,-0.11671889372712078,-0.019634954084936207,1.4212755703959232,-0.2919369703815373,-0.4932529475225352,0,0,0,0,-0.28,0,1500,1500,1500,1500,1413,1413
1747551060.4356463,-0.05,-0.32,-0.09,-0.5639595145506677,-0.12108221685710661,-0.030543261909900768,1.3457246980080155,-0.2945480748657674,-0.5129856367293437,0,0,0,0,-0.28,0,1500,1500,1500,1500,1409,1409
1747551060.535681,-0.05,-0.32,-0.09,-0.5639595145506677,-0.12108221685710661,-0.030543261909900768,1.3457246980080155,-0.2945480748657674,-0.5129856367293437,0,0,0,0,-0.28,0,1500,1500,1500,1500,1405,1405
1747551060.619622,0.21,-0.44,-0.1,-0.6588617926278594,-0.11126473981463851,-0.014180800172453928,1.261971157521748,-0.2980817660310009,-0.5310429408720607,0,0,0,0,-0.28,0,1500,1500,1500,1500,1400,1400
1747551060.7182033,0.21,-0.44,-0.1,-0.6588617926278594,-0.11126473981463851,-0.014180800172453928,1.261971157521748,-0.2980817660310009,-0.5310429408720607,0,0,0,0,-0.28,0,1500,1500,1500,1500,1395,1395
1747551060.819069,0.29,-0.25,-0.22,-0.6828600698427815,-0.1090830782496456,-0.018544123302439753,1.1675259648174554,-0.3055396066998915,-0.5485832312886488,0,0,0,0,-0.28,0,1500,1500,1500,1500,1395,1395
1747551060.9025085,0.15,-0.51,-0.18,-0.7624907169650227,-0.09272061651219876,-0.050178215994836975,1.0627666825027873,-0.31063264808810775,-0.5659228389454593,0,0,0,0,-0.28,0,1500,1500,1500,1500,1389,1389
1747551061.0022702,0.15,-0.51,-0.18,-0.7624907169650227,-0.09272061651219876,-0.050178215994836975,1.0627666825027873,-0.31063264808810775,-0.5659228389454593,0,0,0,0,-0.28,0,1500,1500,1500,1500,1389,1389
1747551061.101755,0.43,-0.53,-0.29,-0.7395832705325971,-0.06217735460229799,-0.10144726277217041,0.9520753281816264,-0.3114777547624646,-0.5835725384175265,0,0,0,0,-0.28,0,1500,1500,1500,1500,1389,1389
1747551061.202177,0.43,-0.53,-0.29,-0.7395832705325971,-0.06217735460229799,-0.10144726277217041,0.9520753281816264,-0.3114777547624646,-0.5835725384175265,0,0,0,0,-0.28,0,1500,1500,1500,1500,1389,1389
1747551061.3022084,0.07,-0.66,-0.3,-0.791943148092427,-0.009817477042468103,-0.16253378659197193,0.8392166310435933,-0.3015280138681711,-0.60209826188483,0,0,0,0,-0.28,0,1500,1500,1500,1500,1389,1389
1747551061.385745,0.01,-0.37,-0.41000000000000003,-0.918479518862016,0.07308566242726255,-0.18544123302439752,0.7111651117056462,-0.2810137462184685,-0.618569673745096,0,0,0,0,-0.28,0,1500,1500,1500,1500,1389,1389
1747551061.484843,0.01,-0.37,-0.41000000000000003,-0.918479518862016,0.07308566242726255,-0.18544123302439752,0.7111651117056462,-0.2810137462184685,-0.618569673745096,0,0,0,0,-0.28,0,1500,1500,1500,1500,1389,1389
1747551061.5857623,0.05,-0.37,-0.62,-1.1791880758786688,0.13199052468207118,-0.17235126363444003,0.5635854016462786,-0.2543776516245649,-0.6314642066321626,0,0,0,0,-0.28,0,1500,1500,1500,1500,1389,1389
1747551061.6867702,0.4,-0.58,-0.73,-1.371174293598045,0.16253378659197193,-0.07308566242726255,0.3785381486434769,-0.2268860093663937,-0.6386796443856699,0,0,0,0,0,0,1500,1500,1500,1500,1429,1429
1747551061.7855651,0.4,-0.58,-0.73,-1.371174293598045,0.16253378659197193,-0.07308566242726255,0.3785381486434769,-0.2268860093663937,-0.6386796443856699,0,0,0,0,0,0,1500,1500,1500,1500,1469,1469
1747551061.8698099,0.44,-0.67,-0.67,-1.3329952162106693,0.16689710972195776,-0.050178215994836975,0.16149120311566492,-0.2002034200966522,-0.6407880304408913,0,9.415783,0,0,0,0,1540,1540,1540,1500,1500,1500
1747551061.9689715,0.44,-0.67,-0.67,-1.3329952162106693,0.16689710972195776,-0.050178215994836975,0.16149120311566492,-0.2002034200966522,-0.6407880304408913,0,12.5,0,0,0,0,1580,1580,1580,1500,1500,1500
1747551062.0694032,0.79,-0.68,-0.7000000000000001,-0.8443030256522569,0.19634954084936207,-0.04581489286485115,0.003961897453614165,-0.17300197727569355,-0.6436367647500896,0,12.5,0,0,0,0,1620,1620,1620,1500,1500,1500
1747551062.1527693,0.8200000000000001,-0.15,-0.84,-0.35452000431134817,0.18653206380689397,-0.0545415391248228,-0.09364528781943282,-0.15725622377493764,-0.6501699818728512,0,12.5,0,0,0,0,1660,1660,1660,1500,1500,1500
1747551062.2537935,0.8200000000000001,-0.15,-0.84,-0.35452000431134817,0.18653206380689397,-0.0545415391248228,-0.09364528781943282,-0.15725622377493764,-0.6501699818728512,0,12.5,0,0,0,0,1700,1700,1699,1500,1500,1500
1747551062.3523483,1.21,-0.29,-0.78,0.02945243112740431,-0.006544984694978736,-0.1407171709420428,-0.1210525166322815,-0.14601719152150539,-0.6634263773700391,0,12.5,0,0,0,0,1740,1737,1699,1500,1500,1500
1747551062.4519463,1.69,-0.37,-0.67,0.38942658935123475,-0.4188790204786391,-0.1636246173744684,-0.08984373142749748,-0.19494168900842163,-0.6823602023392112,0,0,0,0,0,0,1700,1697,1659,1500,1500,1500
1747551062.5527897,1.69,-0.37,-0.67,0.38942658935123475,-0.4188790204786391,-0.1636246173744684,-0.08984373142749748,-0.19494168900842163,-0.6823602023392112,0,0,0,0,0,0,1660,1657,1619,1500,1500,1500
1747551062.6357005,0.44,-0.25,-0.35000000000000003,0.6326818538479445,-0.6446809924554054,-0.12326387842209953,-0.0021975730334975914,-0.29489176985881743,-0.6999271773570641,0,0,0,0,0,0,1620,1617,1579,1500,1500,1500
1747551062.736021,0.44,-0.25,-0.35000000000000003,0.6326818538479445,-0.6446809924554054,-0.12326387842209953,-0.0021975730334975914,-0.29489176985881743,-0.6999271773570641,0,0,0,0,0,0,1580,1577,1539,1500,1500,1500
1747551062.8363812,-0.18,-0.2,-0.48,0.6152285613280012,-0.495237175253391,-0.1341721862470641,0.10670229064343661,-0.3874692584174101,-0.7265925464046075,0,0,0,0,0,0,1540,1537,1500,1500,1500,1500
1747551062.9357662,-0.62,-0.43,-0.41000000000000003,0.557414529855689,-0.17780541754692233,-0.16907877128695067,0.20312975846829642,-0.43311753005827996,-0.7576986830680834,0,-12.5,0,0,0,0,1500,1497,1460,1500,1500,1500
1747551063.0360813,-0.62,-0.43,-0.41000000000000003,0.557414529855689,-0.17780541754692233,-0.16907877128695067,0.20312975846829642,-0.43311753005827996,-0.7576986830680834,0,-12.5,0,0,0,0,1460,1457,1420,1500,1500,1500
1747551063.1192024,0.07,-0.46,-0.68,0.5999569303730508,0.1930770485018727,-0.2694352032766246,0.3021864225876026,-0.42096777996491147,-0.7908450236088862,0,-12.5,0,0,0,0,1420,1417,1380,1500,1500,1500
1747551063.2186694,0.07,-0.46,-0.68,0.5999569303730508,0.1930770485018727,-0.2694352032766246,0.3021864225876026,-0.42096777996491147,-0.7908450236088862,0,-12.5,0,0,0,0,1380,1377,1340,1500,1500,1500
1747551063.3189414,0.2,-0.44,-0.63,0.743946593662583,0.3621558197888234,-0.3687008044838021,0.41094277758883857,-0.3704452246565415,-0.8214366457201534,0,-12.5,0,0,0,0,1340,1337,1300,1500,1500,1500
1747551063.4037166,0.15,-0.51,-0.61,0.8268497331323136,0.5039638215133626,-0.26070855701665296,0.5304058018268174,-0.2944958085856929,-0.8357183220551646,0,-12.5,0,0,0,0,1300,1297,1272,1500,1500,1500
1747551063.5022905,0.15,-0.51,-0.61,0.8268497331323136,0.5039638215133626,-0.26070855701665296,0.5304058018268174,-0.2944958085856929,-0.8357183220551646,0,-12.5,0,0,0,0,1260,1257,1272,1500,1500,1500
1747551063.6023996,-0.19,-0.39,-0.13,0.6566801310628665,0.7515824091400581,-0.14726215563702155,0.6446980791543859,-0.20357605320933547,-0.805750723108137,0,-12.5,0,0,0,0,1220,1222,1272,1500,1500,1500
1747551063.7023494,-0.32,-0.67,-0.25,0.2923426497090502,0.9413869652944415,-0.006544984694978736,0.7034527540238701,-0.09509640114540938,-0.7321509599686004,0,-12.5,0,0,0,0,1217,1222,1272,1500,1500,1500
1747551063.8025956,-0.32,-0.67,-0.25,0.2923426497090502,0.9413869652944415,-0.006544984694978736,0.7034527540238701,-0.09509640114540938,-0.7321509599686004,0,-12.5,0,0,0,0,1217,1222,1272,1500,1500,1500
1747551063.8858397,0.26,-0.15,-0.12,0.12871803233458182,1.155189798663747,0.06435901616729091,0.7308838706325121,0.023300334553319143,-0.617433721863923,0,-12.5,0,0,0,0,1217,1222,1272,1500,1500,1500
1747551063.9857612,0.26,-0.15,-0.12,0.12871803233458182,1.155189798663747,0.06435901616729091,0.7308838706325121,0.023300334553319143,-0.617433721863923,0,-8.541315,0,0,0,0,1257,1262,1312,1500,1500,1500
1747551064.0857728,0.8200000000000001,-0.2,0.52,0.11780972450961724,0.815941425307349,0.3272492347489368,0.7613785713072448,0.1248726345836783,-0.4916706638450212,0,0,0,0,0,0,1297,1302,1352,1500,1500,1500
1747551064.1857889,0.72,-0.91,0.38,0.007635815477475192,0.5159629601208237,0.5301437602932776,0.7814875584195297,0.1454725239075766,-0.3751380182413225,0,0,0,0,0,0,1337,1342,1392,1500,1500,1500
1747551064.2856412,0.72,-0.91,0.38,0.007635815477475192,0.5159629601208237,0.5301437602932776,0.7814875584195297,0.1454725239075766,-0.3751380182413225,0,0,0,0,0,0,1377,1382,1432,1500,1500,1500
1747551064.3687594,1.08,-0.85,0.36,0.04690572364734761,0.2585268954516601,0.5650503453331642,0.7975109593636266,0.12576475973746,-0.2802015603185158,0,0,0,0,0,0,1417,1422,1472,1500,1500,1500
1747551064.4686592,1.08,-0.85,0.36,0.04690572364734761,0.2585268954516601,0.5650503453331642,0.7975109593636266,0.12576475973746,-0.2802015603185158,0,0,0,0,0,0,1457,1462,1500,1500,1500,1500
1747551064.5693765,1.42,-0.63,-0.09,0.08072147790473774,0.16144295580947549,0.5661411761156606,0.7946229922455755,0.06368518456503393,-0.19622814594960789,0,0,0,0,0,0,1497,1500,1500,1500,1500,1500
1747551064.6524758,0.54,-0.62,-0.21,0.20507618710933373,0.05126904677733343,0.4232423436086249,0.8070733950573873,0.007540252729674267,-0.1386575531703298,0,0,0,0,0,0,1500,1500,1500,1500,1500,1500
1747551064.7517524,0.54,-0.62,-0.21,0.20507618710933373,0.05126904677733343,0.4232423436086249,0.8070733950573873,0.007540252729674267,-0.1386575531703298,0,0,0,0,0,-0.57863,1460,1540,1500,1500,1500,1500
1747551064.8520985,0.32,-0.59,-0.08,0.35997415822383044,-0.017453292519943295,0.36979163526629855,0.8376551348441678,-0.05645789935048889,-0.09492439008642208,0,0,0,0,0,-0.7,1420,1580,1500,1500,1500,1500
1747551064.9520428,0.5700000000000001,-0.38,-0.41000000000000003,0.46796640569097964,-0.07417649320975901,0.3196134192714616,0.8896073386895418,-0.1100826191064243,-0.06672934928724547,0,0,0,0,0,-0.7,1380,1620,1500,1500,1500,1500
1747551065.0518663,0.5700000000000001,-0.38,-0.41000000000000003,0.46796640569097964,-0.07417649320975901,0.3196134192714616,0.8896073386895418,-0.1100826191064243,-0.06672934928724547,0,0,0,0,0,-0.7,1340,1660,1500,1500,1500,1500
1747551065.136877,0.5,-0.27,-0.22,0.5159629601208237,-0.19198621771937624,0.022907446432425576,0.9675142314437216,-0.15164586427286272,-0.06472645667311926,0,0,0,0,0,-0.7,1309,1666,1500,1500,1500,1500
1747551065.2355711,0.5,-0.27,-0.22,0.5159629601208237,-0.19198621771937624,0.022907446432425576,0.9675142314437216,-0.15164586427286272,-0.06472645667311926,0,0,0,0,0,-0.7,1309,1666,1500,1500,1500,1500
1747551065.334948,0.4,0.11,-0.6900000000000001,0.35015668118136234,-0.21707532571679475,-0.6523168079328807,1.0445999230780412,-0.1364383082296888,-0.1169904775611951,0,0,0,0,0,-0.7,1309,1666,1500,1500,1500,1500
1747551065.4151423,0.09,-0.46,0.4,0.1189005552921137,-0.19962203319685143,-1.0319259202416473,1.087172894281701,-0.034460823220321096,-0.20567024053043378,0,0,0,0,0,-0.7,1309,1666,1500,1500,1500,1500
1747551065.5190063,0.09,-0.46,0.4,0.1189005552921137,-0.19962203319685143,-1.0319259202416473,1.087172894281701,-0.034460823220321096,-0.20567024053043378,0,0,0,0,0,-0.7,1309,1666,1500,1500,1500,1500
1747551065.6013181,0.34,-0.5,-0.39,-0.0545415391248228,-0.21271200258680892,-1.0537425358915764,1.0889776378722,0.09392212732454706,-0.31032067692075493,0,0,0,0,0,-0.7,1309,1666,1500,1500,1500,1500
1747551065.701702,0.34,-0.5,-0.39,-0.0545415391248228,-0.21271200258680892,-1.0537425358915764,1.0889776378722,0.09392212732454706,-0.31032067692075493,0,0,0,0,0,-0.7,1309,1666,1500,1500,1500,1500
1747551065.8017943,0.27,-0.37,-0.2,-0.09817477042468103,-0.14289883250703572,-0.7995789635699022,1.06574975599108,0.19899566324266482,-0.3963049074113372,0,0,0,0,0,-0.7,1309,1666,1500,1500,1500,1500
1747551065.884928,0.58,-0.28,0.04,-0.10144726277217041,-0.09817477042468103,-0.6370451769779303,1.0314419236953905,0.28376994271444717,-0.46800257446912513,0,0,0,0,0,-0.7,1309,1666,1500,1500,1500,1500
1747551065.9848382,0.58,-0.28,0.04,-0.10144726277217041,-0.09817477042468103,-0.6370451769779303,1.0314419236953905,0.28376994271444717,-0.46800257446912513,0,-0.194868,0,0,0,-0.57863,1325,1644,1500,1500,1500,1500
1747551066.0848923,0.66,-0.24,0.07,-0.08290313946973066,-0.06435901616729091,-0.5639595145506677,1.001660266643286,0.34420163112279734,-0.5261427032897462,0,0,0,0,0,0,1365,1604,1500,1500,1500,1500
1747551066.1860895,0.66,-0.24,0.07,-0.08290313946973066,-0.06435901616729091,-0.5639595145506677,1.001660266643286,0.34420163112279734,-0.5261427032897462,0,-4.937296,0,0,0,0,1344,1564,1460,1500,1500,1500
1747551066.2859542,0.75,-0.27,-0.02,-0.07744898555724837,-0.06435901616729091,-0.48978302134090873,0.9677342196119215,0.4045541534910967,-0.5835098745485688,0,-12.5,0,0,0,0,1304,1524,1420,1500,1500,1500
1747551066.369374,0.84,0.0,-0.43,-0.11235557059713497,-0.11780972450961724,-0.41233403578366035,0.9343484255688963,0.4358512697214688,-0.6361559798432338,0,-12.5,0,0,0,0,1264,1484,1380,1500,1500,1500
1747551066.4685545,0.84,0.0,-0.43,-0.11235557059713497,-0.11780972450961724,-0.41233403578366035,0.9343484255688963,0.4358512697214688,-0.6361559798432338,0,-12.5,0,0,0,0,1224,1444,1340,1500,1500,1500
1747551066.5688853,0.6,0.1,0.08,-0.1341721862470641,-0.09599310885968812,-0.4505131131710363,0.8903856121697031,0.46994434285360426,-0.6950134180679763,0,-12.5,0,0,0,0,1217,1404,1300,1500,1500,1500
1747551066.652336,0.6,0.1,0.08,-0.1341721862470641,-0.09599310885968812,-0.4505131131710363,0.8903856121697031,0.46994434285360426,-0.6950134180679763,0,-12.5,0,0,0,0,1217,1364,1272,1500,1500,1500
1747551066.7522457,-0.01,-0.15,-0.11,-0.16907877128695067,-0.21162117180431245,-0.48978302134090873,0.8338803139834816,0.5128344287732631,-0.7661345388917465,0,-12.5,0,0,0,0,1217,1324,1272,1500,1500,1500
1747551066.85225,0.17,0.11,-0.62,-0.10690141668465268,-0.6894050545377601,-0.3883357585687383,0.7542868899839227,0.5119990230667482,-0.8781116169613591,0,-12.5,0,0,0,0,1217,1284,1272,1500,1500,1500
1747551066.9522476,0.17,0.11,-0.62,-0.10690141668465268,-0.6894050545377601,-0.3883357585687383,0.7542868899839227,0.5119990230667482,-0.8781116169613591,0,-12.5,0,0,0,0,1217,1244,1272,1500,1500,1500
1747551067.0530117,0.49,0.27,-0.54,-0.019634954084936207,-0.9828385350293068,-0.2912518189265537,0.6849280621567839,0.44845678857667254,-1.011579076730456,0,-12.5,0,0,0,0,1217,1222,1272,1500,1500,1500
1747551067.1357806,0.88,-0.39,-0.84,0.025089107997418487,-0.8333947178272924,-0.24870941840919197,0.6358321781854982,0.3538445181318285,-1.1380502984208518,0,-12.5,0,0,0,0,1217,1222,1272,1500,1500,1500
1747551067.2354448,0.88,-0.39,-0.84,0.025089107997418487,-0.8333947178272924,-0.24870941840919197,0.6358321781854982,0.3538445181318285,-1.1380502984208518,0,-12.5,0,0,0,0,1217,1222,1272,1500,1500,1500
1747551067.3355362,1.55,0.04,-0.31,0.08072147790473774,-0.5421428989007386,-0.210530341021816,0.6155977130069319,0.27236698096430584,-1.2312116047659014,0,-12.5,0,0,0,0,1217,1222,1272,1500,1500,1500
1747551067.4355052,0.49,-0.08,0.03,0.10035643198967395,-0.20507618710933373,-0.26070855701665296,0.6179513444441505,0.23785175738698863,-1.28789148136675,0,-12.5,0,0,0,0,1217,1222,1272,1500,1500,1500
1747551067.5357707,0.49,-0.08,0.03,0.10035643198967395,-0.20507618710933373,-0.26070855701665296,0.6179513444441505,0.23785175738698863,-1.28789148136675,0,-12.5,0,0,0,0,1217,1222,1272,1500,1500,1500
1747551067.6189768,0.37,0.24,0.06,0.09272061651219876,-0.01090830782496456,-0.2378011105842274,0.6327066945099702,0.23674443037964685,-1.328363436839464,0,-12.5,0,0,0,0,1217,1222,1272,1500,1500,1500
1747551067.7199452,0.37,0.24,0.06,0.09272061651219876,-0.01090830782496456,-0.2378011105842274,0.6327066945099702,0.23674443037964685,-1.328363436839464,0,-12.5,0,0,0,0,1217,1222,1272,1500,1500,1500
1747551067.8210676,1.1400000000000001,0.31,-0.19,0.07635815477475191,0.07417649320975901,-0.2007128639793479,0.6443376173498997,0.251593752885584,-1.34932079734063,0,-12.5,0,0,0,0,1217,1222,1272,1500,1500,1500
1747551067.919189,0.2,0.11,0.01,0.10690141668465268,0.06326818538479445,-0.21598449493429828,0.6546341490819574,0.2772747258188419,-1.3694851330025821,0,-12.5,0,0,0,0,1217,1222,1272,1500,1500,1500
1747551068.0201893,0.2,0.11,0.01,0.10690141668465268,0.06326818538479445,-0.21598449493429828,0.6546341490819574,0.2772747258188419,-1.3694851330025821,0,-12.5,0,0,0,0,1217,1222,1272,1500,1500,1500
1747551068.1033542,1.24,0.12,-0.58,0.06435901616729091,-0.022907446432425576,-0.17453292519943295,0.6616461064325526,0.3016176046194577,-1.3898918736859025,0,-12.5,0,0,0,0,1217,1222,1272,1500,1500,1500
1747551068.2044609,1.24,0.12,-0.58,0.06435901616729091,-0.022907446432425576,-0.17453292519943295,0.6616461064325526,0.3016176046194577,-1.3898918736859025,0,-12.5,0,0,0,0,1217,1222,1272,1500,1500,1500
1747551068.3034966,0.52,0.13,-0.16,0.01090830782496456,-0.16035212502697901,-0.15926129424448257,0.6592960777046095,0.3110545740236321,-1.4184345238859808,0,-12.5,0,0,0,0,1217,1222,1272,1500,1500,1500
1747551068.38523,0.93,-0.17,-0.33,0.026179938779914945,-0.1930770485018727,-0.13199052468207118,0.6512160445206892,0.3016964374947404,-1.4526372430071557,0,-12.5,0,0,0,0,1217,1222,1272,1500,1500,1500
1747551068.4855707,0.93,-0.17,-0.33,0.026179938779914945,-0.1930770485018727,-0.13199052468207118,0.6512160445206892,0.3016964374947404,-1.4526372430071557,0,-12.5,0,0,0,0,1217,1222,1272,1500,1500,1500
1747551068.5854237,0.8200000000000001,-0.34,0.12,-0.015271630954950384,-0.1930770485018727,-0.16144295580947549,0.6446935036280814,0.2863810927152394,-1.4897393228199347,0,-12.5,0,0,0,0,1217,1222,1272,1500,1500,1500
1747551068.6855133,0.8200000000000001,-0.34,0.12,-0.015271630954950384,-0.1930770485018727,-0.16144295580947549,0.6446935036280814,0.2863810927152394,-1.4897393228199347,0,-12.5,0,0,0,0,1217,1222,1272,1500,1500,1500
1747551068.7856324,0.51,-0.4,0.16,-0.013089969389957472,-0.11126473981463851,-0.15271630954950383,0.6343639393406408,0.2826288433744496,-1.522620504991012,0,-12.5,0,0,0,0,1217,1222,1272,1500,1500,1500
1747551068.8689942,2.02,0.32,-1.08,0.044724062082354694,-0.07635815477475191,-0.136353847812057,0.6267108173938966,0.2857816956301411,-1.5535056869904713,0,-12.5,0,0,0,0,1217,1222,1272,1500,1500,1500
1747551068.9693744,2.02,0.32,-1.08,0.044724062082354694,-0.07635815477475191,-0.136353847812057,0.6267108173938966,0.2857816956301411,-1.5535056869904713,0,-12.5,0,0,0,0,1217,1222,1272,1500,1500,1500
1747551069.0695481,0.6,0.0,0.19,0.07308566242726255,-0.08508480103472356,-0.08835729338221293,0.6283471510190062,0.28329426723366513,-1.5786533558286262,0,-12.5,0,0,0,0,1217,1222,1272,1500,1500,1500
1747551069.1520236,0.6,0.0,0.19,0.07308566242726255,-0.08508480103472356,-0.08835729338221293,0.6283471510190062,0.28329426723366513,-1.5786533558286262,0,-12.5,0,0,0,0,1217,1222,1272,1500,1500,1500
1747551069.251501,0.8200000000000001,0.11,-0.39,0.0545415391248228,-0.011999138607461015,-0.05235987755982989,0.051286186557973075,-1.3114138793492258,2.5690209661581203,0,-12.5,0,0,0,0,1217,1222,1272,1500,1500,1500
1747551069.3520496,1.09,-0.18,-0.17,-0.016362461737446838,-0.006544984694978736,-0.07308566242726255,0.6432462159037213,0.25317059922704405,-1.5949881482069914,0,-12.5,0,0,0,0,1217,1222,1272,1500,1500,1500
1747551069.4517462,1.09,-0.18,-0.17,-0.016362461737446838,-0.006544984694978736,-0.07308566242726255,0.6432462159037213,0.25317059922704405,-1.5949881482069914,0,-12.5,0,0,0,0,1217,1222,1272,1500,1500,1500
1747551069.5527709,1.32,-0.08,-0.48,-0.025089107997418487,0.11126473981463851,-0.03599741582238305,0.6405425963486883,0.2586206120146747,-1.5975133586427732,0,-6.319686,0,0,0,0,1257,1262,1312,1500,1500,1500
1747551069.6358628,1.02,-0.14,-0.07,0.003272492347489368,0.14835298641951802,-0.08399397025222712,0.6435143376958314,0.2804444227740211,-1.5904012445301268,0,0,0,0,0,0,1297,1302,1352,1500,1500,1500
1747551069.7356422,1.02,-0.14,-0.07,0.003272492347489368,0.14835298641951802,-0.08399397025222712,0.6435143376958314,0.2804444227740211,-1.5904012445301268,0,0,0,0,0,0,1337,1342,1392,1500,1500,1500
1747551069.8356874,1.28,-0.17,-0.34,0.04908738521234052,0.12108221685710661,0.07635815477475191,0.6501198794041745,0.29304721810896334,-1.5777777697048228,0,0,0,0,0,0,1377,1382,1432,1500,1500,1500
1747551069.9322016,1.3800000000000001,-0.26,-0.23,0.09708393964218458,0.044724062082354694,0.15926129424448257,0.6689871939036179,0.27496047289353953,-1.5549500955537143,0,0,0,0,0,0,1417,1422,1472,1500,1500,1500
1747551070.0347543,1.3800000000000001,-0.26,-0.23,0.09708393964218458,0.044724062082354694,0.15926129424448257,0.6689871939036179,0.27496047289353953,-1.5549500955537143,0,0,0,0,0,0,1457,1462,1500,1500,1500,1500
1747551070.1186106,1.01,-0.28,-0.18,0.21925698728178766,0.037088246604879506,0.24870941840919197,0.6997002591225369,0.23393873944935695,-1.5271326168102455,0,0,0,0,0,0,1497,1500,1500,1500,1500,1500
1747551070.2198372,1.01,-0.28,-0.18,0.21925698728178766,0.037088246604879506,0.24870941840919197,0.6997002591225369,0.23393873944935695,-1.5271326168102455,0,0,-1.091331,0,0,0,1500,1500,1500,1500,1540,1460
1747551070.318833,0.61,-0.06,0.08,0.29888763440402893,-0.018544123302439753,0.30870511144649704,0.741770240464386,0.190841291252546,-1.4958665989019768,0,0,-7.345201,0,0,0,1460,1460,1540,1500,1580,1420
1747551070.4017298,0.51,-0.11,0.1,0.3490658503988659,-0.07417649320975901,0.3370667117914049,0.7943544239197958,0.13746968610162213,-1.4654858557615922,0,0,-7.5,0,0,0,1456,1456,1551,1500,1620,1380
1747551070.5030224,0.51,-0.11,0.1,0.3490658503988659,-0.07417649320975901,0.3370667117914049,0.7943544239197958,0.13746968610162213,-1.4654858557615922,0,0,-7.5,0,0,0,1456,1456,1551,1500,1660,1340
1747551070.6020954,0.5700000000000001,-0.27,0.24,0.40251655874119224,-0.05672320068981571,0.2977968036215325,0.8535218490517616,0.09064568667142074,-1.4399416804830574,0,0,-7.5,0,0,0,1456,1456,1551,1500,1700,1300
1747551070.702269,0.5700000000000001,-0.27,0.24,0.40251655874119224,-0.05672320068981571,0.2977968036215325,0.8535218490517616,0.09064568667142074,-1.4399416804830574,0,0,-7.5,0,0,0,1456,1456,1551,1500,1716,1260
1747551070.8022912,0.72,-0.19,-0.5,0.9435686268594344,0.04690572364734761,0.24434609527920614,0.9345773498709042,0.056356275715754446,-1.4144159883562837,0,0,-7.5,0,0,0,1456,1456,1551,1500,1716,1256
1747551070.8854887,0.25,-0.24,0.13,1.7082410053894501,0.025089107997418487,0.17998707911191522,1.1484069783884403,0.03128369781342273,-1.3914731546696972,0,0,-7.5,0,0,0,1456,1456,1551,1500,1716,1256
1747551070.9855206,0.25,-0.24,0.13,1.7082410053894501,0.025089107997418487,0.17998707911191522,1.1484069783884403,0.03128369781342273,-1.3914731546696972,0,0,-7.5,0,0,0,1456,1456,1551,1500,1716,1256
1747551071.0851507,0.34,-0.2,0.07,2.109666733348146,0.04908738521234052,0.19416787928436915,1.4501281316101364,0.008374848513132737,-1.380730001610114,0,0,-4.589784,0,0,0,1496,1496,1544,1500,1676,1296
1747551071.16912,0.34,-0.2,0.07,2.109666733348146,0.04908738521234052,0.19416787928436915,1.4501281316101364,0.008374848513132737,-1.380730001610114,0,0,0,0,0,0,1500,1500,1504,1500,1636,1336
1747551071.2679946,1.0,0.34,0.06,2.107485071783153,-0.03381575425739013,0.24652775684419906,1.7606730147219531,-0.0264338788948596,-1.3797999337175035,0,0,0,0,0,0,1500,1500,1500,1500,1596,1376
1747551071.352331,0.51,0.56,0.38,1.595885434792315,-0.022907446432425576,0.15162547876700738,2.0517896874070733,-0.05367623219569171,-1.3927576804632715,0,0,0,0,0,0,1500,1500,1500,1500,1556,1416
1747551071.4513283,0.51,0.56,0.38,1.595885434792315,-0.022907446432425576,0.15162547876700738,2.0517896874070733,-0.05367623219569171,-1.3927576804632715,0,0,0,0,0,0,1500,1500,1500,1500,1516,1456
1747551071.5517647,0.43,0.54,0.6900000000000001,0.8410305333047675,0.02181661564992912,0.06654067773228381,2.229528762563284,-0.0645208071023649,-1.3986737371232132,0,0,0,0,0,0,1500,1500,1500,1500,1500,1496
1747551071.635807,0.43,0.54,0.6900000000000001,0.8410305333047675,0.02181661564992912,0.06654067773228381,2.229528762563284,-0.0645208071023649,-1.3986737371232132,0,0,0,0,0,0,1500,1500,1500,1500,1500,1500
1747551071.7358127,0.46,0.33,0.51,0.1712604328519436,0.07635815477475191,0.0272707695624114,2.2801673098981396,-0.08367676665788489,-1.3961933589848563,0,0,0,0,0,0,1500,1500,1500,1500,1500,1500
1747551071.8357015,0.28,0.1,0.29,-0.15817046346198613,0.10362892433716332,0.04036073895236887,2.2638322119109757,-0.10700245162044253,-1.3876566917612623,0,0,0,0,0,0,1500,1500,1500,1500,1500,1500
1747551071.935267,0.28,0.1,0.29,-0.15817046346198613,0.10362892433716332,0.04036073895236887,2.2638322119109757,-0.10700245162044253,-1.3876566917612623,0,0,0,0,0,0,1500,1500,1500,1500,1500,1500
1747551072.0354474,0.16,-0.05,0.19,-0.3817907738737596,0.13199052468207118,0.12544553998709243,2.215880621739561,-0.13255318416671685,-1.200252531681217,0,0,0,0,0,0,1500,1500,1500,1500,1500,1500
1747551072.1181796,0.1,-0.12,0.3,-0.49632800603588745,0.1341721862470641,0.20180369476184434,2.1495384438823417,-0.16534947484549753,-1.1930486377412077,0,0,0,0,-0.219013,0,1500,1500,1500,1500,1460,1460
1747551072.2178435,0.1,-0.12,0.3,-0.49632800603588745,0.1341721862470641,0.20180369476184434,2.1495384438823417,-0.16534947484549753,-1.1930486377412077,0,0,0,0,-0.28,0,1500,1500,1500,1500,1420,1420
1747551072.3178465,0.05,-0.14,0.11,-0.5115996369908379,0.15162547876700738,0.21271200258680892,2.069695198473705,-0.2059140412671389,-1.188217998890999,0,0,0,0,-0.28,0,1500,1500,1500,1500,1389,1389
1747551072.4008403,0.05,-0.14,0.11,-0.5115996369908379,0.15162547876700738,0.21271200258680892,2.069695198473705,-0.2059140412671389,-1.188217998890999,0,0,0,0,-0.28,0,1500,1500,1500,1500,1389,1389
1747551072.501733,-0.05,-0.01,0.2,-0.5672320068981571,0.13526301702956053,0.19416787928436915,1.9878687592362128,-0.24470798290165505,-1.1743172629653829,0,0,0,0,-0.28,0,1500,1500,1500,1500,1389,1389
1747551072.6017425,-0.13,-0.1,0.28,-0.8824821030396329,0.13526301702956053,0.2083486794568231,1.8851906990385978,-0.2789191960534498,-1.1643840813100967,0,0,0,0,-0.28,0,1500,1500,1500,1500,1389,1389
1747551072.7010505,-0.13,-0.1,0.28,-0.8824821030396329,0.13526301702956053,0.2083486794568231,1.8851906990385978,-0.2789191960534498,-1.1643840813100967,0,0,0,0,-0.28,0,1500,1500,1500,1500,1389,1389
1747551072.8018599,-0.51,-0.21,0.41000000000000003,-1.1813697374436618,0.11562806294462433,0.19634954084936207,1.7284679168432935,-0.3122267606658488,-1.1418328752437075,0,0,0,0,-0.28,0,1500,1500,1500,1500,1389,1389
1747551072.8849115,-0.51,-0.21,0.41000000000000003,-1.1813697374436618,0.11562806294462433,0.19634954084936207,1.7284679168432935,-0.3122267606658488,-1.1418328752437075,0,0,0,0,-0.28,0,1500,1500,1500,1500,1389,1389
1747551072.984629,-0.12,0.16,0.09,-1.3286318930806833,0.10144726277217041,0.13199052468207118,1.5275624068573852,-0.3385829785268776,-1.116320995656385,0,0,-1.772446,0,-0.28,0,1500,1500,1500,1500,1429,1349
1747551073.0846636,0.47000000000000003,-0.05,-0.41000000000000003,-1.3264502315156905,0.061086523819801536,0.05126904677733343,1.330554960610559,-0.349234154467828,-1.0890997000644478,0,0,-7.43808,0,-0.28,0,1460,1460,1540,1500,1469,1309
1747551073.167419,0.47000000000000003,-0.05,-0.41000000000000003,-1.3264502315156905,0.061086523819801536,0.05126904677733343,1.330554960610559,-0.349234154467828,-1.0890997000644478,0,0,-7.5,0,-0.28,0,1456,1456,1551,1500,1509,1269
1747551073.2681923,0.01,-0.4,-0.25,-1.0962849364089382,0.02181661564992912,-0.03490658503988659,1.1328409504127739,-0.347652133818379,-1.0710514901233912,0,0,-7.5,0,-0.28,0,1456,1456,1551,1500,1549,1229
1747551073.3633187,0.3,-0.07,-0.36,-0.7068583470577035,0.037088246604879506,-0.11017390903214205,1.0077562317327342,-0.33640143681398427,-1.0708498505669948,0,0,-7.5,0,-0.28,0,1456,1456,1551,1500,1589,1216
1747551073.4518812,0.3,-0.07,-0.36,-0.7068583470577035,0.037088246604879506,-0.11017390903214205,1.0077562317327342,-0.33640143681398427,-1.0708498505669948,0,0,-7.5,0,-0.28,0,1456,1456,1551,1500,1629,1216
1747551073.5513449,0.41000000000000003,-0.31,-0.41000000000000003,-0.38724492778624187,0.10144726277217041,-0.1832595714594046,0.9235345662436681,-0.31329525750895604,-1.0756593417003755,0,0,-7.5,0,-0.28,0,1456,1456,1551,1500,1669,1216
1747551073.6347594,0.41000000000000003,-0.31,-0.41000000000000003,-0.38724492778624187,0.10144726277217041,-0.1832595714594046,0.9235345662436681,-0.31329525750895604,-1.0756593417003755,0,0,-7.5,0,-0.28,0,1456,1456,1551,1500,1677,1216
1747551073.735134,-0.13,-0.51,-0.38,0.32288591161895097,0.1090830782496456,-0.22471114119426994,0.9218458833113345,-0.2810757383469466,-1.0825166992856248,0,0,-1.648607,0,-0.28,0,1496,1496,1511,1500,1637,1256
1747551073.829399,0.21,-0.3,0.08,0.9610219193793778,0.05999569303730508,-0.19198621771937624,1.0345219862489807,-0.24604970068935592,-1.0913415433586096,0,0,0,0,-0.28,0,1500,1500,1500,1500,1597,1296
1747551073.917603,0.21,-0.3,0.08,0.9610219193793778,0.05999569303730508,-0.19198621771937624,1.0345219862489807,-0.24604970068935592,-1.0913415433586096,0,0,0,0,-0.28,0,1500,1500,1500,1500,1557,1336
1747551074.0177596,0.24,-0.23,-0.21,0.7864889941799448,0.009817477042468103,-0.10690141668465268,1.1679009194567844,-0.22472216173417983,-1.0966849914912744,0,0,0,0,-0.28,0,1500,1500,1500,1500,1517,1376
1747551074.1019385,0.24,-0.23,-0.21,0.7864889941799448,0.009817477042468103,-0.10690141668465268,1.1679009194567844,-0.22472216173417983,-1.0966849914912744,0,0,0,0,-0.28,0,1500,1500,1500,1500,1477,1389
1747551074.2014098,0.35000000000000003,0.19,0.02,0.45160394395353276,-0.018544123302439753,-0.06326818538479445,1.2640790665673816,-0.21815963745231134,-1.1018670531402712,0,0,0,0,-0.28,0,1500,1500,1500,1500,1437,1389
1747551074.3011508,0.35000000000000003,0.19,0.02,0.45160394395353276,-0.018544123302439753,-0.06326818538479445,1.2640790665673816,-0.21815963745231134,-1.1018670531402712,0,0,0,0,-0.28,0,1500,1500,1500,1500,1397,1389
1747551074.3848164,0.48,-0.02,0.0,0.21162117180431245,0.004363323129985824,-0.07744898555724837,1.3089738403674223,-0.21778432229405886,-1.1047166886743325,0,0,0,0,-0.28,0,1500,1500,1500,1500,1389,1389
1747551074.48346,0.09,-0.13,0.12,0.061086523819801536,0.02181661564992912,-0.0916297857297023,1.3289417930998366,-0.21299618170057666,-1.106778105506236,0,0,0,0,-0.28,0,1500,1500,1500,1500,1389,1389
1747551074.5845487,0.09,-0.13,0.12,0.061086523819801536,0.02181661564992912,-0.0916297857297023,1.3289417930998366,-0.21299618170057666,-1.106778105506236,0,0,0,0,-0.28,0,1500,1500,1500,1500,1389,1389
1747551074.6675863,0.27,0.0,0.19,-0.26070855701665296,0.031634092692397225,-0.07308566242726255,1.3169552665641342,-0.20498608376690625,-1.133771706021749,0,0,0,0,-0.28,0,1500,1500,1500,1500,1389,1389
