time,ay,ax,az,gy,gx,gz,roll,pitch,yaw,cmd_fx,cmd_fy,cmd_fz,cmd_tx,cmd_ty,cmd_tz,pwm_1,pwm_2,pwm_3,pwm_4,pwm_5,pwm_6
1748133178.8031762,0.0,0.0,0.0,0.0,0.0,0.0,0.0,0.0,0.0,0,0,0,0,0,0,1500,1500,1500,1500,1500,1500
1748133178.8964365,-0.11,0.0,-0.45,-0.011999138607461015,0.0,0.00545415391248228,-0.011978709698991704,-0.19817338730485212,0.0045030312774831304,0,0,0,0,0,0,1500,1500,1500,1500,1500,1500
1748133178.9947784,-0.11,0.0,-0.45,-0.011999138607461015,0.0,0.00545415391248228,-0.011978709698991704,-0.19817338730485212,0.0045030312774831304,0,0,0,0,0,0,1500,1500,1500,1500,1500,1500
1748133179.0957012,-0.12,0.0,-0.52,0.001090830782496456,-0.004363323129985824,0.01090830782496456,-0.012647481720927667,-0.1981693520698714,0.005060192562195265,0,0,0,0,0,0,1500,1500,1500,1500,1500,1500
1748133179.179286,-0.12,0.0,-0.52,0.001090830782496456,-0.004363323129985824,0.01090830782496456,-0.012647481720927667,-0.1981693520698714,0.005060192562195265,0,0,0,0,0,0,1500,1500,1500,1500,1500,1500
1748133179.2788255,-0.09,0.0,-0.52,-0.006544984694978736,0.003272492347489368,0.015271630954950384,-0.013129314677693349,-0.19815429786050048,0.007438793937637875,0,0,0,0,0,0,1500,1500,1500,1500,1500,1500
1748133179.379429,-0.04,0.0,-0.16,0.001090830782496456,0.003272492347489368,0.002181661564992912,-0.013512607018194882,-0.19814492794902172,0.008826262743923393,0,0,0,0,0,0,1500,1500,1500,1500,1500,1500
1748133179.4790468,-0.04,0.0,-0.16,0.001090830782496456,0.003272492347489368,0.002181661564992912,-0.013512607018194882,-0.19814492794902172,0.008826262743923393,0,0,0,0,0,0,1500,1500,1500,1500,1500,1500
1748133179.578982,-0.02,-0.04,-0.05,0.002181661564992912,0.0,-0.002181661564992912,-0.013512607018194882,-0.19814492794902172,0.008826262743923393,0,0,0,0,0,0,1500,1500,1500,1500,1500,1500
1748133179.6626954,0.0,-0.04,-0.1,-0.00545415391248228,-0.007635815477475192,0.001090830782496456,-0.013512607018194882,-0.19814492794902172,0.008826262743923393,0,0,0,0,0,0,1500,1500,1500,1500,1500,1500
1748133179.7622175,0.0,-0.04,-0.1,-0.00545415391248228,-0.007635815477475192,0.001090830782496456,-0.013512607018194882,-0.19814492794902172,0.008826262743923393,0,0,0,0,0,0,1500,1500,1500,1500,1500,1500
1748133179.8680685,0.01,-0.04,0.0,0.007635815477475192,-0.004363323129985824,-0.003272492347489368,-0.013512607018194882,-0.19814492794902172,0.008826262743923393,0,0,0,0,0,0,1500,1500,1500,1500,1500,1500
1748133179.964362,0.01,-0.04,0.0,0.007635815477475192,-0.004363323129985824,-0.003272492347489368,-0.013512607018194882,-0.19814492794902172,0.008826262743923393,0,0,0,0,0,0,1500,1500,1500,1500,1500,1500
1748133180.0639958,0.03,-0.05,-0.03,0.015271630954950384,-0.00545415391248228,-0.00545415391248228,-0.012162025791802446,-0.19814932792958892,0.008814659741094298,0,0,0,0,0,0,1500,1500,1500,1500,1500,1500
1748133180.1475453,0.04,-0.05,-0.01,0.015271630954950384,-0.002181661564992912,-0.009817477042468103,-0.008928382827021764,-0.1981620795359877,0.00837049694791996,0,0,0,0,0,0,1500,1500,1500,1500,1500,1500
1748133180.2483273,0.04,-0.05,-0.01,0.015271630954950384,-0.002181661564992912,-0.009817477042468103,-0.008928382827021764,-0.1981620795359877,0.00837049694791996,0,0,0,0,0,0,1500,1500,1500,1500,1500,1500
1748133180.3483646,0.02,-0.02,-0.08,0.017453292519943295,-0.008726646259971648,-0.011999138607461015,-0.005596267037277733,-0.19817686779264082,0.0069351737850179606,0,0,0,0,0,0,1500,1500,1500,1500,1500,1500
1748133180.4469593,0.02,-0.02,-0.08,0.017453292519943295,-0.008726646259971648,-0.011999138607461015,-0.005596267037277733,-0.19817686779264082,0.0069351737850179606,0,0,0,0,0,0,1500,1500,1500,1500,1500,1500
1748133180.547076,-0.03,-0.05,-0.06,0.017453292519943295,-0.004363323129985824,-0.011999138607461015,-0.0024005146630698714,-0.19819997738133976,0.005636397655045815,0,0,0,0,0,0,1500,1500,1500,1500,1500,1500
1748133180.6329973,-0.01,-0.05,-0.12,0.007635815477475192,-0.00545415391248228,-0.00545415391248228,-9.640544449482529e-05,-0.19820585928654366,0.0046712582104950365,0,0,0,0,0,0,1500,1500,1500,1500,1500,1500
1748133180.731246,-0.01,-0.05,-0.12,0.007635815477475192,-0.00545415391248228,-0.00545415391248228,-9.640544449482529e-05,-0.19820585928654366,0.0046712582104950365,0,0,0,0,0,0,1500,1500,1500,1500,1500,1500
1748133180.8311882,0.0,0.0,0.0,0.003272492347489368,0.001090830782496456,0.00545415391248228,0.00015139441037571776,-0.19820643683833367,0.00464662136071461,0,0,0,0,0,0,1500,1500,1500,1500,1500,1500
1748133180.9151132,0.0,0.0,0.0,0.003272492347489368,0.001090830782496456,0.00545415391248228,0.00015139441037571776,-0.19820643683833367,0.00464662136071461,0,0,0,0,0,0,1500,1500,1500,1500,1500,1500
1748133181.016282,-0.04,-0.07,-0.22,-0.008726646259971648,0.002181661564992912,0.00545415391248228,0.00015139441037571776,-0.19820643683833367,0.00464662136071461,0,0,0,0,0,0,1500,1500,1500,1500,1500,1500
1748133181.100494,-0.04,-0.11,-0.16,-0.008726646259971648,0.006544984694978736,0.004363323129985824,2.7494475621100082e-05,-0.19820614806243028,0.0046589397863117925,0,0,0,0,0,0,1500,1500,1500,1500,1500,1500
1748133181.2006502,-0.04,-0.11,-0.16,-0.008726646259971648,0.006544984694978736,0.004363323129985824,2.7494475621100082e-05,-0.19820614806243028,0.0046589397863117925,0,0,0,0,0,0,1500,1500,1500,1500,1500,1500
1748133181.2989602,-0.02,-0.16,-0.13,-0.008726646259971648,-0.001090830782496456,-0.002181661564992912,-9.640544449482529e-05,-0.19820585928654366,0.0046712582104950365,0,0,0,0,0,0,1500,1500,1500,1500,1500,1500
1748133181.3818371,-0.02,-0.16,-0.13,-0.008726646259971648,-0.001090830782496456,-0.002181661564992912,-9.640544449482529e-05,-0.19820585928654366,0.0046712582104950365,0,0,0,0,0,0,1500,1500,1500,1500,1500,1500
1748133181.4825754,0.02,-0.13,-0.13,-0.002181661564992912,0.003272492347489368,-0.008726646259971648,-9.640544449482529e-05,-0.19820585928654366,0.0046712582104950365,0,0,0,0,0,0,1500,1500,1500,1500,1500,1500
1748133181.5978887,0.01,-0.17,-0.1,-0.00545415391248228,0.0,-0.008726646259971648,-7.176832879288679e-05,-0.19820581369035256,0.004423455820611868,0,0,0,0,0,0,1500,1500,1500,1500,1500,1500
1748133181.6982987,0.01,-0.17,-0.1,-0.00545415391248228,0.0,-0.008726646259971648,-7.176832879288679e-05,-0.19820581369035256,0.004423455820611868,0,0,0,0,0,0,1500,1500,1500,1500,1500,1500
1748133181.7979877,-0.04,-0.2,-0.12,0.009817477042468103,0.003272492347489368,-0.002181661564992912,-5.944977090737638e-05,-0.19820579089225718,0.004299554727098469,0,0,0,0,0,0,1500,1500,1500,1500,1500,1500
1748133181.883122,-0.05,-0.18,-0.14,0.008726646259971648,0.00545415391248228,-0.003272492347489368,0.0005471504684490486,-0.19844265354034143,0.0043616835046416,0,0,0,0,0,0,1500,1500,1500,1500,1500,1500
1748133181.9805133,-0.05,-0.18,-0.14,0.008726646259971648,0.00545415391248228,-0.003272492347489368,0.0005471504684490486,-0.19844265354034143,0.0043616835046416,0,0,0,0,0,0,1500,1500,1500,1500,1500,1500
1748133182.0796683,-0.01,-0.12,-0.05,0.003272492347489368,-0.002181661564992912,-0.002181661564992912,-0.0005799743325636106,-0.19831628688730388,0.00459647039651992,0,0,0,0,0,0,1500,1500,1500,1500,1500,1500
1748133182.163568,-0.01,-0.12,-0.05,0.003272492347489368,-0.002181661564992912,-0.002181661564992912,-0.0005799743325636106,-0.19831628688730388,0.00459647039651992,0,0,0,0,0,0,1500,1500,1500,1500,1500,1500
1748133182.2631614,0.0,-0.12,-0.12,-0.001090830782496456,-0.007635815477475192,-0.00545415391248228,-0.0015837912598545391,-0.19843786571472358,0.0048191648098216446,0,0,0,0,0,0,1500,1500,1500,1500,1500,1500
1748133182.3633792,0.0,-0.12,-0.12,-0.001090830782496456,-0.007635815477475192,-0.00545415391248228,-0.0015837912598545391,-0.19843786571472358,0.0048191648098216446,0,0,0,0,0,0,1500,1500,1500,1500,1500,1500
1748133182.446509,-0.03,-0.14,-0.05,0.001090830782496456,-0.002181661564992912,-0.001090830782496456,-0.0024630575920616474,-0.1983118259629566,0.005029158310772687,0,0,0,0,0,0,1500,1500,1500,1500,1500,1500
1748133182.5464773,0.01,-0.11,-0.02,0.006544984694978736,-0.004363323129985824,-0.003272492347489368,-0.003466548445708953,-0.1983092725225404,0.005251665201583016,0,0,0,0,0,0,1500,1500,1500,1500,1500,1500
1748133182.6463368,0.01,-0.11,-0.02,0.006544984694978736,-0.004363323129985824,-0.003272492347489368,-0.003466548445708953,-0.1983092725225404,0.005251665201583016,0,0,0,0,0,0,1500,1500,1500,1500,1500,1500
1748133182.7464826,-0.01,-0.09,-0.12,0.00545415391248228,-0.004363323129985824,-0.002181661564992912,-0.00433381922670566,-0.19830714465652777,0.005337949053340274,0,0,0,0,0,0,1500,1500,1500,1500,1500,1500
1748133182.839449,0.0,-0.11,-0.16,0.004363323129985824,-0.004363323129985824,-0.008726646259971648,-0.004966060126201595,-0.1984292476402273,0.005523886702311693,0,0,0,0,0,0,1500,1500,1500,1500,1500,1500
1748133182.929142,0.0,-0.11,-0.16,0.004363323129985824,-0.004363323129985824,-0.008726646259971648,-0.004966060126201595,-0.1984292476402273,0.005523886702311693,0,0,0,0,0,0,1500,1500,1500,1500,1500,1500
1748133183.0293415,-0.02,-0.13,-0.13,0.004363323129985824,-0.001090830782496456,-0.009817477042468103,-0.0049171259110395785,-0.19855424158204896,0.005028686249846237,0,0,0,0,0,0,1500,1500,1500,1500,1500,1500
1748133183.1293266,-0.02,-0.13,-0.13,0.004363323129985824,-0.001090830782496456,-0.009817477042468103,-0.0049171259110395785,-0.19855424158204896,0.005028686249846237,0,0,0,0,0,0,1500,1500,1500,1500,1500,1500
1748133183.2287147,0.0,-0.1,-0.12,0.002181661564992912,0.004363323129985824,0.001090830782496456,-0.0049171259110395785,-0.19855424158204896,0.005028686249846237,0,0,0,0,0,0,1500,1500,1500,1500,1500,1500
1748133183.3285818,-0.01,-0.13,-0.06,-0.003272492347489368,-0.003272492347489368,-0.002181661564992912,-0.0049171259110395785,-0.19855424158204896,0.005028686249846237,0,0,0,0,0,0,1500,1500,1500,1500,1500,1500
1748133183.4123256,-0.01,-0.13,-0.06,-0.003272492347489368,-0.003272492347489368,-0.002181661564992912,-0.0049171259110395785,-0.19855424158204896,0.005028686249846237,0,0,0.812693,0,0,0,1500,1500,1500,1500,1460,1540
1748133183.511909,0.0,-0.14,-0.06,-0.003272492347489368,0.001090830782496456,-0.006544984694978736,-0.0049171259110395785,-0.19855424158204896,0.005028686249846237,0,0,3.041796,0,0,0,1500,1500,1500,1500,1420,1580
1748133183.6125538,0.0,-0.14,-0.06,-0.003272492347489368,0.001090830782496456,-0.006544984694978736,-0.0049171259110395785,-0.19855424158204896,0.005028686249846237,0,0,4.837461,0,0,0,1500,1500,1460,1500,1380,1605
1748133183.6962435,-0.01,-0.12,-0.05,-0.011999138607461015,-0.001090830782496456,-0.00545415391248228,-0.005536638654528777,-0.1985528356012207,0.005090396653365954,0,0,5.116099,0,0,0,1500,1500,1460,1500,1375,1608
1748133183.7904928,-0.02,-0.14,-0.07,-0.004363323129985824,0.002181661564992912,-0.003272492347489368,-0.00566054140161647,-0.19855255440510278,0.005102738729432471,0,0,5.147059,0,0,0,1500,1500,1460,1500,1374,1608
1748133183.8962855,-0.02,-0.14,-0.07,-0.004363323129985824,0.002181661564992912,-0.003272492347489368,-0.00566054140161647,-0.19855255440510278,0.005102738729432471,0,0,5.456657,0,0,0,1500,1500,1460,1500,1369,1612
1748133183.9962292,-0.02,-0.12,-0.07,0.0,0.00545415391248228,0.0,-0.00566054140161647,-0.19855255440510278,0.005102738729432471,0,0,5.859133,0,0,0,1500,1500,1460,1500,1363,1617
1748133184.096407,-0.02,-0.12,-0.07,0.0,0.00545415391248228,0.0,-0.00566054140161647,-0.19855255440510278,0.005102738729432471,0,0,6.075851,0,0,0,1500,1500,1460,1500,1360,1620
1748133184.1796339,0.0,-0.16,-0.08,0.001090830782496456,0.006544984694978736,0.001090830782496456,-0.00566054140161647,-0.19855255440510278,0.005102738729432471,0,0,6.230651,0,0,0,1500,1500,1460,1500,1358,1621
1748133184.2804754,0.0,-0.14,-0.05,0.001090830782496456,0.001090830782496456,0.003272492347489368,-0.00566054140161647,-0.19855255440510278,0.005102738729432471,0,0,6.664087,0,0,0,1500,1500,1458,1500,1354,1625
1748133184.3793008,0.0,-0.14,-0.05,0.001090830782496456,0.001090830782496456,0.003272492347489368,-0.00566054140161647,-0.19855255440510278,0.005102738729432471,0,0,7.46904,0,0,0,1538,1538,1456,1500,1343,1634
1748133184.4798605,-0.01,-0.1,-0.11,0.001090830782496456,0.004363323129985824,0.004363323129985824,-0.00566054140161647,-0.19855255440510278,0.005102738729432471,0,0,7.5,0,0,0,1538,1538,1456,1500,1343,1635
1748133184.5793123,-0.01,-0.1,-0.14,-0.001090830782496456,0.0,0.001090830782496456,-0.00566054140161647,-0.19855255440510278,0.005102738729432471,0,0,7.5,0,0,0,1538,1538,1456,1500,1343,1635
1748133184.66335,-0.01,-0.1,-0.14,-0.001090830782496456,0.0,0.001090830782496456,-0.00566054140161647,-0.19855255440510278,0.005102738729432471,0,0,2.856037,0,0,0,1500,1500,1496,1500,1383,1595
1748133184.7643452,0.01,-0.12,-0.16,-0.001090830782496456,-0.001090830782496456,-0.002181661564992912,-0.00566054140161647,-0.19855255440510278,0.005102738729432471,0,0,0,0,0,0,1500,1500,1500,1500,1423,1555
1748133184.8648772,0.01,-0.12,-0.16,-0.001090830782496456,-0.001090830782496456,-0.002181661564992912,-0.00566054140161647,-0.19855255440510278,0.005102738729432471,0,0,2.51548,0,0,0,1500,1500,1500,1500,1414,1576
1748133184.9629543,0.0,-0.15,-0.13,-0.007635815477475192,-0.002181661564992912,-0.006544984694978736,-0.00566054140161647,-0.19855255440510278,0.005102738729432471,0,0,7.5,0,0,0,1538,1538,1460,1500,1374,1616
1748133185.0569594,-0.02,-0.13,-0.15,-0.006544984694978736,0.00545415391248228,-0.006544984694978736,-0.0059083471089458025,-0.19855199201291465,0.005127422876898002,0,0,7.5,0,0,0,1538,1538,1456,1500,1343,1635
1748133185.1464968,-0.02,-0.13,-0.15,-0.006544984694978736,0.00545415391248228,-0.006544984694978736,-0.0059083471089458025,-0.19855199201291465,0.005127422876898002,0,0,7.5,0,0,0,1538,1538,1456,1500,1343,1635
1748133185.246603,-0.02,-0.17,-0.11,0.006544984694978736,0.002181661564992912,0.006544984694978736,-0.0059083471089458025,-0.19855199201291465,0.005127422876898002,0,0,7.283282,0,0,0,1538,1538,1457,1500,1345,1632
1748133185.3455129,-0.02,-0.17,-0.11,0.006544984694978736,0.002181661564992912,0.006544984694978736,-0.0059083471089458025,-0.19855199201291465,0.005127422876898002,0,0,0,0,0,0,1500,1500,1497,1500,1385,1592
1748133185.4291968,-0.03,-0.2,-0.12,0.01090830782496456,0.004363323129985824,0.009817477042468103,-0.0051896149631624556,-0.19855310159756312,0.005301175429153454,0,0,0,0,0,0,1500,1500,1500,1500,1425,1552
1748133185.52838,-0.03,-0.2,-0.12,0.01090830782496456,0.004363323129985824,0.009817477042468103,-0.0051896149631624556,-0.19855310159756312,0.005301175429153454,0,0,0,0,0,0,1500,1500,1500,1500,1465,1512
1748133185.6289837,0.0,-0.18,-0.03,0.013089969389957472,-0.004363323129985824,0.003272492347489368,-0.0032195239496966934,-0.19855767673688077,0.005227604941757439,0,0,0,0,0,0,1500,1500,1500,1500,1500,1500
1748133185.7121785,0.02,-0.21,-0.04,0.00545415391248228,-0.00545415391248228,-0.007635815477475192,-0.002984062758659383,-0.19855813273106349,0.005326823605032726,0,0,0,0,0,0,1500,1500,1500,1500,1500,1500
1748133185.8145025,0.02,-0.21,-0.04,0.00545415391248228,-0.00545415391248228,-0.007635815477475192,-0.002984062758659383,-0.19855813273106349,0.005326823605032726,0,0,0,0,0,0,1500,1500,1500,1500,1500,1500
1748133185.89628,0.0,-0.19,-0.12,0.006544984694978736,0.002181661564992912,-0.007635815477475192,-0.002984062758659383,-0.19855813273106349,0.005326823605032726,0,0,0,0,0,0,1500,1500,1500,1500,1500,1500
1748133185.996162,0.0,-0.19,-0.12,0.006544984694978736,0.002181661564992912,-0.007635815477475192,-0.002984062758659383,-0.19855813273106349,0.005326823605032726,0,0,0,0,0,0,1500,1500,1500,1500,1500,1500
1748133186.0961702,0.0,-0.19,-0.05,0.006544984694978736,-0.003272492347489368,-0.004363323129985824,-0.002612357907669346,-0.19855906751926888,0.005289797370615628,0,0,0,0,0,0,1500,1500,1500,1500,1500,1500
1748133186.1803977,0.01,-0.17,-0.1,0.009817477042468103,-0.004363323129985824,-0.006544984694978736,-0.0010019750314169125,-0.19868702116434883,0.005129507245661143,0,0,0,0,0,0,1500,1500,1500,1500,1500,1500
1748133186.280381,0.01,-0.17,-0.1,0.009817477042468103,-0.004363323129985824,-0.006544984694978736,-0.0010019750314169125,-0.19868702116434883,0.005129507245661143,0,0,0,0,0,0,1500,1500,1500,1500,1500,1500
1748133186.3789172,0.05,-0.14,-0.12,0.013089969389957472,-0.003272492347489368,-0.007635815477475192,0.00010113213926450639,-0.19856596063772416,0.00514217432090059,0,0,0,0,0,0,1500,1500,1500,1500,1500,1500
1748133186.4794843,0.03,-0.13,-0.1,0.019634954084936207,-0.002181661564992912,-0.007635815477475192,0.0020588752124271322,-0.19857138698025695,0.005192507102088661,0,0,0,0,0,0,1500,1500,1500,1500,1500,1500
1748133186.5806599,0.03,-0.13,-0.1,0.019634954084936207,-0.002181661564992912,-0.007635815477475192,0.0020588752124271322,-0.19857138698025695,0.005192507102088661,0,0,0,0,0,0,1500,1500,1500,1500,1500,1500
1748133186.6637075,0.02,-0.1,-0.13,0.019634954084936207,0.001090830782496456,0.003272492347489368,0.005255664938008664,-0.1985807956946582,0.005119418953386958,0,0,0,0,0,0,1500,1500,1500,1500,1500,1500
1748133186.7628155,0.02,-0.1,-0.13,0.019634954084936207,0.001090830782496456,0.003272492347489368,0.005255664938008664,-0.1985807956946582,0.005119418953386958,0,0,0,0,0,0,1500,1500,1500,1500,1500,1500
1748133186.863034,0.07,-0.1,-0.16,0.022907446432425576,0.003272492347489368,0.01090830782496456,0.008303929249157608,-0.1985917244175942,0.00530648156729474,0,0,0,0,0,0,1500,1500,1500,1500,1500,1500
1748133186.9471114,0.07,-0.1,-0.16,0.022907446432425576,0.003272492347489368,0.01090830782496456,0.008303929249157608,-0.1985917244175942,0.00530648156729474,0,0,0,0,0,0,1500,1500,1500,1500,1500,1500
1748133187.047268,0.06,-0.08,-0.13,0.009817477042468103,0.0,0.003272492347489368,0.01074507335928412,-0.19860142196933878,0.005431352162300428,0,0,0,0,0,0,1500,1500,1500,1500,1500,1500
1748133187.130123,0.05,-0.08,-0.14,0.007635815477475192,-0.004363323129985824,0.0,0.011116804680763086,-0.19860263036465187,0.005394325651956168,0,0,0,0,0,0,1500,1500,1500,1500,1500,1500
1748133187.2305565,0.05,-0.08,-0.14,0.007635815477475192,-0.004363323129985824,0.0,0.011116804680763086,-0.19860263036465187,0.005394325651956168,0,0,0,0,0,0,1500,1500,1500,1500,1500,1500
1748133187.3311017,0.08,-0.04,-0.14,0.004363323129985824,-0.001090830782496456,0.00545415391248228,0.011116804680763086,-0.19860263036465187,0.005394325651956168,0,0,0,0,0,0,1500,1500,1500,1500,1500,1500
1748133187.4135861,0.08,-0.04,-0.14,0.004363323129985824,-0.001090830782496456,0.00545415391248228,0.011116804680763086,-0.19860263036465187,0.005394325651956168,0,0,0,0,0,0,1500,1500,1500,1500,1500,1500
1748133187.5136087,0.07,-0.03,-0.17,0.00545415391248228,0.0,0.006544984694978736,0.011116804680763086,-0.19860263036465187,0.005394325651956168,0,0,0,0,0,0,1500,1500,1500,1500,1500,1500
1748133187.6137068,0.06,-0.04,-0.13,-0.001090830782496456,0.007635815477475192,0.007635815477475192,0.011116804680763086,-0.19860263036465187,0.005394325651956168,0,0,0,0,0,0,1500,1500,1500,1500,1500,1500
1748133187.7136204,0.06,-0.04,-0.13,-0.001090830782496456,0.007635815477475192,0.007635815477475192,0.011116804680763086,-0.19860263036465187,0.005394325651956168,0,0,0,0,0,0,1500,1500,1500,1500,1500,1500
1748133187.8127651,0.06,-0.01,-0.16,-0.007635815477475192,0.002181661564992912,0.003272492347489368,0.011116804680763086,-0.19860263036465187,0.005394325651956168,0,0,0,0,0,0,1500,1500,1500,1500,1500,1500
1748133187.8965414,0.06,-0.01,-0.16,-0.007635815477475192,0.002181661564992912,0.003272492347489368,0.011116804680763086,-0.19860263036465187,0.005394325651956168,0,0,0,0,0,0,1500,1500,1500,1500,1500,1500
1748133187.9970655,0.04,0.0,-0.17,-0.017453292519943295,0.006544984694978736,0.002181661564992912,0.010013957250342898,-0.19859835158256964,0.0053815003929064765,0,0,7.159442,0,0,0,1538,1538,1460,1500,1460,1540
1748133188.096949,0.04,0.0,-0.1,-0.022907446432425576,0.004363323129985824,0.014180800172453928,0.006631949404298752,-0.19834122861977949,0.00608704864734233,0,0,7.46904,0,0,0,1538,1538,1456,1500,1420,1580
1748133188.1801078,0.04,0.0,-0.1,-0.022907446432425576,0.004363323129985824,0.014180800172453928,0.006631949404298752,-0.19834122861977949,0.00608704864734233,0,0,7.46904,0,0,0,1538,1538,1456,1500,1380,1620
1748133188.2817001,-0.1,-0.19,0.08,-0.031634092692397225,0.003272492347489368,0.019634954084936207,0.001987229532095396,-0.19820490936598212,0.008389250546309252,0,0,7.46904,0,0,0,1538,1538,1456,1500,1343,1634
1748133188.3804426,-0.1,-0.19,0.08,-0.031634092692397225,0.003272492347489368,0.019634954084936207,0.001987229532095396,-0.19820490936598212,0.008389250546309252,0,0,7.46904,0,0,0,1538,1538,1456,1500,1343,1634
1748133188.4804451,-0.07,-0.5700000000000001,0.8200000000000001,-0.011999138607461015,-0.019634954084936207,0.025089107997418487,-0.00107079316350053,-0.20016362913633162,0.011885473457286008,0,0,7.5,0,0,0,1538,1538,1456,1500,1343,1635
1748133188.5841913,0.33,0.42,0.28,-0.17671458676442586,0.08508480103472356,0.038179077387375956,-0.015795152688323003,-0.1952564422222666,0.017247427314334898,0,0,7.5,0,0,0,1538,1538,1456,1500,1343,1635
1748133188.6807551,0.33,0.42,0.28,-0.17671458676442586,0.08508480103472356,0.038179077387375956,-0.015795152688323003,-0.1952564422222666,0.017247427314334898,0,0,7.5,0,0,0,1538,1538,1456,1500,1343,1635
1748133188.7795835,0.09,0.24,0.0,-0.21380283336930536,0.10690141668465268,0.02399827721492203,-0.04647433879692166,-0.1802226442210658,0.02185494849309313,0,0,7.5,0,0,0,1538,1538,1456,1500,1343,1635
1748133188.8806505,0.04,0.28,0.08,-0.15926129424448257,0.12435470920459599,0.007635815477475192,-0.07482119265899984,-0.16436097815500866,0.023325501446447128,0,0,7.5,0,0,0,1538,1538,1456,1500,1343,1635
1748133188.9801002,0.04,0.28,0.08,-0.15926129424448257,0.12435470920459599,0.007635815477475192,-0.07482119265899984,-0.16436097815500866,0.023325501446447128,0,0,7.5,0,0,0,1538,1538,1456,1500,1343,1635
1748133189.0805573,-0.07,0.16,0.0,-0.09381144729469522,0.14726215563702155,0.019634954084936207,-0.09353381326854579,-0.14396199081086616,0.02365719116434709,0,0,7.5,0,0,0,1538,1538,1456,1500,1343,1635
1748133189.1626737,-0.07,0.2,0.04,-0.05781403147231216,0.18544123302439752,0.008726646259971648,-0.1035136084992647,-0.11856635333939017,0.022802523816026994,0,0,7.5,0,0,0,1538,1538,1456,1500,1343,1635
1748133189.2643466,-0.07,0.2,0.04,-0.05781403147231216,0.18544123302439752,0.008726646259971648,-0.1035136084992647,-0.11856635333939017,0.022802523816026994,0,0,7.5,0,0,0,1538,1538,1456,1500,1343,1635
1748133189.3649564,-0.01,0.17,0.08,-0.04799655442984406,0.20507618710933373,0.009817477042468103,-0.11045043695049889,-0.0895072268764331,0.020248820582898838,0,0,7.5,0,0,0,1538,1538,1456,1500,1343,1635
1748133189.4646094,-0.01,0.17,0.08,-0.04799655442984406,0.20507618710933373,0.009817477042468103,-0.11045043695049889,-0.0895072268764331,0.020248820582898838,0,0,7.5,0,0,0,1538,1538,1456,1500,1343,1635
1748133189.5641873,0.02,0.04,0.11,-0.022907446432425576,0.23561944901923448,-0.002181661564992912,-0.11410291122589467,-0.0561662758559644,0.016541562162862376,0,0,7.5,0,0,0,1538,1538,1456,1500,1343,1635
1748133189.6462142,0.11,0.03,0.11,-0.016362461737446838,0.2683443724941282,-0.014180800172453928,-0.11506553134465475,-0.020961098457703605,0.011845793037876532,0,0,7.5,0,0,0,1538,1538,1456,1500,1343,1635
1748133189.7464426,0.11,0.03,0.11,-0.016362461737446838,0.2683443724941282,-0.014180800172453928,-0.11506553134465475,-0.020961098457703605,0.011845793037876532,0,0,7.5,0,0,0,1538,1538,1456,1500,1343,1635
1748133189.8479242,0.21,0.1,0.14,-0.015271630954950384,0.2999784651865254,-0.014180800172453928,-0.11610208127192506,0.0219454945627088,0.005205418122715431,0,0,7.5,0,0,0,1538,1538,1456,1500,1343,1635
1748133189.9474244,0.13,0.2,0.04,0.002181661564992912,0.3327033886614191,-0.028361600344907856,-0.11559951324538047,0.06658128753227073,-0.003364528517618126,0,0,7.5,0,0,0,1538,1538,1456,1500,1343,1635
1748133190.046821,0.13,0.2,0.04,0.002181661564992912,0.3327033886614191,-0.028361600344907856,-0.11559951324538047,0.06658128753227073,-0.003364528517618126,0,0,7.5,0,0,0,1538,1538,1456,1500,1343,1635
1748133190.1464589,-0.08,0.21,0.0,-0.001090830782496456,0.35561083509384467,-0.037088246604879506,-0.11541870315857816,0.11483050784703844,-0.013622433561753296,0,0,7.5,0,0,0,1538,1538,1456,1500,1343,1635
1748133190.2465348,-0.08,0.21,0.0,-0.001090830782496456,0.35561083509384467,-0.037088246604879506,-0.11541870315857816,0.11483050784703844,-0.013622433561753296,0,0,7.5,0,0,0,1538,1538,1456,1500,1343,1635
1748133190.3468425,-0.1,0.13,0.02,0.014180800172453928,0.38069994309126315,-0.028361600344907856,-0.11580280921274397,0.16957143814279863,-0.025437727382913316,0,0,7.5,0,0,0,1538,1538,1456,1500,1343,1635
1748133190.4297402,-0.03,0.1,0.02,0.025089107997418487,0.39924406639370286,-0.039269908169872414,-0.1133145871119611,0.22780832743703425,-0.03722048821704872,0,0,7.5,0,0,0,1538,1538,1456,1500,1343,1635
1748133190.529732,-0.03,0.1,0.02,0.025089107997418487,0.39924406639370286,-0.039269908169872414,-0.1133145871119611,0.22780832743703425,-0.03722048821704872,0,0,7.5,0,0,0,1538,1538,1456,1500,1343,1635
1748133190.6300285,0.07,0.1,0.05,-0.017453292519943295,0.3883357585687383,-0.030543261909900768,-0.11616544652304348,0.28307360629537526,-0.049672104088713066,0,0,7.5,0,0,0,1538,1538,1456,1500,1343,1635
1748133190.7272687,0.0,0.06,0.1,-0.026179938779914945,0.3861540970037454,-0.020725784867432664,-0.12199202571841351,0.3410544491853641,-0.061116329523430706,0,0,5.394737,0,0,0,1500,1500,1460,1500,1370,1611
1748133190.8302958,0.0,0.06,0.1,-0.026179938779914945,0.3861540970037454,-0.020725784867432664,-0.12199202571841351,0.3410544491853641,-0.061116329523430706,0,-4.681267,0,0,0,0,1460,1460,1420,1500,1410,1571
1748133190.9138434,0.04,0.3,-0.09,-0.015271630954950384,0.3785182815262702,-0.025089107997418487,-0.12915423570578682,0.39882142306383506,-0.07206239505692345,0,-12.5,0,0,0,-0.017449,1420,1420,1380,1500,1450,1531
1748133191.0136602,0.04,0.3,-0.09,-0.015271630954950384,0.3785182815262702,-0.025089107997418487,-0.12915423570578682,0.39882142306383506,-0.07206239505692345,0,-12.5,0,0,0,-0.019321,1380,1380,1354,1500,1490,1500
1748133191.1148,0.34,0.0,-0.36,0.04690572364734761,0.36760997370130566,-0.04581489286485115,-0.13217659472667073,0.4526102600599949,-0.08370374415240586,0,-12.5,0,0,0,-0.021289,1340,1340,1354,1500,1500,1500
1748133191.213377,-1.1300000000000001,-1.08,0.51,0.08508480103472356,0.385063266221249,0.07744898555724837,-0.1266875387025195,0.5071807731398383,-0.09453811353639811,0,-12.5,0,0,0,-0.021289,1321,1325,1354,1500,1500,1500
1748133191.3147156,-1.1300000000000001,-1.08,0.51,0.08508480103472356,0.385063266221249,0.07744898555724837,-0.1266875387025195,0.5071807731398383,-0.09453811353639811,0,-12.5,0,0,0,-0.021289,1321,1325,1354,1500,1500,1500
1748133191.396821,-1.31,0.08,-0.03,0.05126904677733343,0.45705809786601503,0.17235126363444003,-0.10343736460287592,0.573975183276101,-0.07248118387942849,0,-12.5,0,0,0,-0.021289,1321,1325,1354,1500,1500,1500
1748133191.4965193,-1.31,0.08,-0.03,0.05126904677733343,0.45705809786601503,0.17235126363444003,-0.10343736460287592,0.573975183276101,-0.07248118387942849,0,-12.5,0,0,0,-0.021289,1321,1325,1354,1500,1500,1500
1748133191.596174,-0.36,0.14,-0.08,-0.05999569303730508,0.3010692959690218,0.14289883250703572,-0.09224472462727525,0.6445793198664408,-0.04911565327589994,0,-12.5,0,0,0,-0.021289,1321,1325,1354,1500,1500,1500
1748133191.6793973,-0.24,0.06,0.09,-0.05781403147231216,0.21162117180431245,0.15162547876700738,-0.08521773897580157,0.6866429021238604,-0.025807325257451247,0,-12.5,0,0,0,-0.021289,1321,1325,1354,1500,1500,1500
1748133191.780626,-0.24,0.06,0.09,-0.05781403147231216,0.21162117180431245,0.15162547876700738,-0.08521773897580157,0.6866429021238604,-0.025807325257451247,0,-12.5,0,0,0,-0.021289,1321,1325,1354,1500,1500,1500
1748133191.8795226,-0.11,0.15,0.15,-0.09817477042468103,0.08290313946973066,0.16907877128695067,-0.0765705439215077,0.7111376053840983,0.005300508484769816,0,-12.5,0,0,0,-0.021289,1321,1325,1354,1500,1500,1500
1748133191.9807124,0.1,0.15,0.04,-0.13962634015954636,-0.05345070834232634,0.19198621771937624,-0.07275564259326107,0.7144426820769818,0.04011604879176676,0,-12.5,0,0,0,-0.021289,1321,1325,1354,1500,1500,1500
1748133192.0792775,0.1,0.15,0.04,-0.13962634015954636,-0.05345070834232634,0.19198621771937624,-0.07275564259326107,0.7144426820769818,0.04011604879176676,0,-10.711402,0,0,0,-0.12963,1325,1354,1366,1500,1500,1500
1748133192.1637871,-0.1,-0.1,0.11,-0.15926129424448257,-0.1559888018969932,0.2378011105842274,-0.06537654811416291,0.6994909656163013,0.08644457365734523,0,-4.808429,0,0,0,-0.557803,1343,1394,1406,1500,1500,1500
1748133192.2642217,-0.1,-0.1,0.11,-0.15926129424448257,-0.1559888018969932,0.2378011105842274,-0.06537654811416291,0.6994909656163013,0.08644457365734523,0,-1.440882,0,0,0,-0.7,1361,1434,1446,1500,1500,1500
1748133192.3641238,0.61,0.34,0.16,-0.17671458676442586,-0.19962203319685143,0.18762289458939044,-0.06832440030747763,0.6729714916136853,0.11129091817432753,0,-0.417013,0,0,0,-0.7,1372,1474,1461,1500,1500,1500
1748133192.4640837,0.72,0.35000000000000003,0.2,-0.16035212502697901,-0.17889624832941878,0.04145156973486533,-0.07251052679098496,0.6428990999144538,0.15451343251481156,0,-0.345023,0,0,0,-0.7,1373,1514,1500,1500,1500,1500
1748133192.563353,0.72,0.35000000000000003,0.2,-0.16035212502697901,-0.17889624832941878,0.04145156973486533,-0.07251052679098496,0.6428990999144538,0.15451343251481156,0,-0.345023,0,0,0,-0.7,1373,1554,1500,1500,1500,1500
1748133192.6474245,0.4,0.28,0.16,-0.10035643198967395,-0.19198621771937624,-0.037088246604879506,-0.08739395138531042,0.6115421012156592,0.1579288697319964,0,-0.345023,0,0,0,-0.7,1373,1594,1500,1500,1500,1500
1748133192.7465582,0.4,0.28,0.16,-0.10035643198967395,-0.19198621771937624,-0.037088246604879506,-0.08739395138531042,0.6115421012156592,0.1579288697319964,0,-0.345023,0,0,0,-0.7,1373,1605,1500,1500,1500,1500
1748133192.848334,0.09,0.1,0.1,-0.019634954084936207,-0.19744037163185854,-0.07526732399225546,-0.09566449051911584,0.5782916659308588,0.15332185783618582,0,-0.345023,0,0,0,-0.7,1373,1605,1500,1500,1500,1500
1748133192.9482896,0.05,0.15,0.2,0.03381575425739013,-0.21489366415180183,-0.16471544815696484,-0.09914475487081517,0.5434704019101911,0.1393748006617168,0,-0.345023,0,0,0,-0.7,1373,1605,1500,1500,1500,1500
1748133193.0469089,0.05,0.15,0.2,0.03381575425739013,-0.21489366415180183,-0.16471544815696484,-0.09914475487081517,0.5434704019101911,0.1393748006617168,0,-0.345023,0,0,0,-0.7,1373,1605,1500,1500,1500,1500
1748133193.1463661,0.19,0.18,0.03,0.10690141668465268,-0.28907015736156083,-0.40578905108868163,-0.10551062374371874,0.497251958205571,0.09622668473212492,0,-0.345023,0,0,0,-0.7,1373,1605,1500,1500,1500,1500
1748133193.246287,0.13,0.22,-0.01,0.20507618710933373,-0.3196134192714616,-0.543233729683235,-0.11190518260638282,0.44405481344977704,0.024597518445711956,0,-0.345023,0,0,0,-0.7,1373,1605,1500,1500,1500,1500
1748133193.3455195,0.13,0.22,-0.01,0.20507618710933373,-0.3196134192714616,-0.543233729683235,-0.11190518260638282,0.44405481344977704,0.024597518445711956,0,-0.345023,0,0,0,-0.7,1373,1605,1500,1500,1500,1500
1748133193.429469,0.07,0.3,-0.01,0.3119776037939864,-0.34470252726888007,-0.6534076387153771,-0.10759762139618421,0.3819548077139134,-0.07050394771876993,0,-0.345023,0,0,0,-0.7,1373,1605,1500,1500,1500,1500
1748133193.5294707,0.07,0.3,-0.01,0.3119776037939864,-0.34470252726888007,-0.6534076387153771,-0.10759762139618421,0.3819548077139134,-0.07050394771876993,0,-0.345023,0,0,0,-0.7,1373,1605,1500,1500,1500,1500
1748133193.6290188,0.0,0.15,0.08,0.43524148221608594,-0.33488505022641196,-0.7068583470577035,-0.08434320413958285,0.3182563450472694,-0.1770619000583047,0,-0.345023,0,0,0,-0.7,1373,1605,1500,1500,1500,1500
1748133193.7132955,-0.15,0.1,0.03,0.49960049838337683,-0.3043417883165112,-0.7286749627076325,-0.045447814417356736,0.2655792984482403,-0.2825208968658962,0,-0.345023,0,0,0,-0.7,1373,1605,1500,1500,1500,1500
1748133193.814781,-0.15,0.1,0.03,0.49960049838337683,-0.3043417883165112,-0.7286749627076325,-0.045447814417356736,0.2655792984482403,-0.2825208968658962,0,0,0,0,0,0,1413,1565,1500,1500,1500,1500
1748133193.8973103,-0.09,0.13,0.0,0.557414529855689,-0.24652775684419906,-0.7548549014875475,0.009550604448722078,0.2220902906727276,-0.40006285589381596,0,0,0,0,0,0,1453,1525,1500,1500,1500,1500
1748133193.9975367,-0.09,0.13,0.0,0.557414529855689,-0.24652775684419906,-0.7548549014875475,0.009550604448722078,0.2220902906727276,-0.40006285589381596,0,0,0,0,0,0,1493,1500,1500,1500,1500,1500
1748133194.09682,-0.28,-0.42,-0.02,0.5966844380255614,-0.21162117180431245,-0.6370451769779303,0.06946449149687173,0.1955145690606754,-0.5113529758354041,0,0,0,0,0,0,1500,1500,1500,1500,1500,1500
1748133194.1796439,-0.2,-0.03,-0.13,0.6992225315802283,-0.20507618710933373,-0.2596177262341565,0.1569797821717431,0.172514538975749,-0.5804883728068987,0,0,0,0,0,0,1500,1500,1500,1500,1500,1500
1748133194.2797096,-0.2,-0.03,-0.13,0.6992225315802283,-0.20507618710933373,-0.2596177262341565,0.1569797821717431,0.172514538975749,-0.5804883728068987,0,0,0,0,0,0,1500,1500,1500,1500,1500,1500
1748133194.3794003,-0.2,0.04,-0.25,0.7275841319251362,-0.20180369476184434,-0.0545415391248228,0.2641484008492554,0.14600084988011217,-0.6089296203331256,0,0,0,0,0,0,1500,1500,1500,1500,1500,1500
1748133194.4772813,-0.24,0.02,-0.28,0.7112216701876893,-0.19525871006686563,0.06435901616729091,0.3683922553938913,0.11776179481718142,-0.6166995870191513,0,0,0,0,0,0,1500,1500,1500,1500,1500,1500
1748133194.579956,-0.24,0.02,-0.28,0.7112216701876893,-0.19525871006686563,0.06435901616729091,0.3683922553938913,0.11776179481718142,-0.6166995870191513,0,0,0,0,0,0,1500,1500,1500,1500,1500,1500
1748133194.6635735,-0.2,-0.03,-0.32,0.6828600698427815,-0.18871372537188688,0.1407171709420428,0.47661367205230604,0.085936034963078,-0.614096768818143,0,0,0,0,0,0,1500,1500,1500,1500,1500,1500
1748133194.7635596,-0.2,-0.03,-0.32,0.6828600698427815,-0.18871372537188688,0.1407171709420428,0.47661367205230604,0.085936034963078,-0.614096768818143,0,0,0,0,0,0,1500,1500,1500,1500,1500,1500
1748133194.8640063,-0.17,-0.09,-0.23,0.6174102228929941,-0.16253378659197193,0.17998707911191522,0.5787711308868447,0.05256283388732054,-0.6057355531770025,0,0,0,0,0,0,1500,1500,1500,1500,1500,1500
1748133194.9641373,-0.16,-0.1,-0.25,0.5345070834232635,-0.14289883250703572,0.18216874067690814,0.6628030742424501,0.021165252399035717,-0.5970279718717271,0,0,0,0,0,0,1500,1500,1500,1500,1500,1500
1748133195.063851,-0.16,-0.1,-0.25,0.5345070834232635,-0.14289883250703572,0.18216874067690814,0.6628030742424501,0.021165252399035717,-0.5970279718717271,0,0,0,0,0,0,1500,1500,1500,1500,1500,1500
1748133195.1631062,-0.15,-0.09,-0.29,0.4232423436086249,-0.11562806294462433,0.16798794050445423,0.7369043376878881,-0.009898071679727734,-0.5889388109396204,0,0,0,0,0,0,1500,1500,1500,1500,1500,1500
1748133195.260362,-0.15,-0.1,-0.29,0.31634092692397225,-0.10253809355466686,0.1461713248545251,0.7910598895944712,-0.035935767244298734,-0.5833181264820173,0,0,0,0,0,0,1500,1500,1500,1500,1500,1500
1748133195.363616,-0.15,-0.1,-0.29,0.31634092692397225,-0.10253809355466686,0.1461713248545251,0.7910598895944712,-0.035935767244298734,-0.5833181264820173,0,0,0,0,0,0,1500,1500,1500,1500,1500,1500
1748133195.462845,-0.11,-0.11,-0.34,0.21598449493429828,-0.07853981633974483,0.1189005552921137,0.8327582774224069,-0.059269052534023044,-0.5792068510393584,0,0,0,0,0,0,1500,1500,1500,1500,1500,1500
1748133195.5631082,-0.11,-0.11,-0.34,0.21598449493429828,-0.07853981633974483,0.1189005552921137,0.8327582774224069,-0.059269052534023044,-0.5792068510393584,0,0,0,0,0,0,1500,1500,1500,1500,1500,1500
1748133195.6462662,-0.12,-0.12,-0.37,0.12217304763960307,-0.05890486225480862,0.09490227807719166,0.8576201418051809,-0.07713780810340648,-0.5765181171429488,0,0,0,0,0,0,1500,1500,1500,1500,1500,1500
1748133195.746815,-0.09,-0.11,-0.35000000000000003,0.03381575425739013,-0.050178215994836975,0.07090400086226964,0.8703369754335202,-0.09161306081074072,-0.5747054833335193,0,0,0,0,0,0,1500,1500,1500,1500,1500,1500
1748133195.8470323,-0.09,-0.11,-0.35000000000000003,0.03381575425739013,-0.050178215994836975,0.07090400086226964,0.8703369754335202,-0.09161306081074072,-0.5747054833335193,0,0,0,0,0,0,1500,1500,1500,1500,1500,1500
1748133195.9311564,-0.1,-0.11,-0.36,-0.04581489286485115,-0.02399827721492203,0.04690572364734761,0.8700461803698217,-0.10127032613438947,-0.5732465624389861,0,0,0,0,0,0,1500,1500,1500,1500,1500,1500
1748133196.031198,-0.1,-0.11,-0.36,-0.04581489286485115,-0.02399827721492203,0.04690572364734761,0.8700461803698217,-0.10127032613438947,-0.5732465624389861,0,0,0,0,0,0,1500,1500,1500,1500,1500,1500
1748133196.1302528,-0.07,-0.19,-0.34,-0.10471975511965978,-0.007635815477475192,0.0272707695624114,0.8596357399239524,-0.10663788051970802,-0.5717623620281999,0,0,0,0,0,0,1500,1500,1500,1500,1500,1500
1748133196.2317808,-0.08,0.16,-0.29,-0.15817046346198613,0.00545415391248228,0.015271630954950384,0.842058257550981,-0.10840735287588636,-0.5698774895489399,0,0,0,0,0,0,1500,1500,1500,1500,1500,1500
1748133196.3313165,-0.08,0.16,-0.29,-0.15817046346198613,0.00545415391248228,0.015271630954950384,0.842058257550981,-0.10840735287588636,-0.5698774895489399,0,0,0,0,0,0,1500,1500,1500,1500,1500,1500
1748133196.4138265,-0.07,0.15,-0.2,-0.19744037163185854,0.030543261909900768,0.006544984694978736,0.8199614585525571,-0.10612672712259251,-0.5678737661402201,0,0,0,0,0,0,1500,1500,1500,1500,1500,1500
1748133196.5106888,-0.06,0.15,-0.19,-0.22580197197676638,0.037088246604879506,0.006544984694978736,0.7931117939946384,-0.10188999637862665,-0.5650240011134643,0,0,0,0,0,0,1500,1500,1500,1500,1500,1500
1748133196.6133738,-0.06,0.15,-0.19,-0.22580197197676638,0.037088246604879506,0.006544984694978736,0.7931117939946384,-0.10188999637862665,-0.5650240011134643,0,0,0,0,0,0,1500,1500,1500,1500,1500,1500
1748133196.6961381,-0.06,0.18,-0.21,-0.24652775684419906,0.04908738521234052,0.01090830782496456,0.76250642182539,-0.09663003693199518,-0.5608380047633763,0,0,0,0,0,0,1500,1500,1500,1500,1500,1500
1748133196.7964015,-0.06,0.18,-0.21,-0.24652775684419906,0.04908738521234052,0.01090830782496456,0.76250642182539,-0.09663003693199518,-0.5608380047633763,0,0,0,0,0,0,1500,1500,1500,1500,1500,1500
1748133196.896263,-0.06,0.16,-0.18,-0.25634523388666713,0.050178215994836975,0.014180800172453928,0.7266753717930118,-0.09111800595075249,-0.554193615492926,0,0,0,0,0,0,1500,1500,1500,1500,1500,1500
1748133196.9963439,-0.04,0.16,-0.18,-0.25634523388666713,0.05890486225480862,0.02399827721492203,0.6893487326101283,-0.08555376432924539,-0.5462830382480687,0,0,0,0,0,0,1500,1500,1500,1500,1500,1500
1748133197.0969007,-0.04,0.16,-0.18,-0.25634523388666713,0.05890486225480862,0.02399827721492203,0.6893487326101283,-0.08555376432924539,-0.5462830382480687,0,0,0,0,0,0,1500,1500,1500,1500,1500,1500
1748133197.1815016,-0.03,0.11,-0.19,-0.24980024919168842,0.05672320068981571,0.030543261909900768,0.652480780448477,-0.08023754398915331,-0.5374287164415248,0,0,0,0,0,0,1500,1500,1500,1500,1500,1500
1748133197.2801082,-0.03,0.11,-0.19,-0.24980024919168842,0.05672320068981571,0.030543261909900768,0.652480780448477,-0.08023754398915331,-0.5374287164415248,0,0,0,0,0,0,1500,1500,1500,1500,1500,1500
1748133197.3810065,-0.02,0.11,-0.17,-0.24216443371421323,0.05781403147231216,0.038179077387375956,0.6163642283586576,-0.07573257121636721,-0.5278251272154156,0,0,0,0,0,0,1500,1500,1500,1500,1500,1500
1748133197.4819393,-0.05,0.1,-0.1,-0.22907446432425577,0.055632369907319255,0.044724062082354694,0.5836349233428185,-0.07195036115421836,-0.5179513080781284,0,0,0,0,0,0,1500,1500,1500,1500,1500,1500
1748133197.5817065,-0.05,0.1,-0.1,-0.22907446432425577,0.055632369907319255,0.044724062082354694,0.5836349233428185,-0.07195036115421836,-0.5179513080781284,0,0,0,0,0,0,1500,1500,1500,1500,1500,1500
1748133197.663046,-0.07,0.17,-0.06,-0.21707532571679475,0.055632369907319255,0.04363323129985824,0.5528507958597624,-0.06794512339092172,-0.5079585803866828,0,0,0,0,0,0,1500,1500,1500,1500,1500,1500
1748133197.762749,-0.07,0.2,-0.1,-0.20289452554434081,0.055632369907319255,0.04690572364734761,0.5221906313126972,-0.06365453036831985,-0.49757009914819583,0,0,0,0,0,0,1500,1500,1500,1500,1500,1500
1748133197.8629305,-0.07,0.2,-0.1,-0.20289452554434081,0.055632369907319255,0.04690572364734761,0.5221906313126972,-0.06365453036831985,-0.49757009914819583,0,0,0,0,0,0,1500,1500,1500,1500,1500,1500
1748133197.9635653,-0.05,0.2,-0.1,-0.18980455615438332,0.05999569303730508,0.04690572364734761,0.49526498812006775,-0.05967034986714514,-0.4876756231831478,0,0,0,0,0,0,1500,1500,1500,1500,1500,1500
1748133198.0638962,-0.05,0.2,-0.1,-0.18980455615438332,0.05999569303730508,0.04690572364734761,0.49526498812006775,-0.05967034986714514,-0.4876756231831478,0,0,0,0,0,0,1500,1500,1500,1500,1500,1500
1748133198.1463108,-0.06,0.2,-0.12,-0.17016960206944712,0.04581489286485115,0.05345070834232634,0.46845566295603897,-0.055508459605590615,-0.477129370161282,0,0,0,0,0,0,1500,1500,1500,1500,1500,1500
1748133198.248068,-0.05,0.15,-0.13,-0.1559888018969932,0.04908738521234052,0.05890486225480862,0.4444505041555235,-0.051592637565089236,-0.46623498339786135,0,0,0,0,0,0,1500,1500,1500,1500,1500,1500
1748133198.3469224,-0.05,0.15,-0.13,-0.1559888018969932,0.04908738521234052,0.05890486225480862,0.4444505041555235,-0.051592637565089236,-0.46623498339786135,0,0,0,0,0,0,1500,1500,1500,1500,1500,1500
1748133198.4296134,-0.04,0.13,-0.11,-0.14180800172453928,0.04145156973486533,0.05999569303730508,0.4248896547900437,-0.04875954912363981,-0.45600126470689195,0,0,0,0,0,0,1500,1500,1500,1500,1500,1500
1748133198.53011,-0.04,0.13,-0.11,-0.14180800172453928,0.04145156973486533,0.05999569303730508,0.4248896547900437,-0.04875954912363981,-0.45600126470689195,0,0,0,0,0,0,1500,1500,1500,1500,1500,1500
1748133198.6306548,-0.03,0.12,-0.08,-0.12435470920459599,0.032724923474893676,0.06435901616729091,0.4061282126502849,-0.04680434126730043,-0.44490727668598795,0,0,0,0,0,0,1500,1500,1500,1500,1500,1500
1748133198.730482,-0.05,0.14,0.0,-0.10253809355466686,0.0272707695624114,0.06763150851478027,0.39005366189748886,-0.04564292606078533,-0.4336306929705977,0,0,0,0,0,0,1500,1500,1500,1500,1500,1500
1748133198.8295672,-0.05,0.14,0.0,-0.10253809355466686,0.0272707695624114,0.06763150851478027,0.39005366189748886,-0.04564292606078533,-0.4336306929705977,0,0,0,0,0,0,1500,1500,1500,1500,1500,1500
1748133198.9131184,-0.05,0.17,0.03,-0.08508480103472356,0.022907446432425576,0.06544984694978735,0.37748622612719995,-0.04551201752505135,-0.4228556893975474,0,0,0,0,0,0,1500,1500,1500,1500,1500,1500
1748133199.0087607,-0.06,0.23,-0.08,-0.07090400086226964,0.014180800172453928,0.07308566242726255,0.36690213479016215,-0.04669999362575291,-0.41176948721166523,0,0,0,0,0,0,1500,1500,1500,1500,1500,1500
1748133199.113132,-0.06,0.23,-0.08,-0.07090400086226964,0.014180800172453928,0.07308566242726255,0.36690213479016215,-0.04669999362575291,-0.41176948721166523,0,0,0,0,0,0,1500,1500,1500,1500,1500,1500
1748133199.1948435,-0.04,0.21,-0.11,-0.05672320068981571,0.013089969389957472,0.07308566242726255,0.35876066074254953,-0.048448790944802436,-0.4012046660626087,0,0,0,0,0,0,1500,1500,1500,1500,1500,1500
1748133199.2969956,-0.04,0.21,-0.11,-0.05672320068981571,0.013089969389957472,0.07308566242726255,0.35876066074254953,-0.048448790944802436,-0.4012046660626087,0,0,0,0,0,0,1500,1500,1500,1500,1500,1500
1748133199.3964026,-0.03,0.12,-0.08,-0.04363323129985824,0.001090830782496456,0.07308566242726255,0.35153232453230865,-0.05210718817139399,-0.39057009883213023,0,0,0,0,0,0,1500,1500,1500,1500,1500,1500
1748133199.4992776,-0.01,0.18,-0.12,-0.03599741582238305,-0.009817477042468103,0.0719948316447661,0.34638194774502357,-0.055298127362450517,-0.3806063967436311,0,0,0,0,0,0,1500,1500,1500,1500,1500,1500
1748133199.5985703,-0.01,0.18,-0.12,-0.03599741582238305,-0.009817477042468103,0.0719948316447661,0.34638194774502357,-0.055298127362450517,-0.3806063967436311,0,0,0,0,0,0,1500,1500,1500,1500,1500,1500
1748133199.698989,-0.01,0.13,-0.08,-0.028361600344907856,-0.014180800172453928,0.06981317007977318,0.3429721046292112,-0.059629186705644655,-0.3707233666002227,0,0,0,0,0,0,1500,1500,1500,1500,1500,1500
1748133199.7967808,-0.03,0.14,0.0,-0.020725784867432664,-0.014180800172453928,0.07090400086226964,0.3402315353500691,-0.06501041286789931,-0.3610508073136015,0,0,0,0,0,0,1500,1500,1500,1500,1500,1500
1748133199.881141,-0.03,0.14,0.0,-0.020725784867432664,-0.014180800172453928,0.07090400086226964,0.3402315353500691,-0.06501041286789931,-0.3610508073136015,0,0,0,0,0,0,1500,1500,1500,1500,1500,1500
1748133199.981966,-0.03,0.14,0.0,-0.020725784867432664,-0.0272707695624114,0.07090400086226964,0.33764466983443164,-0.07104898162580402,-0.35238911722791133,0,0,0,0,0,0,1500,1500,1500,1500,1500,1500
1748133200.0823798,-0.03,0.14,0.0,-0.020725784867432664,-0.0272707695624114,0.07090400086226964,0.33764466983443164,-0.07104898162580402,-0.35238911722791133,0,0,0,0,0,0,1500,1500,1500,1500,1500,1500
1748133200.1817195,-0.03,0.15,-0.02,-0.02399827721492203,-0.02945243112740431,0.07417649320975901,0.335044906835783,-0.07815672759875854,-0.3431568240224442,0,0,0,0,0,0,1500,1500,1500,1500,1500,1500
1748133200.2737648,-0.01,0.2,-0.07,-0.02399827721492203,-0.02945243112740431,0.0719948316447661,0.3330304540890978,-0.0848604460737901,-0.33490569802757914,0,0,0,0,0,0,1500,1500,1500,1500,1500,1500
1748133200.3663442,-0.01,0.2,-0.07,-0.02399827721492203,-0.02945243112740431,0.0719948316447661,0.3330304540890978,-0.0848604460737901,-0.33490569802757914,0,0,0,0,0,0,1500,1500,1500,1500,1500,1500
1748133200.464909,0.01,0.13,-0.11,-0.028361600344907856,-0.025089107997418487,0.06981317007977318,0.3299529851859556,-0.09240226382841867,-0.3262154070309546,0,0,0,0,0,0,1500,1500,1500,1500,1500,1500
1748133200.566349,0.01,0.13,-0.11,-0.028361600344907856,-0.025089107997418487,0.06981317007977318,0.3299529851859556,-0.09240226382841867,-0.3262154070309546,0,0,0,0,0,0,1500,1500,1500,1500,1500,1500
1748133200.6477792,0.01,0.09,-0.06,-0.030543261909900768,-0.03490658503988659,0.0719948316447661,0.3255420832047677,-0.10031544133479955,-0.31786072965501755,0,0,0,0,0,0,1500,1500,1500,1500,1500,1500
1748133200.7493243,0.05,0.11,-0.14,-0.026179938779914945,-0.030543261909900768,0.07090400086226964,0.32110767144931873,-0.10860423750312065,-0.30916478563886973,0,0,0,0,0,0,1500,1500,1500,1500,1500,1500
1748133200.8493645,0.05,0.11,-0.14,-0.026179938779914945,-0.030543261909900768,0.07090400086226964,0.32110767144931873,-0.10860423750312065,-0.30916478563886973,0,0,0,0,0,0,1500,1500,1500,1500,1500,1500
1748133200.9493008,0.0,0.12,0.0,-0.028361600344907856,-0.028361600344907856,0.0719948316447661,0.31683590063333994,-0.11685528107950736,-0.3002007895550016,0,0,0,0,0,0,1500,1500,1500,1500,1500,1500
1748133201.0485077,0.03,0.1,0.0,-0.031634092692397225,-0.02945243112740431,0.07635815477475191,0.31205032898190166,-0.12542911967244644,-0.2909891266646825,0,0,0,0,0,0,1500,1500,1500,1500,1500,1500
1748133201.1385076,0.03,0.1,0.0,-0.031634092692397225,-0.02945243112740431,0.07635815477475191,0.31205032898190166,-0.12542911967244644,-0.2909891266646825,0,0,0,0,0,0,1500,1500,1500,1500,1500,1500
1748133201.2321885,0.03,0.12,0.0,-0.02945243112740431,-0.030543261909900768,0.07308566242726255,0.30713595735113264,-0.13373607697958334,-0.2815644874441993,0,0,0,0,0,0,1500,1500,1500,1500,1500,1500
1748133201.353874,0.03,0.12,0.0,-0.02945243112740431,-0.030543261909900768,0.07308566242726255,0.30713595735113264,-0.13373607697958334,-0.2815644874441993,0,0,0,0,0,0,1500,1500,1500,1500,1500,1500
1748133201.446096,0.06,0.1,-0.09,-0.03599741582238305,-0.031634092692397225,0.07853981633974483,0.3020937792234228,-0.1414632104471602,-0.27237998926125684,0,0,0,0,0,0,1500,1500,1500,1500,1500,1500
1748133201.5468206,0.09,0.13,-0.13,-0.04145156973486533,-0.0272707695624114,0.07963064712224129,0.2950398470611403,-0.14883795189799331,-0.2626852009647449,0,0,0,0,0,0,1500,1500,1500,1500,1500,1500
1748133201.6465244,0.09,0.13,-0.13,-0.04145156973486533,-0.0272707695624114,0.07963064712224129,0.2950398470611403,-0.14883795189799331,-0.2626852009647449,0,0,0,0,0,0,1500,1500,1500,1500,1500,1500
1748133201.7462213,0.08,0.03,-0.09,-0.04581489286485115,-0.022907446432425576,0.07526732399225546,0.28636616050514413,-0.1562982057874956,-0.2521841825967489,0,0,0,0,0,0,1500,1500,1500,1500,1500,1500
1748133201.848043,0.1,0.0,-0.06,-0.04799655442984406,-0.02181661564992912,0.07308566242726255,0.2777596920228683,-0.16243160406434815,-0.2423098559520765,0,0,0,0,0,0,1500,1500,1500,1500,1500,1500
1748133201.9452035,0.1,0.0,-0.06,-0.04799655442984406,-0.02181661564992912,0.07308566242726255,0.2777596920228683,-0.16243160406434815,-0.2423098559520765,0,0,0,0,0,0,1500,1500,1500,1500,1500,1500
1748133202.0450115,0.12,0.02,0.0,-0.05781403147231216,-0.018544123302439753,0.07417649320975901,0.26748876292426355,-0.1687437108374187,-0.23190561247065097,0,0,0,0,0,0,1500,1500,1500,1500,1500,1500
1748133202.135092,0.15,0.05,-0.07,-0.05781403147231216,-0.013089969389957472,0.06872233929727672,0.2571338777990564,-0.17423283266402392,-0.22219651335030852,0,0,0,0,0,0,1500,1500,1500,1500,1500,1500
1748133202.2291613,0.15,0.05,-0.07,-0.05781403147231216,-0.013089969389957472,0.06872233929727672,0.2571338777990564,-0.17423283266402392,-0.22219651335030852,0,0,0,0,0,0,1500,1500,1500,1500,1500,1500
1748133202.3282063,0.17,0.0,-0.03,-0.05999569303730508,-0.016362461737446838,0.06435901616729091,0.24605759470532393,-0.1801716311255113,-0.21255704340868126,0,0,0,0,0,0,1500,1500,1500,1500,1500,1500
1748133202.4132624,0.17,0.0,-0.03,-0.05999569303730508,-0.016362461737446838,0.06435901616729091,0.24605759470532393,-0.1801716311255113,-0.21255704340868126,0,0,0,0,0,0,1500,1500,1500,1500,1500,1500
1748133202.511734,0.19,0.0,-0.03,-0.06544984694978735,-0.011999138607461015,0.06435901616729091,0.23454181683718028,-0.18691214524506608,-0.20292928985798286,0,0,0,0,0,0,1500,1500,1500,1500,1500,1500
1748133202.6120634,0.19,0.0,-0.03,-0.06544984694978735,-0.011999138607461015,0.06435901616729091,0.23454181683718028,-0.18691214524506608,-0.20292928985798286,0,0,0,0,0,0,1500,1500,1500,1500,1500,1500
1748133202.699251,0.21,0.0,-0.12,-0.06435901616729091,-0.009817477042468103,0.06544984694978735,0.2221213593075071,-0.19278317325474825,-0.19304508623621236,0,0,0,0,0,0,1500,1500,1500,1500,1500,1500
1748133202.7980006,0.22,-0.05,-0.14,-0.06326818538479445,-0.004363323129985824,0.061086523819801536,0.2106173807052596,-0.19764216265481033,-0.18383144678756455,0,0,0,0,0,0,1500,1500,1500,1500,1500,1500
1748133202.8964028,0.22,-0.05,-0.14,-0.06326818538479445,-0.004363323129985824,0.061086523819801536,0.2106173807052596,-0.19764216265481033,-0.18383144678756455,0,0,0,0,0,0,1500,1500,1500,1500,1500,1500
1748133202.9947162,0.24,-0.16,-0.08,-0.06217735460229799,-0.002181661564992912,0.05890486225480862,0.1975021102524678,-0.20344594840845392,-0.1740085893925612,0,0,0,0,0,0,1500,1500,1500,1500,1500,1500
1748133203.0941074,0.24,-0.17,-0.04,-0.06654067773228381,0.004363323129985824,0.05890486225480862,0.18441273492205254,-0.20904896495592612,-0.164972517858883,0,0,0,0,0,0,1500,1500,1500,1500,1500,1500
1748133203.1780396,0.24,-0.17,-0.04,-0.06654067773228381,0.004363323129985824,0.05890486225480862,0.18441273492205254,-0.20904896495592612,-0.164972517858883,0,0,0,0,0,0,1500,1500,1500,1500,1500,1500
1748133203.2787335,0.2,-0.15,-0.04,-0.06435901616729091,-0.003272492347489368,0.05126904677733343,0.1715479232399356,-0.21424439269499984,-0.1563612063253635,0,0,0,0,0,0,1500,1500,1500,1500,1500,1500
1748133203.3791192,0.2,-0.15,-0.04,-0.06435901616729091,-0.003272492347489368,0.05126904677733343,0.1715479232399356,-0.21424439269499984,-0.1563612063253635,0,0,0,0,0,0,1500,1500,1500,1500,1500,1500
1748133203.4789543,0.2,-0.14,-0.09,-0.06763150851478027,0.00545415391248228,0.05345070834232634,0.1571556880705479,-0.21957543601010035,-0.14753226172301234,0,0,0,0,0,0,1500,1500,1500,1500,1500,1500
1748133203.579437,0.19,-0.19,-0.03,-0.07526732399225546,0.0,0.05345070834232634,0.14126339062017007,-0.22487861161360684,-0.1388349530687219,0,0,0,0,0,0,1500,1500,1500,1500,1500,1500
1748133203.6780148,0.19,-0.19,-0.03,-0.07526732399225546,0.0,0.05345070834232634,0.14126339062017007,-0.22487861161360684,-0.1388349530687219,0,0,0,0,0,0,1500,1500,1500,1500,1500,1500
1748133203.7779872,0.2,-0.18,-0.14,-0.07963064712224129,-0.001090830782496456,0.04690572364734761,0.12446622112768832,-0.22984721163144325,-0.13030512806386538,0,0,0,0,0,0,1500,1500,1500,1500,1500,1500
1748133203.8784373,0.21,-0.21,-0.15,-0.07853981633974483,0.004363323129985824,0.04690572364734761,0.10715898545729845,-0.23469233564410896,-0.12200282110441465,0,0,0,0,0,0,1500,1500,1500,1500,1500,1500
1748133203.9601219,0.21,-0.21,-0.15,-0.07853981633974483,0.004363323129985824,0.04690572364734761,0.10715898545729845,-0.23469233564410896,-0.12200282110441465,0,0,0,0,0,0,1500,1500,1500,1500,1500,1500
1748133204.061012,0.21,-0.27,-0.08,-0.0818123086872342,-0.007635815477475192,0.04690572364734761,0.09008361620119469,-0.2393983031279803,-0.11390003599633966,0,0,0,0,0,0,1500,1500,1500,1500,1500,1500
1748133204.1608906,0.21,-0.27,-0.08,-0.0818123086872342,-0.007635815477475192,0.04690572364734761,0.09008361620119469,-0.2393983031279803,-0.11390003599633966,0,0,0,0,0,0,1500,1500,1500,1500,1500,1500
1748133204.2624013,0.19,-0.28,-0.07,-0.06763150851478027,-0.004363323129985824,0.038179077387375956,0.07340029429751084,-0.24406811263359746,-0.10626622168766015,0,0,0,0,0,0,1500,1500,1500,1500,1500,1500
1748133204.3622608,0.18,-0.28,-0.1,-0.04690572364734761,0.0,0.037088246604879506,0.05778483222523566,-0.24871121926735582,-0.0985761520859451,0,0,0,0,0,0,1500,1500,1500,1500,1500,1500
1748133204.4447007,0.18,-0.28,-0.1,-0.04690572364734761,0.0,0.037088246604879506,0.05778483222523566,-0.24871121926735582,-0.0985761520859451,0,0,0,0,0,0,1500,1500,1500,1500,1500,1500
1748133204.5446246,0.19,-0.25,-0.1,-0.03599741582238305,-0.007635815477475192,0.03599741582238305,0.045924050050305504,-0.25294556991042316,-0.0917804722666492,0,0,0,0,0,0,1500,1500,1500,1500,1500,1500
1748133204.6383483,0.18,-0.25,-0.15,-0.02945243112740431,-0.002181661564992912,0.03381575425739013,0.034252793379529495,-0.2573495672702817,-0.08471831208908086,0,0,0,0,0,0,1500,1500,1500,1500,1500,1500
1748133204.7287478,0.18,-0.25,-0.15,-0.02945243112740431,-0.002181661564992912,0.03381575425739013,0.034252793379529495,-0.2573495672702817,-0.08471831208908086,0,0,0,0,0,0,1500,1500,1500,1500,1500,1500
1748133204.8278694,0.17,-0.27,-0.14,-0.022907446432425576,0.003272492347489368,0.03599741582238305,0.023246045583752418,-0.261418239934509,-0.07744323803792424,0,0,0,0,0,0,1500,1500,1500,1500,1500,1500
1748133204.9275928,0.17,-0.27,-0.14,-0.022907446432425576,0.003272492347489368,0.03599741582238305,0.023246045583752418,-0.261418239934509,-0.07744323803792424,0,0,0,0,0,0,1500,1500,1500,1500,1500,1500
1748133205.02822,0.15,-0.27,-0.18,-0.019634954084936207,0.009817477042468103,0.04036073895236887,0.01343699947257698,-0.2650105154191579,-0.07027920930278449,0,0,0,0,0,0,1500,1500,1500,1500,1500,1500
1748133205.1207335,0.15,-0.3,-0.16,-0.020725784867432664,0.004363323129985824,0.04363323129985824,0.0026256879946140407,-0.2676935554285645,-0.06158024359470469,0,0,0,0,0,0,1500,1500,1500,1500,1500,1500
1748133205.2108974,0.15,-0.3,-0.16,-0.020725784867432664,0.004363323129985824,0.04363323129985824,0.0026256879946140407,-0.2676935554285645,-0.06158024359470469,0,0,0,0,0,0,1500,1500,1500,1500,1500,1500
1748133205.310547,0.13,-0.33,-0.07,-0.0272707695624114,0.01090830782496456,0.04799655442984406,-0.009207740882694288,-0.2708181396941502,-0.052713546473159685,0,0,0,0,0,0,1500,1500,1500,1500,1500,1500
1748133205.4108753,0.13,-0.33,-0.07,-0.0272707695624114,0.01090830782496456,0.04799655442984406,-0.009207740882694288,-0.2708181396941502,-0.052713546473159685,0,0,0,0,0,0,1500,1500,1500,1500,1500,1500
1748133205.5102305,0.09,-0.34,-0.11,-0.025089107997418487,0.004363323129985824,0.04690572364734761,-0.02082572633445028,-0.27310773972940816,-0.043967069234712185,0,0,0,0,0,0,1500,1500,1500,1500,1500,1500
1748133205.6111841,0.11,-0.31,-0.1,-0.030543261909900768,0.008726646259971648,0.044724062082354694,-0.03338669486092499,-0.2754602063659148,-0.034817402526113456,0,0,0,0,0,0,1500,1500,1500,1500,1500,1500
1748133205.693902,0.11,-0.31,-0.1,-0.030543261909900768,0.008726646259971648,0.044724062082354694,-0.03338669486092499,-0.2754602063659148,-0.034817402526113456,0,0,0,0,0,0,1500,1500,1500,1500,1500,1500
1748133205.7946868,0.07,-0.31,-0.11,-0.014180800172453928,0.0,0.04254240051736178,-0.044274567086090615,-0.27744515974040185,-0.02636704830271648,0,0,0,0,0,0,1500,1500,1500,1500,1500,1500
1748133205.88859,0.05,-0.38,-0.12,0.013089969389957472,0.01090830782496456,0.044724062082354694,-0.05356819942423492,-0.27832326463286555,-0.017157589284576405,0,0,0,0,0,0,1500,1500,1500,1500,1500,1500
1748133205.9773273,0.05,-0.38,-0.12,0.013089969389957472,0.01090830782496456,0.044724062082354694,-0.05356819942423492,-0.27832326463286555,-0.017157589284576405,0,0,0,0,0,0,1500,1500,1500,1500,1500,1500
1748133206.080341,0.06,-0.36,-0.15,0.0272707695624114,0.014180800172453928,0.04799655442984406,-0.05948752928543459,-0.2779911214826018,-0.008322016301087835,0,0,0,0,0,0,1500,1500,1500,1500,1500,1500
1748133206.1640332,0.06,-0.36,-0.15,0.0272707695624114,0.014180800172453928,0.04799655442984406,-0.05948752928543459,-0.2779911214826018,-0.008322016301087835,0,0,0,0,0,0,1500,1500,1500,1500,1500,1500
1748133206.2642467,-0.2,-0.77,-0.09,0.2399827721492203,0.23889194136672387,-0.04254240051736178,-0.024993787971809258,-0.23993261230382712,-0.016046205028523077,0,0,0,0,0,0,1500,1500,1500,1500,1500,1500
1748133206.3625767,-0.2,-0.77,-0.09,0.2399827721492203,0.23889194136672387,-0.04254240051736178,-0.024993787971809258,-0.23993261230382712,-0.016046205028523077,0,0,0,0,0,0,1500,1500,1500,1500,1500,1500
1748133206.4613059,0.12,-0.45,-0.23,0.1734420944169365,0.19416787928436915,-0.04581489286485115,0.0014943152883594114,-0.20800921244459838,-0.023720892206883514,0,0,0,0,0,0,1500,1500,1500,1500,1500,1500
1748133206.5615163,0.12,-0.47000000000000003,-0.07,0.11235557059713497,0.1407171709420428,-0.03599741582238305,0.013521278182959071,-0.1858873355263654,-0.02798777420649198,0,0,0,0,0,0,1500,1500,1500,1500,1500,1500
1748133206.6618798,0.12,-0.47000000000000003,-0.07,0.11235557059713497,0.1407171709420428,-0.03599741582238305,0.013521278182959071,-0.1858873355263654,-0.02798777420649198,0,0,0,0,0,0,1500,1500,1500,1500,1500,1500
1748133206.761768,0.09,-0.38,-0.08,0.06326818538479445,0.09817477042468103,-0.018544123302439753,0.018263302065117816,-0.17147765342825919,-0.029997411305409324,0,0,0,0,0,0,1500,1500,1500,1500,1500,1500
1748133206.8622231,0.07,-0.41000000000000003,-0.11,0.02399827721492203,0.006544984694978736,0.015271630954950384,0.016619851774698734,-0.16415253653983441,-0.029295576338603,0,0,0,0,0,0,1500,1500,1500,1500,1500,1500
1748133206.9447472,0.07,-0.41000000000000003,-0.11,0.02399827721492203,0.006544984694978736,0.015271630954950384,0.016619851774698734,-0.16415253653983441,-0.029295576338603,0,0,0,0,0,0,1500,1500,1500,1500,1500,1500
1748133207.0464423,0.08,-0.36,-0.11,-0.009817477042468103,-0.08399397025222712,0.04363323129985824,0.009571141188730193,-0.17297607996187858,-0.02276362389772867,0,0,0,0,0,0,1500,1500,1500,1500,1500,1500
1748133207.1436737,-0.06,-0.51,-0.33,0.11453723216212788,0.04036073895236887,-0.026179938779914945,0.027400385707644328,-0.16724650157576104,-0.02434876603213752,0,0,0,0,0,0,1500,1500,1500,1500,1500,1500
