time,ay,ax,az,gy,gx,gz,roll,pitch,yaw,cmd_fx,cmd_fy,cmd_fz,cmd_tx,cmd_ty,cmd_tz,pwm_1,pwm_2,pwm_3,pwm_4,pwm_5,pwm_6
1748732999.090946,0.0,0.0,0.0,0.0,0.0,0.0,0.0,0.0,0.0,0,0,0,0,0,0,1500,1500,1500,1500,1500,1500
1748732999.1883159,0.0,0.02,0.0,-0.011999138607461015,0.003272492347489368,0.0,0.01362445758171526,0.09497349309768821,0.09098957989774124,0,0,0,0,0,0,1500,1500,1500,1500,1500,1500
1748732999.27407,0.0,0.02,0.0,-0.011999138607461015,0.003272492347489368,0.0,0.01362445758171526,0.09497349309768821,0.09098957989774124,0,0,0,0,0,0,1500,1500,1500,1500,1500,1500
1748732999.3736744,0.07,-0.02,-0.08,0.0,-0.003272492347489368,-0.001090830782496456,0.013379742400642165,0.09498455491271326,0.09097792284183676,0,0,0,0,0,0,1500,1500,1500,1500,1500,1500
1748732999.4664304,-0.05,0.02,0.03,0.004363323129985824,-0.001090830782496456,0.0,0.013257384917086832,0.09499008582459735,0.0909720943045866,0,0,0,0,0,0,1500,1500,1500,1500,1500,1500
1748732999.5547156,-0.05,0.02,0.03,0.004363323129985824,-0.001090830782496456,0.0,0.013257384917086832,0.09499008582459735,0.0909720943045866,0,0,0,0,0,0,1500,1500,1500,1500,1500,1500
1748732999.654974,0.02,0.07,0.04,0.00545415391248228,0.0,0.001090830782496456,0.012773807928977107,0.09501169308204523,0.0910716337534037,0,0,0,0,0,0,1500,1500,1500,1500,1500,1500
1748732999.754253,0.02,0.07,0.04,0.00545415391248228,0.0,0.001090830782496456,0.012773807928977107,0.09501169308204523,0.0910716337534037,0,0,0,0,0,0,1500,1500,1500,1500,1500,1500
1748732999.8553853,0.0,0.18,-0.03,0.004363323129985824,0.0,-0.001090830782496456,0.012890476399519468,0.09488380151766498,0.09107587658243937,0,0,0,0,0,0,1500,1500,1500,1500,1500,1500
1748732999.9455595,0.01,-0.12,0.0,-0.009817477042468103,0.001090830782496456,-0.003272492347489368,0.012768120612287112,0.09488933986073479,0.09107005560633033,0,0,0,0,0,0,1500,1500,1500,1500,1500,1500
1748733000.038237,0.01,-0.12,0.0,-0.009817477042468103,0.001090830782496456,-0.003272492347489368,0.012768120612287112,0.09488933986073479,0.09107005560633033,0,0,0,0,0,0,1500,1500,1500,1500,1500,1500
1748733000.1384485,0.09,0.01,0.02,-0.00545415391248228,0.002181661564992912,-0.003272492347489368,0.013007673751696936,0.09476174915192621,0.0910856210824905,0,0,0,0,0,0,1500,1500,1500,1500,1500,1500
1748733000.238468,0.09,0.01,0.02,-0.00545415391248228,0.002181661564992912,-0.003272492347489368,0.013007673751696936,0.09476174915192621,0.0910856210824905,0,0,0,0,0,0,1500,1500,1500,1500,1500,1500
1748733000.3384109,-0.02,0.07,0.03,-0.002181661564992912,0.002181661564992912,-0.1407171709420428,0.013007673751696936,0.09476174915192621,0.0910856210824905,0,0,0,0,0,0,1500,1500,1500,1500,1500,1500
1748733000.4383063,0.0,0.1,0.02,-0.00545415391248228,-0.003272492347489368,-0.002181661564992912,0.013001984243682282,0.09463939135511816,0.09108403062905987,0,0,0,0,0,0,1500,1500,1500,1500,1500,1500
1748733000.5220525,0.0,0.1,0.02,-0.00545415391248228,-0.003272492347489368,-0.002181661564992912,0.013001984243682282,0.09463939135511816,0.09108403062905987,0,0,0,0,0,0,1500,1500,1500,1500,1500,1500
1748733000.6226223,0.02,0.01,0.0,-0.004363323129985824,-0.002181661564992912,-0.001090830782496456,0.013124344808737679,0.09463385314361937,0.09108983654774916,0,0,0,0,0,0,1500,1500,1500,1500,1500,1500
1748733000.722734,0.02,0.01,0.0,-0.004363323129985824,-0.002181661564992912,-0.001090830782496456,0.013124344808737679,0.09463385314361937,0.09108983654774916,0,0,0,0,0,0,1500,1500,1500,1500,1500,1500
1748733000.8228025,0.04,-0.02,0.04,-0.003272492347489368,0.002181661564992912,0.001090830782496456,0.012879623743977301,0.09464492956952841,0.0910782247042129,0,0,0,0,0,0,1500,1500,1500,1500,1500,1500
1748733000.922588,0.02,0.07,0.02,0.002181661564992912,-0.002181661564992912,-0.001090830782496456,0.012885311836211331,0.09476728743070452,0.09107980763816825,0,0,0,0,0,0,1500,1500,1500,1500,1500,1500
1748733001.0234334,0.02,0.07,0.02,0.002181661564992912,-0.002181661564992912,-0.001090830782496456,0.012885311836211331,0.09476728743070452,0.09107980763816825,0,0,0,0,0,0,1500,1500,1500,1500,1500,1500
1748733001.1246955,0.08,-0.1,0.0,-0.016362461737446838,0.001090830782496456,0.0,0.01264642537828751,0.09477785507343553,0.0911910403361874,0,0,0,0,0,0,1500,1500,1500,1500,1500,1500
1748733001.2151103,0.02,0.08,0.0,0.006544984694978736,-0.001090830782496456,-0.003272492347489368,0.012401701998953407,0.09478894661922199,0.09117941353598168,0,0,0,0,0,0,1500,1500,1500,1500,1500,1500
1748733001.3052633,0.02,0.08,0.0,0.006544984694978736,-0.001090830782496456,-0.003272492347489368,0.012401701998953407,0.09478894661922199,0.09117941353598168,0,0,0,0,0,0,1500,1500,1500,1500,1500,1500
1748733001.4049711,0.03,0.03,0.01,0.0,0.003272492347489368,0.001090830782496456,0.012401701998953407,0.09478894661922199,0.09117941353598168,0,0,0,0,0,0,1500,1500,1500,1500,1500,1500
1748733001.506348,0.03,0.03,0.01,0.0,0.003272492347489368,0.001090830782496456,0.012401701998953407,0.09478894661922199,0.09117941353598168,0,0,0,0,0,0,1500,1500,1500,1500,1500,1500
1748733001.6050715,0.03,0.02,0.02,-0.002181661564992912,0.001090830782496456,0.0,0.012401701998953407,0.09478894661922199,0.09117941353598168,0,0,0,0,0,0,1500,1500,1500,1500,1500,1500
1748733001.7055988,0.0,0.01,0.0,-0.001090830782496456,-0.001090830782496456,-0.003272492347489368,0.012401701998953407,0.09478894661922199,0.09117941353598168,0,0,0,0,0,0,1500,1500,1500,1500,1500,1500
1748733001.7887685,0.0,0.01,0.0,-0.001090830782496456,-0.001090830782496456,-0.003272492347489368,0.012401701998953407,0.09478894661922199,0.09117941353598168,0,0,0,0,0,0,1500,1500,1500,1500,1500,1500
1748733001.8897321,0.0,0.01,0.05,0.0,0.001090830782496456,0.002181661564992912,0.012401701998953407,0.09478894661922199,0.09117941353598168,0,0,0,0,0,0,1500,1500,1500,1500,1500,1500
1748733001.9893484,0.0,0.01,0.05,0.0,0.001090830782496456,0.002181661564992912,0.012401701998953407,0.09478894661922199,0.09117941353598168,0,0,0,0,0,0,1500,1500,1500,1500,1500,1500
1748733002.0887086,0.01,0.07,0.04,0.003272492347489368,0.002181661564992912,0.001090830782496456,0.012401701998953407,0.09478894661922199,0.09117941353598168,0,0,0,0,0,0,1500,1500,1500,1500,1500,1500
1748733002.1897306,0.03,0.05,0.02,0.0,0.004363323129985824,0.003272492347489368,0.012401701998953407,0.09478894661922199,0.09117941353598168,0,0,0,0,0,0,1500,1500,1500,1500,1500,1500
1748733002.2734127,0.03,0.05,0.02,0.0,0.004363323129985824,0.003272492347489368,0.012401701998953407,0.09478894661922199,0.09117941353598168,0,0,0,0,0,0,1500,1500,1500,1500,1500,1500
1748733002.3771584,0.0,0.04,0.02,-0.001090830782496456,0.0,0.0,0.012401701998953407,0.09478894661922199,0.09117941353598168,0,0,0,0,0,0,1500,1500,1500,1500,1500,1500
1748733002.4741828,0.0,0.04,0.02,-0.001090830782496456,0.0,0.0,0.012401701998953407,0.09478894661922199,0.09117941353598168,0,0,0,0,0,0,1500,1500,1500,1500,1500,1500
1748733002.5729883,0.02,0.03,0.01,0.001090830782496456,0.0,0.001090830782496456,0.012401701998953407,0.09478894661922199,0.09117941353598168,0,0,0,0,0,0,1500,1500,1500,1500,1500,1500
1748733002.6736302,0.06,0.21,-0.03,0.002181661564992912,0.0,0.0,0.012401701998953407,0.09478894661922199,0.09117941353598168,0,0,0,0,0,0,1500,1500,1500,1500,1500,1500
1748733002.7727058,0.06,0.21,-0.03,0.002181661564992912,0.0,0.0,0.012401701998953407,0.09478894661922199,0.09117941353598168,0,0,0,0,0,0,1500,1500,1500,1500,1500,1500
1748733002.8729212,0.05,0.01,0.06,-0.001090830782496456,0.0,-0.002181661564992912,0.012401701998953407,0.09478894661922199,0.09117941353598168,0,0,0,0,0,0,1500,1500,1500,1500,1500,1500
1748733002.9700809,0.0,0.0,0.03,0.0,0.0,0.002181661564992912,0.012401701998953407,0.09478894661922199,0.09117941353598168,0,0,0,0,0,0,1500,1500,1500,1500,1500,1500
1748733003.0550902,0.0,0.0,0.03,0.0,0.0,0.002181661564992912,0.012401701998953407,0.09478894661922199,0.09117941353598168,0,0,0,0,0,0,1500,1500,1500,1500,1500,1500
1748733003.156218,0.01,0.01,0.02,-0.004363323129985824,0.001090830782496456,-0.001090830782496456,0.01252406365969195,0.09478340084486682,0.09118522693917477,0,0,0,0,0,0,1500,1500,1500,1500,1500,1500
1748733003.2555604,0.01,0.01,0.02,-0.004363323129985824,0.001090830782496456,-0.001090830782496456,0.01252406365969195,0.09478340084486682,0.09118522693917477,0,0,0,0,0,0,1500,1500,1500,1500,1500,1500
1748733003.356266,0.02,0.09,0.0,0.001090830782496456,-0.003272492347489368,0.0,0.01252406365969195,0.09478340084486682,0.09118522693917477,0,0,0,0,0,0,1500,1500,1500,1500,1500,1500
1748733003.4514058,0.39,0.5,-0.16,-0.002181661564992912,-0.003272492347489368,-0.00545415391248228,0.01227934039424183,0.09479449239650121,0.09117360012660851,0,0,0,0,0,0,1500,1500,1500,1500,1500,1500
1748733003.5393717,0.39,0.5,-0.16,-0.002181661564992912,-0.003272492347489368,-0.00545415391248228,0.01227934039424183,0.09479449239650121,0.09117360012660851,0,0,0,0,0,0,1500,1500,1500,1500,1500,1500
1748733003.6380365,0.02,0.09,-0.03,-0.003272492347489368,-0.002181661564992912,0.0,0.01227934039424183,0.09479449239650121,0.09117360012660851,0,0,0,0,0,0,1500,1500,1500,1500,1500,1500
1748733003.739315,0.02,0.09,-0.03,-0.003272492347489368,-0.002181661564992912,0.0,0.01227934039424183,0.09479449239650121,0.09117360012660851,0,0,0,0,0,0,1500,1500,1500,1500,1500,1500
1748733003.8380575,0.0,0.08,0.02,-0.006544984694978736,0.001090830782496456,-0.002181661564992912,0.01227934039424183,0.09479449239650121,0.09117360012660851,0,0,0,0,0,0,1500,1500,1500,1500,1500,1500
1748733003.9285517,0.0,-0.02,0.02,-0.001090830782496456,-0.001090830782496456,0.0,0.01227934039424183,0.09479449239650121,0.09117360012660851,0,0,0,0,0,0,1500,1500,1500,1500,1500,1500
1748733004.0226626,0.0,-0.02,0.02,-0.001090830782496456,-0.001090830782496456,0.0,0.01227934039424183,0.09479449239650121,0.09117360012660851,0,0,0,0,0,0,1500,1500,1500,1500,1500,1500
1748733004.122902,0.17,0.15,-0.04,-0.004363323129985824,-0.001090830782496456,0.0,0.01227934039424183,0.09479449239650121,0.09117360012660851,0,0,0,0,0,0,1500,1500,1500,1500,1500,1500
1748733004.224025,0.17,0.15,-0.04,-0.004363323129985824,-0.001090830782496456,0.0,0.01227934039424183,0.09479449239650121,0.09117360012660851,0,0,0,0,0,0,1500,1500,1500,1500,1500,1500
1748733004.323711,-0.02,0.3,-0.02,0.006544984694978736,0.001090830782496456,-0.003272492347489368,0.01227934039424183,0.09479449239650121,0.09117360012660851,0,0,0,0,0,0,1500,1500,1500,1500,1500,1500
1748733004.422462,0.0,0.06,-0.02,0.007635815477475192,0.003272492347489368,-0.002181661564992912,0.012028931615342103,0.09468322565345452,0.09116044157000779,0,0,0,0,0,0,1500,1500,1500,1500,1500,1500
1748733004.5129557,0.0,0.06,-0.02,0.007635815477475192,0.003272492347489368,-0.002181661564992912,0.012028931615342103,0.09468322565345452,0.09116044157000779,0,0,0,0,0,0,1500,1500,1500,1500,1500,1500
1748733004.6048348,-0.02,-0.01,0.05,0.001090830782496456,0.002181661564992912,-0.001090830782496456,0.012028931615342103,0.09468322565345452,0.09116044157000779,0,0,0,0,0,0,1500,1500,1500,1500,1500,1500
1748733004.7044055,-0.02,-0.01,0.05,0.001090830782496456,0.002181661564992912,-0.001090830782496456,0.012028931615342103,0.09468322565345452,0.09116044157000779,0,0,0,0,0,0,1500,1500,1500,1500,1500,1500
1748733004.7876997,0.05,0.03,0.02,-0.002181661564992912,0.0,0.0,0.012028931615342103,0.09468322565345452,0.09116044157000779,0,0,0,0,0,0,1500,1500,1500,1500,1500,1500
1748733004.8830557,0.0,0.04,0.02,-0.001090830782496456,0.0,-0.003272492347489368,0.012028931615342103,0.09468322565345452,0.09116044157000779,0,0,0,0,0,0,1500,1500,1500,1500,1500,1500
1748733004.9891171,0.0,0.04,0.02,-0.001090830782496456,0.0,-0.003272492347489368,0.012028931615342103,0.09468322565345452,0.09116044157000779,0,0,0,0,0,0,1500,1500,1500,1500,1500,1500
1748733005.087958,0.01,0.07,0.01,-0.001090830782496456,0.003272492347489368,0.001090830782496456,0.012028931615342103,0.09468322565345452,0.09116044157000779,0,0,0,0,0,0,1500,1500,1500,1500,1500,1500
1748733005.1882815,0.01,0.07,0.01,-0.001090830782496456,0.003272492347489368,0.001090830782496456,0.012028931615342103,0.09468322565345452,0.09116044157000779,0,0,0,0,0,0,1500,1500,1500,1500,1500,1500
1748733005.2717586,0.02,0.07,0.02,-0.002181661564992912,0.0,0.0,0.012028931615342103,0.09468322565345452,0.09116044157000779,0,0,0,0,0,0,1500,1500,1500,1500,1500,1500
1748733005.3697436,0.06,0.11,0.0,0.003272492347489368,0.001090830782496456,0.001090830782496456,0.012028931615342103,0.09468322565345452,0.09116044157000779,0,0,0,0,0,0,1500,1500,1500,1500,1500,1500
1748733005.4725251,0.06,0.11,0.0,0.003272492347489368,0.001090830782496456,0.001090830782496456,0.012028931615342103,0.09468322565345452,0.09116044157000779,0,0,0,0,0,0,1500,1500,1500,1500,1500,1500
1748733005.5550318,0.11,0.13,0.31,0.007635815477475192,0.007635815477475192,-0.001090830782496456,0.012028931615342103,0.09468322565345452,0.09116044157000779,0,0,0,0,0,0,1500,1500,1500,1500,1500,1500
1748733005.6547132,0.11,0.13,0.31,0.007635815477475192,0.007635815477475192,-0.001090830782496456,0.012028931615342103,0.09468322565345452,0.09116044157000779,0,0,0,0,0,0,1500,1500,1500,1500,1500,1500
1748733005.7556863,0.68,-0.09,1.2,-0.026179938779914945,0.3719732968312915,0.04799655442984406,0.011097015989997232,0.11196584469213104,0.09529073698333172,0,0,0,0,0,0,1500,1500,1500,1500,1500,1500
1748733005.8548641,0.28,-0.52,0.45,-0.08726646259971647,0.7777623479199731,0.14944381720201447,0.007704137856796585,0.20311703512210671,0.10685352634111045,0,0,0,0,0,0,1500,1500,1500,1500,1500,1500
1748733005.9548113,0.28,-0.52,0.45,-0.08726646259971647,0.7777623479199731,0.14944381720201447,0.007704137856796585,0.20311703512210671,0.10685352634111045,0,0,0,0,0,0,1500,1500,1500,1500,1500,1500
1748733006.0387104,-1.09,-0.31,0.63,-0.12980886311707826,0.7788531787024695,0.459239759431008,0.0022239989232932357,0.3322159442273714,0.15735831548422874,0,0,0,0,0,0,1500,1500,1500,1500,1500,1500
1748733006.1425943,-1.09,-0.31,0.63,-0.12980886311707826,0.7788531787024695,0.459239759431008,0.0022239989232932357,0.3322159442273714,0.15735831548422874,0,0,0,0,0,0,1500,1500,1500,1500,1500,1500
1748733006.2395175,0.88,-2.21,0.98,-0.12980886311707826,0.7788531787024695,0.459239759431008,-0.0005476371484602517,0.4385182321458379,0.26832267412777133,0,0,0,0,0,0,1500,1500,1500,1500,1500,1500
1748733006.3388116,-3.61,-0.51,-0.45,-0.25089107997418486,-0.044724062082354694,0.9250245035569946,-0.002268904455173467,0.49509492483538853,0.4166837192259194,0,0,0,0,0,0,1500,1500,1500,1500,1500,1500
1748733006.4397423,-3.61,-0.51,-0.45,-0.25089107997418486,-0.044724062082354694,0.9250245035569946,-0.002268904455173467,0.49509492483538853,0.4166837192259194,0,0,0,0,0,0,1500,1500,1500,1500,1500,1500
1748733006.522805,-3.6,-3.4,1.8900000000000001,-0.3817907738737596,-0.05672320068981571,0.5399612373357457,-0.0076962370615172295,0.5176738441192119,0.535413411360004,0,0,0,0,0,0,1500,1500,1500,1500,1500,1500
1748733006.6207223,-3.6,-3.4,1.8900000000000001,-0.3817907738737596,-0.05672320068981571,0.5399612373357457,-0.0076962370615172295,0.5176738441192119,0.535413411360004,0,0,0,0,0,0,1500,1500,1500,1500,1500,1500
1748733006.7219677,0.31,-0.9400000000000001,0.55,-0.03381575425739013,-0.025089107997418487,0.01090830782496456,-0.0045230512702612935,0.5064771213168733,0.5753288633670172,0,0,0,0,0,0,1500,1500,1500,1500,1500,1500
1748733006.8049402,0.59,-0.01,0.73,-0.014180800172453928,-0.014180800172453928,-0.00545415391248228,-0.005102595875827784,0.50152352128917,0.5752194717210517,0,0,0,0,0,0,1500,1500,1500,1500,1500,1500
1748733006.9052196,0.59,-0.01,0.73,-0.014180800172453928,-0.014180800172453928,-0.00545415391248228,-0.005102595875827784,0.50152352128917,0.5752194717210517,0,0,0,0,0,0,1500,1500,1500,1500,1500,1500
1748733006.990225,-0.04,0.99,-0.29,-0.026179938779914945,0.26616271092913524,0.05345070834232634,-0.005415968537040961,0.5293686404326909,0.575236081001343,0,0,0,0,0,0,1500,1500,1500,1500,1500,1500
1748733007.0896854,-0.04,0.99,-0.29,-0.026179938779914945,0.26616271092913524,0.05345070834232634,-0.005415968537040961,0.5293686404326909,0.575236081001343,0,0,0,0,0,0,1500,1500,1500,1500,1500,1500
1748733007.1881928,0.18,0.35000000000000003,0.1,-0.013089969389957472,0.13199052468207118,0.0,-0.005983631430263016,0.5576072037164417,0.575636510867422,0,0,0,0,0,0,1500,1500,1500,1500,1500,1500
1748733007.2713535,-0.12,-0.11,-0.14,-0.015271630954950384,0.17780541754692233,0.01090830782496456,-0.006366922554820439,0.5825481448255707,0.5762542917678111,0,0,0,0,0,0,1500,1500,1500,1500,1500,1500
1748733007.3721943,-0.12,-0.11,-0.14,-0.015271630954950384,0.17780541754692233,0.01090830782496456,-0.006366922554820439,0.5825481448255707,0.5762542917678111,0,0,0,0,0,0,1500,1500,1500,1500,1500,1500
1748733007.4723341,0.22,0.01,-0.12,-0.017453292519943295,0.0545415391248228,0.007635815477475192,-0.006049961707677346,0.5967286380888932,0.5766554681506402,0,0,0,0,0,0,1500,1500,1500,1500,1500,1500
1748733007.5555162,0.22,0.01,-0.12,-0.017453292519943295,0.0545415391248228,0.007635815477475192,-0.006049961707677346,0.5967286380888932,0.5766554681506402,0,0,0,0,0,0,1500,1500,1500,1500,1500,1500
1748733007.6546075,-0.41000000000000003,2.72,-1.6,-0.14289883250703572,-0.06435901616729091,0.1439896632895322,-0.008374497331794566,0.5964276024059836,0.6073109889006115,0,0,0,0,0,0,1500,1500,1500,1500,1500,1500
1748733007.7549863,0.09,0.45,0.01,0.02181661564992912,0.013089969389957472,-0.003272492347489368,-0.010032339126954158,0.5914687044266751,0.615317075984054,0,0,0,0,0,0,1500,1500,1500,1500,1500,1500
1748733007.8552108,0.09,0.45,0.01,0.02181661564992912,0.013089969389957472,-0.003272492347489368,-0.010032339126954158,0.5914687044266751,0.615317075984054,0,0,0,0,0,0,1500,1500,1500,1500,1500,1500
1748733007.9546747,0.17,0.06,0.14,0.003272492347489368,0.022907446432425576,-0.002181661564992912,-0.008397769472971862,0.5935844435086757,0.6162742064029099,0,0,0,0,0,0,1500,1500,1500,1500,1500,1500
1748733008.038251,0.17,0.06,0.14,0.003272492347489368,0.022907446432425576,-0.002181661564992912,-0.008397769472971862,0.5935844435086757,0.6162742064029099,0,0,0,0,0,0,1500,1500,1500,1500,1500,1500
1748733008.1397069,0.22,0.09,0.24,-0.003272492347489368,0.14726215563702155,-0.008726646259971648,-2.908436540948188,-1.5707963267948966,2.976061712713081,0,0,0,0,0,0,1500,1500,1500,1500,1500,1500
1748733008.2383392,0.03,0.1,0.02,-0.002181661564992912,0.19525871006686563,-0.006544984694978736,-0.005100894625694478,0.6290402496944442,0.6183705672076928,0,0,0,0,0,0,1500,1500,1500,1500,1500,1500
1748733008.3379664,0.03,0.1,0.02,-0.002181661564992912,0.19525871006686563,-0.006544984694978736,-0.005100894625694478,0.6290402496944442,0.6183705672076928,0,0,0,0,0,0,1500,1500,1500,1500,1500,1500
1748733008.4395742,-0.08,0.07,-0.3,-0.00545415391248228,0.11671889372712078,-0.004363323129985824,-0.005644317994799797,0.656187436538982,0.6182811524820803,0,0,0,0,0,0,1500,1500,1500,1500,1500,1500
1748733008.5225098,-0.08,0.07,-0.3,-0.00545415391248228,0.11671889372712078,-0.004363323129985824,-0.005644317994799797,0.656187436538982,0.6182811524820803,0,0,0,0,0,0,1500,1500,1500,1500,1500,1500
1748733008.6216981,0.54,0.01,0.78,-0.008726646259971648,-0.003272492347489368,-0.01090830782496456,-0.004949975122141698,0.6622114346161527,0.6186019172111462,0,0,0,0,0,0,1500,1500,1500,1500,1500,1500
1748733008.722229,0.05,0.13,-0.18,0.006544984694978736,-0.17235126363444003,0.004363323129985824,-0.005479830338468456,0.6652336475001814,0.6186143003643244,0,0,0,0,0,0,1500,1500,1500,1500,1500,1500
1748733008.8050308,0.05,0.13,-0.18,0.006544984694978736,-0.17235126363444003,0.004363323129985824,-0.005479830338468456,0.6652336475001814,0.6186143003643244,0,0,0,0,0,0,1500,1500,1500,1500,1500,1500
1748733008.9049115,0.2,0.09,0.15,0.004363323129985824,0.019634954084936207,-0.01090830782496456,-0.003503026173005888,0.6474079497386709,0.6172605755218954,0,0,0,0,0,0,1500,1500,1500,1500,1500,1500
1748733009.004593,0.2,0.09,0.15,0.004363323129985824,0.019634954084936207,-0.01090830782496456,-0.003503026173005888,0.6474079497386709,0.6172605755218954,0,0,0,0,0,0,1500,1500,1500,1500,1500,1500
1748733009.1044192,-0.02,0.17,-0.17,0.008726646259971648,-0.06544984694978735,-0.00545415391248228,-0.0031675047552495224,0.6473872042814472,0.6167059969931309,0,0,0,0,0,0,1500,1500,1500,1500,1500,1500
1748733009.2050667,0.05,0.07,-0.04,0.001090830782496456,-0.014180800172453928,0.001090830782496456,-0.002040753581690347,0.6397279251559538,0.6167999738958543,0,0,0,0,0,0,1500,1500,1500,1500,1500,1500
1748733009.2896268,0.05,0.07,-0.04,0.001090830782496456,-0.014180800172453928,0.001090830782496456,-0.002040753581690347,0.6397279251559538,0.6167999738958543,0,0,0,0,0,0,1500,1500,1500,1500,1500,1500
1748733009.3881018,0.08,0.07,-0.01,0.003272492347489368,-0.03599741582238305,0.002181661564992912,-0.0015200617388832468,0.6359570153951832,0.6171214619549351,0,0,0,0,0,0,1500,1500,1500,1500,1500,1500
1748733009.4797058,-0.46,0.16,-0.91,0.02399827721492203,-0.09053895494720585,-0.003272492347489368,-0.0006657217044139627,0.6311481181555898,0.6174532423718048,0,0,0,0,0,0,1500,1500,1500,1500,1500,1500
1748733009.5718098,-0.46,0.16,-0.91,0.02399827721492203,-0.09053895494720585,-0.003272492347489368,-0.0006657217044139627,0.6311481181555898,0.6174532423718048,0,0,0,0,0,0,1500,1500,1500,1500,1500,1500
1748733009.6718254,0.23,0.15,0.16,0.032724923474893676,0.014180800172453928,-0.05126904677733343,-0.0015677911047480612,0.6244060415087777,0.6133647276040626,0,0,0,0,0,0,1500,1500,1500,1500,1500,1500
1748733009.771584,0.23,0.15,0.16,0.032724923474893676,0.014180800172453928,-0.05126904677733343,-0.0015677911047480612,0.6244060415087777,0.6133647276040626,0,0,0,0,0,0,1500,1500,1500,1500,1500,1500
1748733009.8715851,-0.03,0.02,-0.2,0.002181661564992912,-0.04799655442984406,0.001090830782496456,-0.0010996060371137467,0.6268104648033841,0.6092050541015603,0,0,0,0,0,0,1500,1500,1500,1500,1500,1500
1748733009.9711132,0.09,0.13,0.08,0.014180800172453928,0.031634092692397225,-0.019634954084936207,-0.0005303992513567403,0.6197531625699655,0.6065085495734457,0,0,0,0,0,0,1500,1500,1500,1500,1500,1500
1748733010.0559602,0.09,0.13,0.08,0.014180800172453928,0.031634092692397225,-0.019634954084936207,-0.0005303992513567403,0.6197531625699655,0.6065085495734457,0,0,0,0,0,0,1500,1500,1500,1500,1500,1500
1748733010.1549814,0.02,0.28,0.24,0.002181661564992912,0.018544123302439753,-0.001090830782496456,-0.0007093547629612009,0.6253647238015972,0.6055456173675577,0,0,0,0,0,0,1500,1500,1500,1500,1500,1500
1748733010.2394917,0.02,0.28,0.24,0.002181661564992912,0.018544123302439753,-0.001090830782496456,-0.0007093547629612009,0.6253647238015972,0.6055456173675577,0,0,0,0,0,0,1500,1500,1500,1500,1500,1500
1748733010.3395574,-0.36,0.08,-0.26,-0.018544123302439753,-0.00545415391248228,-0.009817477042468103,-0.0009813529819214053,0.6224411847913258,0.6050300251306174,0,0,0,0,0,0,1500,1500,1500,1500,1500,1500
1748733010.435735,-0.08,0.26,-0.59,0.015271630954950384,-0.020725784867432664,-0.02181661564992912,-0.001114272173830117,0.6211529227089855,0.6037883425628766,0,0,0,0,0,0,1500,1500,1500,1500,1500,1500
1748733010.5219574,-0.08,0.26,-0.59,0.015271630954950384,-0.020725784867432664,-0.02181661564992912,-0.001114272173830117,0.6211529227089855,0.6037883425628766,0,0,0,0,0,0,1500,1500,1500,1500,1500,1500
1748733010.6213706,0.49,0.49,0.25,-0.008726646259971648,-0.05781403147231216,0.004363323129985824,-0.0009200099739234272,0.6110637506357969,0.6028485709029707,0,0,0,0,0,0,1500,1500,1500,1500,1500,1500
1748733010.7219381,0.49,0.49,0.25,-0.008726646259971648,-0.05781403147231216,0.004363323129985824,-0.0009200099739234272,0.6110637506357969,0.6028485709029707,0,0,0,0,0,0,1500,1500,1500,1500,1500,1500
1748733010.805349,-0.37,-0.3,-0.21,-0.008726646259971648,0.002181661564992912,0.014180800172453928,-0.0009083149513550991,0.6089659529642174,0.6019792486530557,0,0,0,0,0,0,1500,1500,1500,1500,1500,1500
1748733010.9049997,-0.37,-0.3,-0.21,-0.008726646259971648,0.002181661564992912,0.014180800172453928,-0.0009083149513550991,0.6089659529642174,0.6019792486530557,0,0,0,0,0,0,1500,1500,1500,1500,1500,1500
1748733011.0049703,0.27,-0.01,0.02,-0.002181661564992912,-0.008726646259971648,0.003272492347489368,-0.0004739786025914098,0.6071060842221165,0.602197997140761,0,0,0,0,0,0,1500,1500,1500,1500,1500,1500
1748733011.1038342,0.04,0.07,-0.06,0.003272492347489368,-0.006544984694978736,-0.003272492347489368,-0.0004315593012399847,0.6071192926273705,0.6023572914961401,0,0,0,0,0,0,1500,1500,1500,1500,1500,1500
1748733011.2046337,0.04,0.07,-0.06,0.003272492347489368,-0.006544984694978736,-0.003272492347489368,-0.0004315593012399847,0.6071192926273705,0.6023572914961401,0,0,0,0,0,0,1500,1500,1500,1500,1500,1500
1748733011.288625,0.02,0.04,-0.05,-0.002181661564992912,-0.00545415391248228,0.0,-0.0002023810886865035,0.6067774552911993,0.6025120910007792,0,0,0,0,0,0,1500,1500,1500,1500,1500,1500
1748733011.3876767,0.05,0.02,0.0,-0.002181661564992912,-0.003272492347489368,0.002181661564992912,1.3203655180880678e-05,0.6066002644312267,0.6025794164163557,0,0,0,0,0,0,1500,1500,1500,1500,1500,1500
1748733011.487694,0.05,0.02,0.0,-0.002181661564992912,-0.003272492347489368,0.002181661564992912,1.3203655180880678e-05,0.6066002644312267,0.6025794164163557,0,0,0,0,0,0,1500,1500,1500,1500,1500,1500
1748733011.5724185,0.05,0.06,-0.02,0.001090830782496456,-0.004363323129985824,-0.002181661564992912,0.0001909854793172468,0.6065713453379608,0.6027735858081139,0,0,0,0,0,0,1500,1500,1500,1500,1500,1500
1748733011.671392,0.05,0.06,-0.02,0.001090830782496456,-0.004363323129985824,-0.002181661564992912,0.0001909854793172468,0.6065713453379608,0.6027735858081139,0,0,0,0,0,0,1500,1500,1500,1500,1500,1500
1748733011.756746,0.28,0.0,-0.13,-0.007635815477475192,-0.007635815477475192,-0.002181661564992912,0.0005170403362448299,0.6065801960242325,0.6028459648718351,0,0,0,0,0,0,1500,1500,1500,1500,1500,1500
1748733011.8549137,0.28,0.0,-0.13,-0.007635815477475192,-0.007635815477475192,-0.002181661564992912,0.0005170403362448299,0.6065801960242325,0.6028459648718351,0,0,0,0,0,0,1500,1500,1500,1500,1500,1500
1748733011.9552999,0.24,0.43,-0.27,-0.011999138607461015,0.001090830782496456,0.004363323129985824,0.0004580769509963509,0.6058368279810743,0.6030453718970116,0,0,0,0,0,0,1500,1500,1500,1500,1500,1500
1748733012.0394118,0.19,0.1,0.19,0.017453292519943295,-0.00545415391248228,-0.002181661564992912,0.0006357168637483497,0.6058078607453461,0.6032394250762846,0,0,0,0,0,0,1500,1500,1500,1500,1500,1500
1748733012.1394577,0.19,0.1,0.19,0.017453292519943295,-0.00545415391248228,-0.002181661564992912,0.0006357168637483497,0.6058078607453461,0.6032394250762846,0,0,0,0,0,0,1500,1500,1500,1500,1500,1500
1748733012.238628,0.67,0.19,0.27,0.004363323129985824,-0.004363323129985824,-0.008726646259971648,0.0005515862580581127,0.6054149933525044,0.6032870665073982,0,0,0,0,0,0,1500,1500,1500,1500,1500,1500
1748733012.337863,0.67,0.19,0.27,0.004363323129985824,-0.004363323129985824,-0.008726646259971648,0.0005515862580581127,0.6054149933525044,0.6032870665073982,0,0,0,0,0,0,1500,1500,1500,1500,1500,1500
1748733012.4387467,-0.27,-0.91,0.22,-0.00545415391248228,0.00545415391248228,0.007635815477475192,0.00023887051437951004,0.6053638628391367,0.6031803050346636,0,0,0,0,0,0,1500,1500,1500,1500,1500,1500
1748733012.5219865,-0.38,-0.66,0.0,0.008726646259971648,-0.009817477042468103,0.002181661564992912,0.0003190599345761956,0.6051065524093604,0.603334668646702,0,0,0,0,0,0,1500,1500,1500,1500,1500,1500
1748733012.6215236,-0.38,-0.66,0.0,0.008726646259971648,-0.009817477042468103,0.002181661564992912,0.0003190599345761956,0.6051065524093604,0.603334668646702,0,0,0,0,0,0,1500,1500,1500,1500,1500,1500
1748733012.722001,0.13,0.28,-0.15,0.008726646259971648,-0.006544984694978736,-0.004363323129985824,0.0002769481746862184,0.6049712701224335,0.603297552735203,0,0,0,0,0,0,1500,1500,1500,1500,1500,1500
1748733012.8048275,0.13,0.28,-0.15,0.008726646259971648,-0.006544984694978736,-0.004363323129985824,0.0002769481746862184,0.6049712701224335,0.603297552735203,0,0,0,0,0,0,1500,1500,1500,1500,1500,1500
1748733012.9049292,-0.67,-0.32,-0.08,-0.008726646259971648,-0.00545415391248228,-0.004363323129985824,0.00023484353018148917,0.6048360004889344,0.6032604528152818,0,0,0,0,0,0,1500,1500,1500,1500,1500,1500
1748733013.004928,-0.18,0.05,-0.31,0.003272492347489368,0.001090830782496456,-0.001090830782496456,-4.393763843854984e-05,0.6042310197391768,0.6029853973587302,0,0,0,0,0,0,1500,1500,1500,1500,1500,1500
1748733013.105248,-0.18,0.05,-0.31,0.003272492347489368,0.001090830782496456,-0.001090830782496456,-4.393763843854984e-05,0.6042310197391768,0.6029853973587302,0,0,0,0,0,0,1500,1500,1500,1500,1500,1500
1748733013.2059536,0.04,0.26,0.14,-0.02181661564992912,-0.002181661564992912,0.003272492347489368,0.00021835986787547431,0.6033359110834215,0.6029715175189769,0,0,0,0,0,0,1500,1500,1500,1500,1500,1500
1748733013.2893803,0.04,0.26,0.14,-0.02181661564992912,-0.002181661564992912,0.003272492347489368,0.00021835986787547431,0.6033359110834215,0.6029715175189769,0,0,0,0,0,0,1500,1500,1500,1500,1500,1500
1748733013.388479,0.05,0.14,-0.03,0.0,-0.006544984694978736,-0.003272492347489368,0.0006107589344894239,0.6032518934686173,0.603110064492004,0,0,0,0,0,0,1500,1500,1500,1500,1500,1500
1748733013.4896917,0.02,0.05,-0.01,-0.001090830782496456,-0.004363323129985824,-0.002181661564992912,0.0007458996947535302,0.6032098683903526,0.6031447045556076,0,0,0,0,0,0,1500,1500,1500,1500,1500,1500
1748733013.589499,0.02,0.05,-0.01,-0.001090830782496456,-0.004363323129985824,-0.002181661564992912,0.0007458996947535302,0.6032098683903526,0.6031447045556076,0,0,0,0,0,0,1500,1500,1500,1500,1500,1500
1748733013.6881897,0.03,0.01,-0.03,-0.001090830782496456,-0.007635815477475192,-0.001090830782496456,0.0009230928953917363,0.6031808632009642,0.6033383272853713,0,0,0,0,0,0,1500,1500,1500,1500,1500,1500
1748733013.7717237,0.03,0.01,-0.03,-0.001090830782496456,-0.007635815477475192,-0.001090830782496456,0.0009230928953917363,0.6031808632009642,0.6033383272853713,0,0,0,0,0,0,1500,1500,1500,1500,1500,1500
1748733013.8717785,0.07,0.07,0.0,0.0,-0.002181661564992912,-0.002181661564992912,0.001193336935397436,0.6030968002798824,0.6034075910442706,0,0,0,0,0,0,1500,1500,1500,1500,1500,1500
1748733013.9721205,0.02,0.06,-0.08,-0.002181661564992912,0.003272492347489368,-0.001090830782496456,0.0013283547555697033,0.6029326238320338,0.6035641605934197,0,0,0,0,0,0,1500,1500,1500,1500,1500,1500
1748733014.0548997,0.02,0.06,-0.08,-0.002181661564992912,0.003272492347489368,-0.001090830782496456,0.0013283547555697033,0.6029326238320338,0.6035641605934197,0,0,0,0,0,0,1500,1500,1500,1500,1500,1500
1748733014.1555564,0.72,0.61,-0.08,-0.006544984694978736,0.001090830782496456,-0.004363323129985824,0.0017712079214199626,0.6024141546861137,0.6037849966607115,0,0,0,0,0,0,1500,1500,1500,1500,1500,1500
1748733014.2557666,0.72,0.61,-0.08,-0.006544984694978736,0.001090830782496456,-0.004363323129985824,0.0017712079214199626,0.6024141546861137,0.6037849966607115,0,0,0,0,0,0,1500,1500,1500,1500,1500,1500
1748733014.3557053,-0.32,0.07,-0.09,-0.004363323129985824,-0.002181661564992912,0.002181661564992912,0.0019439767875811414,0.6021019306231884,0.603814659969055,0,0,0,0,0,0,1500,1500,1500,1500,1500,1500
1748733014.4553373,0.03,0.48,0.04,0.0,-0.004363323129985824,0.002181661564992912,0.0019392889720609091,0.60157457571727,0.6038946486357615,0,0,0,0,0,0,1500,1500,1500,1500,1500,1500
1748733014.5386653,0.03,0.48,0.04,0.0,-0.004363323129985824,0.002181661564992912,0.0019392889720609091,0.60157457571727,0.6038946486357615,0,0,0,0,0,0,1500,1500,1500,1500,1500,1500
1748733014.638162,-0.4,0.33,-0.01,-0.007635815477475192,0.01090830782496456,-0.004363323129985824,0.001623033099174751,0.6012405041101883,0.6036250399260755,0,0,0,0,0,0,1500,1500,1500,1500,1500,1500
1748733014.738647,-0.4,0.33,-0.01,-0.007635815477475192,0.01090830782496456,-0.004363323129985824,0.001623033099174751,0.6012405041101883,0.6036250399260755,0,0,0,0,0,0,1500,1500,1500,1500,1500,1500
1748733014.8381107,-0.1,-0.88,0.55,-0.013089969389957472,-0.006544984694978736,0.014180800172453928,0.001529694206147387,0.6011733484339796,0.6038713106252148,0,0,0,0,0,0,1500,1500,1500,1500,1500,1500
1748733014.937843,0.15,0.38,-0.62,-0.006544984694978736,0.011999138607461015,-0.007635815477475192,0.0012760431894009601,0.6011324674738805,0.6042972248483094,0,0,0,0,0,0,1500,1500,1500,1500,1500,1500
1748733015.0221024,0.15,0.38,-0.62,-0.006544984694978736,0.011999138607461015,-0.007635815477475192,0.0012760431894009601,0.6011324674738805,0.6042972248483094,0,0,0,0,0,0,1500,1500,1500,1500,1500,1500
1748733015.1227062,0.21,0.21,-0.65,0.004363323129985824,0.009817477042468103,-0.006544984694978736,0.0012796539944150704,0.6011715415165042,0.6047047865612998,0,0,0,0,0,0,1500,1500,1500,1500,1500,1500
1748733015.2225444,0.21,0.21,-0.65,0.004363323129985824,0.009817477042468103,-0.006544984694978736,0.0012796539944150704,0.6011715415165042,0.6047047865612998,0,0,0,0,0,0,1500,1500,1500,1500,1500,1500
1748733015.306036,0.09,0.14,-0.06,-0.00545415391248228,-0.004363323129985824,0.003272492347489368,0.0011401795230658992,0.6008084959002125,0.6046286498029524,0,0,0,0,0,0,1500,1500,1500,1500,1500,1500
1748733015.407236,0.06,0.02,-0.03,-0.002181661564992912,-0.001090830782496456,0.001090830782496456,0.001410012703990167,0.600724371172368,0.604697473722747,0,0,0,0,0,0,1500,1500,1500,1500,1500,1500
1748733015.5060024,0.06,0.02,-0.03,-0.002181661564992912,-0.001090830782496456,0.001090830782496456,0.001410012703990167,0.600724371172368,0.604697473722747,0,0,0,0,0,0,1500,1500,1500,1500,1500,1500
1748733015.6058102,0.05,0.06,-0.07,-0.001090830782496456,-0.003272492347489368,-0.002181661564992912,0.001586744547099966,0.6006952438671778,0.604890727070305,0,0,0,0,0,0,1500,1500,1500,1500,1500,1500
1748733015.7054358,0.05,0.06,-0.07,-0.001090830782496456,-0.003272492347489368,-0.002181661564992912,0.001586744547099966,0.6006952438671778,0.604890727070305,0,0,0,0,0,0,1500,1500,1500,1500,1500,1500
1748733015.7879684,0.04,0.07,-0.05,0.0,0.002181661564992912,-0.001090830782496456,0.001624309767546098,0.6004251237029328,0.6048858795098476,0,0,0,0,0,0,1500,1500,1500,1500,1500,1500
1748733015.8897798,0.09,-0.02,0.0,0.019634954084936207,-0.00545415391248228,-0.03599741582238305,0.002089403445585437,0.5991153909908274,0.6038377544504382,0,0,0,0,0,0,1500,1500,1500,1500,1500,1500
1748733015.9881208,0.09,-0.02,0.0,0.019634954084936207,-0.00545415391248228,-0.03599741582238305,0.002089403445585437,0.5991153909908274,0.6038377544504382,0,0,0,0,0,0,1500,1500,1500,1500,1500,1500
1748733016.0716813,0.09,-0.16,-0.01,0.00545415391248228,0.02399827721492203,-0.003272492347489368,0.0024070842173913474,0.6003086418444143,0.5976372794763403,0,0,0,0,0,0,1500,1500,1500,1500,1500,1500
1748733016.171693,0.09,-0.16,-0.01,0.00545415391248228,0.02399827721492203,-0.003272492347489368,0.0024070842173913474,0.6003086418444143,0.5976372794763403,0,0,0,0,0,0,1500,1500,1500,1500,1500,1500
1748733016.2558174,0.07,0.0,-0.03,-0.004363323129985824,-0.06326818538479445,-0.007635815477475192,0.002614798671975232,0.5972577094412956,0.5973856586587899,0,0,0,0,0,0,1500,1500,1500,1500,1500,1500
1748733016.3565724,-0.1,0.2,-0.07,0.044724062082354694,-0.017453292519943295,-0.06763150851478027,0.0025214268074203374,0.5920051546674583,0.595002210427459,0,0,0,0,0,0,1500,1500,1500,1500,1500,1500
1748733016.4569707,-0.1,0.2,-0.07,0.044724062082354694,-0.017453292519943295,-0.06763150851478027,0.0025214268074203374,0.5920051546674583,0.595002210427459,0,0,0,0,0,0,1500,1500,1500,1500,1500,1500
1748733016.5566106,0.04,-0.2,0.15,0.002181661564992912,-0.08944812416470939,-0.018544123302439753,-0.014583838119094812,0.5892084241384482,0.5783728889018809,0,0,0,0,0,0,1500,1500,1500,1500,1500,1500
1748733016.6555188,0.04,-0.2,0.15,0.002181661564992912,-0.08944812416470939,-0.018544123302439753,-0.014583838119094812,0.5892084241384482,0.5783728889018809,0,0,0,0,0,0,1500,1500,1500,1500,1500,1500
1748733016.7559109,0.06,-0.18,0.07,0.009817477042468103,0.002181661564992912,-0.031634092692397225,0.0019614828895671795,0.5769333914202698,0.5767825872413361,0,0,0,0,0,0,1500,1500,1500,1500,1500,1500
1748733016.8570805,0.16,0.01,0.17,0.00545415391248228,0.08944812416470939,-0.004363323129985824,0.0011792730573577136,0.5818488521321656,0.5738258300231486,0,0,0,0,0,0,1500,1500,1500,1500,1500,1500
1748733016.9561822,0.16,0.01,0.17,0.00545415391248228,0.08944812416470939,-0.004363323129985824,0.0011792730573577136,0.5818488521321656,0.5738258300231486,0,0,0,0,0,0,1500,1500,1500,1500,1500,1500
1748733017.0394397,0.06,0.05,0.05,-0.001090830782496456,0.14508049407202864,-0.003272492347489368,0.0014356250151219957,0.6001454745063282,0.573962030100449,0,0,0,0,0,0,1500,1500,1500,1500,1500,1500
1748733017.1346648,-0.14,-0.04,-0.18,0.002181661564992912,-0.003272492347489368,0.0,0.0013308186904025388,0.6147256559461202,0.5739629398821444,0,0,0,0,0,0,1500,1500,1500,1500,1500,1500
1748733017.2384372,-0.14,-0.04,-0.18,0.002181661564992912,-0.003272492347489368,0.0,0.0013308186904025388,0.6147256559461202,0.5739629398821444,0,0,0,0,0,0,1500,1500,1500,1500,1500,1500
1748733017.3382661,-0.04,0.27,0.15,0.06763150851478027,-0.032724923474893676,-0.02399827721492203,0.0036799882875125445,0.6090167029068099,0.5718789956943727,0,0,0,0,0,0,1500,1500,1500,1500,1500,1500
1748733017.438469,-0.04,0.27,0.15,0.06763150851478027,-0.032724923474893676,-0.02399827721492203,0.0036799882875125445,0.6090167029068099,0.5718789956943727,0,0,0,0,0,0,1500,1500,1500,1500,1500,1500
1748733017.5222366,0.16,-0.02,-0.09,0.00545415391248228,-0.025089107997418487,-0.014180800172453928,0.00421934594396745,0.6050812415024707,0.5696969012519608,0,0,0,0,0,0,1500,1500,1500,1500,1500,1500
1748733017.6209073,-0.09,-0.48,0.21,0.05672320068981571,-0.02181661564992912,-0.06217735460229799,0.0039125986398283776,0.5980232395743248,0.5658707847744282,0,0,0,0,0,0,1500,1500,1500,1500,1500,1500
1748733017.7213633,-0.09,-0.48,0.21,0.05672320068981571,-0.02181661564992912,-0.06217735460229799,0.0039125986398283776,0.5980232395743248,0.5658707847744282,0,0,0,0,0,0,1500,1500,1500,1500,1500,1500
1748733017.8058524,-0.22,-0.01,-0.04,0.004363323129985824,0.04690572364734761,-0.011999138607461015,0.004468111701206559,0.6004956132838751,0.5593614882990873,0,0,0,0,0,0,1500,1500,1500,1500,1500,1500
1748733017.9055798,-0.22,-0.01,-0.04,0.004363323129985824,0.04690572364734761,-0.011999138607461015,0.004468111701206559,0.6004956132838751,0.5593614882990873,0,0,0,0,0,0,1500,1500,1500,1500,1500,1500
1748733018.0054524,-0.3,-0.05,-0.08,-0.001090830782496456,0.039269908169872414,0.006544984694978736,0.004220227231729621,0.6061626315970455,0.5609985367814075,0,0,0,0,0,0,1500,1500,1500,1500,1500,1500
1748733018.1052842,-0.07,-0.06,-0.18,-0.006544984694978736,0.04799655442984406,0.018544123302439753,0.0030232237468230993,0.6115898213356403,0.5673696484865118,0,0,0,0,0,0,1500,1500,1500,1500,1500,1500
1748733018.2049775,-0.07,-0.06,-0.18,-0.006544984694978736,0.04799655442984406,0.018544123302439753,0.0030232237468230993,0.6115898213356403,0.5673696484865118,0,0,0,0,0,0,1500,1500,1500,1500,1500,1500
1748733018.2884796,0.01,-0.21,-0.17,0.03490658503988659,0.007635815477475192,-0.07308566242726255,0.0034463288737615148,0.6157394920611504,0.5599044441045136,0,0,0,0,0,0,1500,1500,1500,1500,1500,1500
1748733018.3872006,0.01,-0.21,-0.17,0.03490658503988659,0.007635815477475192,-0.07308566242726255,0.0034463288737615148,0.6157394920611504,0.5599044441045136,0,0,0,0,0,0,1500,1500,1500,1500,1500,1500
1748733018.4877172,0.24,-0.05,0.27,0.04254240051736178,-0.01090830782496456,-0.061086523819801536,0.002565593273589461,0.6113790786173187,0.5560238711613869,0,0,0,0,0,0,1500,1500,1500,1500,1500,1500
1748733018.5716407,0.0,0.06,-0.01,-0.05126904677733343,0.05781403147231216,0.06763150851478027,0.0018578907541244498,0.618035802890816,0.5524019958444136,0,0,0,0,0,0,1500,1500,1500,1500,1500,1500
1748733018.6721106,0.0,0.06,-0.01,-0.05126904677733343,0.05781403147231216,0.06763150851478027,0.0018578907541244498,0.618035802890816,0.5524019958444136,0,0,0,0,0,0,1500,1500,1500,1500,1500,1500
1748733018.7559202,0.22,-0.04,-0.26,-0.01090830782496456,-0.013089969389957472,0.02181661564992912,0.001835827019771755,0.6227501981433231,0.5585763014181319,0,0,0,0,0,0,1500,1500,1500,1500,1500,1500
1748733018.8566563,0.22,-0.04,-0.26,-0.01090830782496456,-0.013089969389957472,0.02181661564992912,0.001835827019771755,0.6227501981433231,0.5585763014181319,0,0,0,0,0,0,1500,1500,1500,1500,1500,1500
1748733018.9559126,-0.04,-0.24,0.43,-0.00545415391248228,-0.07417649320975901,0.022907446432425576,0.003003366683609299,0.6120805103119238,0.5635692620018445,0,0,0,0,0,0,1500,1500,1500,1500,1500,1500
1748733019.039403,0.08,0.35000000000000003,0.47000000000000003,0.022907446432425576,0.025089107997418487,0.009817477042468103,0.0024202007828556483,0.6097534471057144,0.564215648450923,0,0,0,0,0,0,1500,1500,1500,1500,1500,1500
1748733019.1378243,0.08,0.35000000000000003,0.47000000000000003,0.022907446432425576,0.025089107997418487,0.009817477042468103,0.0024202007828556483,0.6097534471057144,0.564215648450923,0,0,0,0,0,0,1500,1500,1500,1500,1500,1500
1748733019.2377925,0.03,0.0,-0.19,-0.0272707695624114,0.044724062082354694,0.032724923474893676,0.001565028285131922,0.6158945455782561,0.565980859241099,0,0,0,0,0,0,1500,1500,1500,1500,1500,1500
1748733019.3214908,0.03,0.0,-0.19,-0.0272707695624114,0.044724062082354694,0.032724923474893676,0.001565028285131922,0.6158945455782561,0.565980859241099,0,0,0,0,0,0,1500,1500,1500,1500,1500,1500
1748733019.421096,0.21,0.14,0.1,-0.004363323129985824,0.01090830782496456,0.004363323129985824,0.0015329682374828975,0.6204991772403171,0.5721604675396451,0,0,0,0,0,0,1500,1500,1500,1500,1500,1500
1748733019.5068676,-0.03,0.01,-0.12,0.001090830782496456,-0.03490658503988659,0.00545415391248228,0.0016868548910447985,0.6195544784802134,0.5726457972455872,0,0,0,0,0,0,1500,1500,1500,1500,1500,1500
1748733019.6079612,-0.03,0.01,-0.12,0.001090830782496456,-0.03490658503988659,0.00545415391248228,0.0016868548910447985,0.6195544784802134,0.5726457972455872,0,0,0,0,0,0,1500,1500,1500,1500,1500,1500
1748733019.7051709,0.09,0.01,0.06,0.0,-0.03490658503988659,0.0,0.001959290802851709,0.6121702528051003,0.572855274761047,0,0,0,0,0,0,1500,1500,1500,1500,1500,1500
1748733019.7886355,0.09,0.01,0.06,0.0,-0.03490658503988659,0.0,0.001959290802851709,0.6121702528051003,0.572855274761047,0,0,0,0,0,0,1500,1500,1500,1500,1500,1500
1748733019.8884544,-0.16,-0.26,-0.07,0.001090830782496456,-0.031634092692397225,-0.004363323129985824,0.0023008397636478882,0.6087301577894421,0.572899761179003,0,0,0,0,0,0,1500,1500,1500,1500,1500,1500
1748733019.9839413,-0.07,-0.01,-0.05,0.001090830782496456,0.02181661564992912,-0.002181661564992912,0.0027709231741217676,0.6063468226910661,0.5732181336239367,0,0,0,0,0,0,1500,1500,1500,1500,1500,1500
1748733020.0711997,-0.07,-0.01,-0.05,0.001090830782496456,0.02181661564992912,-0.002181661564992912,0.0027709231741217676,0.6063468226910661,0.5732181336239367,0,0,0,0,0,0,1500,1500,1500,1500,1500,1500
1748733020.171707,0.14,-0.02,-0.05,0.001090830782496456,-0.00545415391248228,0.004363323129985824,0.003082139888415469,0.6081061292449224,0.5733232711184599,0,0,0,0,0,0,1500,1500,1500,1500,1500,1500
1748733020.2726476,0.14,-0.02,-0.05,0.001090830782496456,-0.00545415391248228,0.004363323129985824,0.003082139888415469,0.6081061292449224,0.5733232711184599,0,0,0,0,0,0,1500,1500,1500,1500,1500,1500
1748733020.3711216,0.03,0.06,-0.08,-0.015271630954950384,0.015271630954950384,0.006544984694978736,0.0025325071004175456,0.608795894252067,0.5730959486024995,0,0,0,0,0,0,1500,1500,1500,1500,1500,1500
1748733020.458194,0.02,0.05,-0.08,-0.002181661564992912,-0.003272492347489368,0.003272492347489368,0.0024309991822205174,0.6097839844886821,0.5731728000772063,0,0,0,0,0,0,1500,1500,1500,1500,1500,1500
1748733020.556441,0.02,0.05,-0.08,-0.002181661564992912,-0.003272492347489368,0.003272492347489368,0.0024309991822205174,0.6097839844886821,0.5731728000772063,0,0,0,0,0,0,1500,1500,1500,1500,1500,1500
1748733020.6554759,0.03,0.1,-0.06,-0.002181661564992912,0.01090830782496456,-0.001090830782496456,0.002526884579166064,0.6096076309948333,0.5731727824164629,0,0,0,0,0,0,1500,1500,1500,1500,1500,1500
1748733020.7553952,0.03,0.1,-0.06,-0.002181661564992912,0.01090830782496456,-0.001090830782496456,0.002526884579166064,0.6096076309948333,0.5731727824164629,0,0,0,0,0,0,1500,1500,1500,1500,1500,1500
1748733020.8555195,-0.42,0.09,-0.05,0.002181661564992912,-0.00545415391248228,0.001090830782496456,0.002705976764951269,0.6095799871342931,0.5733667957194396,0,0,0,0,0,0,1500,1500,1500,1500,1500,1500
1748733020.955408,0.37,-0.26,0.29,0.02181661564992912,-0.016362461737446838,-0.020725784867432664,0.0029757569806692663,0.6096235977938369,0.5733170455868363,0,0,0,0,0,0,1500,1500,1500,1500,1500,1500
1748733021.0381792,0.37,-0.26,0.29,0.02181661564992912,-0.016362461737446838,-0.020725784867432664,0.0029757569806692663,0.6096235977938369,0.5733170455868363,0,0,0,0,0,0,1500,1500,1500,1500,1500,1500
1748733021.1384997,0.0,0.58,0.15,-0.004363323129985824,-0.014180800172453928,-0.008726646259971648,0.004004658492726389,0.6095812048342055,0.5732377120003538,0,0,0,0,0,0,1500,1500,1500,1500,1500,1500
1748733021.2383606,0.0,0.58,0.15,-0.004363323129985824,-0.014180800172453928,-0.008726646259971648,0.004004658492726389,0.6095812048342055,0.5732377120003538,0,0,0,0,0,0,1500,1500,1500,1500,1500,1500
1748733021.3377004,-0.03,-0.42,0.39,0.0,0.002181661564992912,0.01090830782496456,0.004296432506680903,0.6076645807970842,0.5738019842893998,0,0,0,0,0,0,1500,1500,1500,1500,1500,1500
1748733021.4384203,0.07,0.31,0.1,-0.001090830782496456,-0.011999138607461015,0.00545415391248228,0.00392682256909459,0.6074810014745635,0.5732879136656126,0,0,0,0,0,0,1500,1500,1500,1500,1500,1500
1748733021.538447,0.07,0.31,0.1,-0.001090830782496456,-0.011999138607461015,0.00545415391248228,0.00392682256909459,0.6074810014745635,0.5732879136656126,0,0,0,0,0,0,1500,1500,1500,1500,1500,1500
1748733021.6370435,-0.05,0.7000000000000001,0.33,-0.01090830782496456,-0.001090830782496456,0.009817477042468103,0.00370515492690013,0.6066384795135278,0.5734187903212324,0,0,0,0,0,0,1500,1500,1500,1500,1500,1500
1748733021.733963,0.01,-0.22,-0.17,-0.00545415391248228,0.002181661564992912,0.007635815477475192,0.003722746958530444,0.60578503903344,0.5733085831155499,0,0,0,0,0,0,1500,1500,1500,1500,1500,1500
1748733021.821524,0.01,-0.22,-0.17,-0.00545415391248228,0.002181661564992912,0.007635815477475192,0.003722746958530444,0.60578503903344,0.5733085831155499,0,0,0,0,0,0,1500,1500,1500,1500,1500,1500
1748733021.922788,0.1,-0.1,0.0,0.001090830782496456,-0.004363323129985824,0.004363323129985824,0.003768406094758927,0.6051103934733241,0.5732680526405125,0,0,0,0,0,0,1500,1500,1500,1500,1500,1500
1748733022.005739,0.1,-0.1,0.0,0.001090830782496456,-0.004363323129985824,0.004363323129985824,0.003768406094758927,0.6051103934733241,0.5732680526405125,0,0,0,0,0,0,1500,1500,1500,1500,1500,1500
1748733022.1059012,0.07,0.0,0.0,0.0,0.001090830782496456,0.00545415391248228,0.0038516907547723857,0.6049769858917478,0.5733015271176556,0,0,0,0,0,0,1500,1500,1500,1500,1500,1500
1748733022.20519,0.07,0.0,0.0,0.0,0.001090830782496456,0.00545415391248228,0.0038516907547723857,0.6049769858917478,0.5733015271176556,0,0,0,0,0,0,1500,1500,1500,1500,1500,1500
1748733022.2877598,0.0,0.02,-0.03,0.001090830782496456,-0.002181661564992912,0.001090830782496456,0.004029991898373236,0.6049492406174676,0.5734947666214273,0,0,0,0,0,0,1500,1500,1500,1500,1500,1500
1748733022.3877583,0.07,0.04,-0.03,0.0,-0.001090830782496456,0.0,0.0041307025860757044,0.6039630482597738,0.5734183357540049,0,0,0,0,0,0,1500,1500,1500,1500,1500,1500
1748733022.4895637,0.07,0.04,-0.03,0.0,-0.001090830782496456,0.0,0.0041307025860757044,0.6039630482597738,0.5734183357540049,0,0,0,0,0,0,1500,1500,1500,1500,1500,1500
1748733022.5893805,0.01,0.01,-0.07,0.002181661564992912,0.00545415391248228,-0.004363323129985824,0.004400098998389006,0.6040068060354261,0.5733678636109081,0,0,0,0,0,0,1500,1500,1500,1500,1500,1500
1748733022.6872153,0.02,0.01,0.0,-0.004363323129985824,0.008726646259971648,-0.1407171709420428,0.004574609903554304,0.6039449987884913,0.5731577533880191,0,0,0,0,0,0,1500,1500,1500,1500,1500,1500
1748733022.7728004,0.02,0.01,0.0,-0.004363323129985824,0.008726646259971648,-0.1407171709420428,0.004574609903554304,0.6039449987884913,0.5731577533880191,0,0,0,0,0,0,1500,1500,1500,1500,1500,1500
1748733022.875458,0.03,0.0,-0.09,0.016362461737446838,-0.006544984694978736,-0.025089107997418487,0.004334979436117679,0.6047927791907285,0.5715522617131286,0,0,0,0,0,0,1500,1500,1500,1500,1500,1500
1748733022.9719267,0.03,0.0,-0.09,0.016362461737446838,-0.006544984694978736,-0.025089107997418487,0.004334979436117679,0.6047927791907285,0.5715522617131286,0,0,0,0,0,0,1500,1500,1500,1500,1500,1500
1748733023.05483,0.02,0.05,-0.1,0.002181661564992912,-0.032724923474893676,0.001090830782496456,0.004204353807069904,0.6021104466620237,0.5693992033502802,0,0,0,0,0,0,1500,1500,1500,1500,1500,1500
1748733023.1556125,0.02,0.05,-0.1,0.002181661564992912,-0.032724923474893676,0.001090830782496456,0.004204353807069904,0.6021104466620237,0.5693992033502802,0,0,0,0,0,0,1500,1500,1500,1500,1500,1500
1748733023.2571275,0.02,-0.08,0.04,0.015271630954950384,-0.032724923474893676,-0.017453292519943295,0.004118130035516159,0.5965789726566333,0.5683260190151178,0,0,0,0,0,0,1500,1500,1500,1500,1500,1500
1748733023.3557565,,,,0.01090830782496456,-0.04145156973486533,-0.001090830782496456,0.00547152461959842,0.5904338734109427,0.5664475364246986,0,0,0,0,0,0,1500,1500,1500,1500,1500,1500
1748733023.4566908,,,,0.01090830782496456,-0.04145156973486533,-0.001090830782496456,0.00547152461959842,0.5904338734109427,0.5664475364246986,0,0,0,0,0,0,1500,1500,1500,1500,1500,1500
1748733023.538153,0.07,0.03,0.04,-0.004363323129985824,0.0,-0.002181661564992912,0.005943501210131186,0.5879105358501318,0.5664954614882479,0,0,0,0,0,0,1500,1500,1500,1500,1500,1500
1748733023.632549,0.02,0.02,-0.07,0.0,0.002181661564992912,-0.001090830782496456,0.005847040965427257,0.5882078896513865,0.5663736316502468,0,0,0,0,0,0,1500,1500,1500,1500,1500,1500
1748733023.7382166,0.02,0.02,-0.07,0.0,0.002181661564992912,-0.001090830782496456,0.005847040965427257,0.5882078896513865,0.5663736316502468,0,0,0,0,0,0,1500,1500,1500,1500,1500,1500
1748733023.8226385,0.02,0.03,-0.04,-0.002181661564992912,-0.013089969389957472,0.001090830782496456,0.005943501210131186,0.5879105358501318,0.5664954614882479,0,0,0,0,0,0,1500,1500,1500,1500,1500,1500
1748733023.9237816,0.02,0.03,-0.04,-0.002181661564992912,-0.013089969389957472,0.001090830782496456,0.005943501210131186,0.5879105358501318,0.5664954614882479,0,0,0,0,0,0,1500,1500,1500,1500,1500,1500
1748733024.0228624,0.01,0.0,-0.01,0.002181661564992912,-0.011999138607461015,0.0,0.005922920284066656,0.5860420273637811,0.5664425948623522,0,0,0,0,0,0,1500,1500,1500,1500,1500,1500
1748733024.1228786,0.02,0.0,-0.06,-0.002181661564992912,-0.00545415391248228,-0.001090830782496456,0.005911491417293419,0.5860827803090716,0.5664755713330724,0,0,0,0,0,0,1500,1500,1500,1500,1500,1500
1748733024.2216935,0.02,0.0,-0.06,-0.002181661564992912,-0.00545415391248228,-0.001090830782496456,0.005911491417293419,0.5860827803090716,0.5664755713330724,0,0,0,0,0,0,1500,1500,1500,1500,1500,1500
1748733024.3050618,0.06,0.01,0.02,0.002181661564992912,-0.006544984694978736,-0.008726646259971648,0.005615128985592746,0.5859528254556001,0.5659402853188925,0,0,0,0,0,0,1500,1500,1500,1500,1500,1500
1748733024.4050617,0.06,0.01,0.02,0.002181661564992912,-0.006544984694978736,-0.008726646259971648,0.005615128985592746,0.5859528254556001,0.5659402853188925,0,0,0,0,0,0,1500,1500,1500,1500,1500,1500
1748733024.504149,0.02,0.06,-0.05,-0.004363323129985824,0.017453292519943295,0.002181661564992912,0.005579336235985229,0.5881300844676732,0.5660262833466884,0,0,0,0,0,0,1500,1500,1500,1500,1500,1500
1748733024.6101887,0.07,0.0,0.05,-0.002181661564992912,0.002181661564992912,-0.001090830782496456,0.005624413411316979,0.588750202219857,0.5659410604767982,0,0,0,0,0,0,1500,1500,1500,1500,1500,1500
1748733024.7078218,0.07,0.0,0.05,-0.002181661564992912,0.002181661564992912,-0.001090830782496456,0.005624413411316979,0.588750202219857,0.5659410604767982,0,0,0,0,0,0,1500,1500,1500,1500,1500,1500
1748733024.8062794,-0.03,0.05,-0.14,0.0,0.0,0.0,0.005699019716843297,0.5894229735191259,0.5660448545598643,0,0,0,0,0,0,1500,1500,1500,1500,1500,1500
1748733024.9078944,-0.03,0.05,-0.14,0.0,0.0,0.0,0.005699019716843297,0.5894229735191259,0.5660448545598643,0,0,0,0,0,0,1500,1500,1500,1500,1500,1500
1748733025.0004299,0.06,0.02,0.01,-0.002181661564992912,-0.00545415391248228,0.001090830782496456,0.005634960285735615,0.5878212677845904,0.5659924333018125,0,0,0,0,0,0,1500,1500,1500,1500,1500,1500
1748733025.0885663,0.03,0.04,-0.05,-0.002181661564992912,0.002181661564992912,0.001090830782496456,0.005634960285735615,0.5878212677845904,0.5659924333018125,0,0,0,0,0,0,1500,1500,1500,1500,1500,1500
1748733025.1890204,0.03,0.04,-0.05,-0.002181661564992912,0.002181661564992912,0.001090830782496456,0.005634960285735615,0.5878212677845904,0.5659924333018125,0,0,0,0,0,0,1500,1500,1500,1500,1500,1500
1748733025.2740245,0.0,0.01,-0.06,-0.001090830782496456,0.001090830782496456,0.001090830782496456,0.005634960285735615,0.5878212677845904,0.5659924333018125,0,0,0,0,0,0,1500,1500,1500,1500,1500,1500
1748733025.3753822,0.0,0.01,-0.06,-0.001090830782496456,0.001090830782496456,0.001090830782496456,0.005634960285735615,0.5878212677845904,0.5659924333018125,0,0,0,0,0,0,1500,1500,1500,1500,1500,1500
1748733025.4606197,0.02,0.05,0.07,0.016362461737446838,-0.020725784867432664,-0.01090830782496456,-2.9304741884943692,-1.5707963267948966,2.9933626342044506,0,0,0,0,0,0,1500,1500,1500,1500,1500,1500
1748733025.5556502,0.02,-0.01,-0.04,0.0,0.014180800172453928,0.0,0.005536423091057187,0.5849450451689149,0.5645167852390858,0,0,0,0,0,0,1500,1500,1500,1500,1500,1500
1748733025.656913,0.02,-0.01,-0.04,0.0,0.014180800172453928,0.0,0.005536423091057187,0.5849450451689149,0.5645167852390858,0,0,0,0,0,0,1500,1500,1500,1500,1500,1500
1748733025.7429028,0.03,0.05,-0.04,-0.001090830782496456,-0.008726646259971648,0.002181661564992912,0.005530118073144399,0.5854707078755332,0.5644296460021772,0,0,0,0,0,0,1500,1500,1500,1500,1500,1500
1748733025.838149,0.03,0.05,-0.04,-0.001090830782496456,-0.008726646259971648,0.002181661564992912,0.005530118073144399,0.5854707078755332,0.5644296460021772,0,0,0,0,0,0,1500,1500,1500,1500,1500,1500
1748733025.9395032,0.02,0.05,-0.05,-0.002181661564992912,-0.001090830782496456,-0.001090830782496456,0.005531419954659403,0.5853473935759409,0.5645512132222953,0,0,0,0,0,0,1500,1500,1500,1500,1500,1500
1748733026.0271878,0.02,0.05,-0.05,-0.002181661564992912,-0.001090830782496456,-0.001090830782496456,0.005531419954659403,0.5853473935759409,0.5645512132222953,0,0,0,0,0,0,1500,1500,1500,1500,1500,1500
1748733026.1254487,0.03,0.02,-0.03,-0.002181661564992912,-0.004363323129985824,0.0,0.005531419954659403,0.5853473935759409,0.5645512132222953,0,0,0,0,0,0,1500,1500,1500,1500,1500,1500
1748733026.2240736,0.03,0.0,-0.01,0.0,-0.002181661564992912,0.002181661564992912,0.005492027754410244,0.5852126934966362,0.5645173087325157,0,0,0,0,0,0,1500,1500,1500,1500,1500,1500
1748733026.326078,0.03,0.0,-0.01,0.0,-0.002181661564992912,0.002181661564992912,0.005492027754410244,0.5852126934966362,0.5645173087325157,0,0,0,0,0,0,1500,1500,1500,1500,1500,1500
1748733026.4230313,0.03,0.06,-0.04,-0.002181661564992912,-0.008726646259971648,-0.001090830782496456,0.005492027754410244,0.5852126934966362,0.5645173087325157,0,0,0,0,0,0,1500,1500,1500,1500,1500,1500
1748733026.5072138,0.03,0.06,-0.04,-0.002181661564992912,-0.008726646259971648,-0.001090830782496456,0.005492027754410244,0.5852126934966362,0.5645173087325157,0,0,0,0,0,0,1500,1500,1500,1500,1500,1500
1748733026.6044888,0.04,0.04,-0.05,0.0,0.00545415391248228,-0.002181661564992912,0.005531419954659403,0.5853473935759409,0.5645512132222953,0,0,0,0,0,0,1500,1500,1500,1500,1500,1500
1748733026.7050445,0.05,0.05,-0.02,0.001090830782496456,-0.001090830782496456,-0.001090830782496456,0.005531419954659403,0.5853473935759409,0.5645512132222953,0,0,0,0,0,0,1500,1500,1500,1500,1500,1500
1748733026.7879722,0.05,0.05,-0.02,0.001090830782496456,-0.001090830782496456,-0.001090830782496456,0.005531419954659403,0.5853473935759409,0.5645512132222953,0,0,0,0,0,0,1500,1500,1500,1500,1500,1500
1748733026.8881347,0.07,0.01,0.03,0.002181661564992912,-0.006544984694978736,0.001090830782496456,0.005531419954659403,0.5853473935759409,0.5645512132222953,0,0,0,0,0,0,1500,1500,1500,1500,1500,1500
1748733026.9898036,0.06,0.03,-0.02,-0.001090830782496456,0.006544984694978736,0.0,0.005531419954659403,0.5853473935759409,0.5645512132222953,0,0,0,0,0,0,1500,1500,1500,1500,1500,1500
1748733027.0880961,0.06,0.03,-0.02,-0.001090830782496456,0.006544984694978736,0.0,0.005531419954659403,0.5853473935759409,0.5645512132222953,0,0,0,0,0,0,1500,1500,1500,1500,1500,1500
1748733027.189477,0.05,0.06,-0.02,0.001090830782496456,-0.007635815477475192,0.0,0.005531419954659403,0.5853473935759409,0.5645512132222953,0,0,0,0,0,0,1500,1500,1500,1500,1500,1500
1748733027.279851,0.05,0.06,-0.02,0.001090830782496456,-0.007635815477475192,0.0,0.005531419954659403,0.5853473935759409,0.5645512132222953,0,0,0,0,0,0,1500,1500,1500,1500,1500,1500
1748733027.3730044,0.04,0.03,-0.02,-0.003272492347489368,0.003272492347489368,0.0,0.005531419954659403,0.5853473935759409,0.5645512132222953,0,0,0,0,0,0,1500,1500,1500,1500,1500,1500
1748733027.4648917,0.09,0.0,0.02,-0.001090830782496456,-0.008726646259971648,0.001090830782496456,0.005575811379626391,0.5850797303000099,0.5645506715972941,0,0,0,0,0,0,1500,1500,1500,1500,1500,1500
1748733027.5546124,0.09,0.0,0.02,-0.001090830782496456,-0.008726646259971648,0.001090830782496456,0.005575811379626391,0.5850797303000099,0.5645506715972941,0,0,0,0,0,0,1500,1500,1500,1500,1500,1500
1748733027.6540678,0.07,-0.01,0.0,0.0,0.006544984694978736,0.0,0.005575811379626391,0.5850797303000099,0.5645506715972941,0,0,0,0,0,0,1500,1500,1500,1500,1500,1500
1748733027.7547567,0.07,-0.01,0.0,0.0,0.006544984694978736,0.0,0.005575811379626391,0.5850797303000099,0.5645506715972941,0,0,0,0,0,0,1500,1500,1500,1500,1500,1500
1748733027.8547578,0.05,0.07,-0.01,0.001090830782496456,-0.001090830782496456,0.0,0.005575811379626391,0.5850797303000099,0.5645506715972941,0,0,0,0,0,0,1500,1500,1500,1500,1500,1500
1748733027.9470892,0.1,0.05,0.01,0.0,-0.004363323129985824,0.0,0.005536423091057187,0.5849450451689149,0.5645167852390858,0,0,0,0,0,0,1500,1500,1500,1500,1500,1500
1748733028.037504,0.1,0.05,0.01,0.0,-0.004363323129985824,0.0,0.005536423091057187,0.5849450451689149,0.5645167852390858,0,0,0,0,0,0,1500,1500,1500,1500,1500,1500
1748733028.1380987,0.08,0.03,-0.05,-0.001090830782496456,0.0,0.001090830782496456,0.005575811379626391,0.5850797303000099,0.5645506715972941,0,0,0,0,0,0,1500,1500,1500,1500,1500,1500
1748733028.2384334,0.08,0.03,-0.05,-0.001090830782496456,0.0,0.001090830782496456,0.005575811379626391,0.5850797303000099,0.5645506715972941,0,0,0,0,0,0,1500,1500,1500,1500,1500,1500
1748733028.3377895,0.08,0.0,-0.02,0.0,0.00545415391248228,0.001090830782496456,0.005575811379626391,0.5850797303000099,0.5645506715972941,0,0,0,0,0,0,1500,1500,1500,1500,1500,1500
1748733028.4283597,0.08,0.03,0.0,-0.001090830782496456,-0.00545415391248228,-0.001090830782496456,0.005575811379626391,0.5850797303000099,0.5645506715972941,0,0,0,0,0,0,1500,1500,1500,1500,1500,1500
