time,ay,ax,az,gy,gx,gz,roll,pitch,yaw,cmd_fx,cmd_fy,cmd_fz,cmd_tx,cmd_ty,cmd_tz,pwm_1,pwm_2,pwm_3,pwm_4,pwm_5,pwm_6
1747549632.7777965,0.0,0.0,0.0,0.0,0.0,0.0,0.0,0.0,0.0,0.0,0.0,0.0,0.0,0.0,0.0,1500,1500,1500,1500,1500,1500
1747549632.883782,0.05,-0.01,-0.34,-0.002181661564992912,-0.001090830782496456,-0.002181661564992912,-0.007966063437533479,0.10221981366475169,-0.00040747569373408485,0.0,0.0,0.0,0.0,0.0,0.0,1500,1500,1500,1500,1500,1500
1747549632.9958916,0.05,-0.01,-0.34,-0.002181661564992912,-0.001090830782496456,-0.002181661564992912,-0.007966063437533479,0.10221981366475169,-0.00040747569373408485,0.0,0.0,0.0,0.0,0.0,0.0,1500,1500,1500,1500,1500,1500
1747549633.1186395,0.05,0.02,-0.36,0.001090830782496456,0.001090830782496456,0.001090830782496456,-0.007966063437533479,0.10221981366475169,-0.00040747569373408485,0.0,0.0,0.0,0.0,0.0,0.0,1500,1500,1500,1500,1500,1500
1747549633.2430058,0.05,0.0,-0.31,-0.001090830782496456,-0.004363323129985824,0.001090830782496456,-0.007965963623283681,0.10209726086737947,-0.00040698376540459683,0.0,0.0,0.0,0.0,0.0,0.0,1500,1500,1500,1500,1500,1500
1747549633.368558,0.02,0.01,-0.37,-0.001090830782496456,-0.002181661564992912,0.0,-0.007965963623283681,0.10209726086737947,-0.00040698376540459683,0.0,0.0,0.0,0.0,0.0,0.0,1500,1500,1500,1500,1500,1500
1747549633.473433,0.02,0.0,-0.3,0.003272492347489368,0.0,0.0,-0.007965963623283681,0.10209726086737947,-0.00040698376540459683,0.0,0.0,0.0,0.0,0.0,0.0,1500,1500,1500,1500,1500,1500
1747549633.5888338,0.02,0.0,-0.3,0.003272492347489368,0.0,0.0,-0.007965963623283681,0.10209726086737947,-0.00040698376540459683,0.0,0.0,0.0,0.0,0.0,0.0,1500,1500,1500,1500,1500,1500
1747549633.7152011,0.04,0.01,-0.35000000000000003,-0.001090830782496456,-0.003272492347489368,0.002181661564992912,-0.007965963623283681,0.10209726086737947,-0.00040698376540459683,0.0,0.0,0.0,0.0,0.0,0.0,1500,1500,1500,1500,1500,1500
1747549633.8407397,0.03,0.01,-0.31,0.0,-0.002181661564992912,0.0,-0.007965963623283681,0.10209726086737947,-0.00040698376540459683,0.0,0.0,0.0,0.0,0.0,0.0,1500,1500,1500,1500,1500,1500
1747549633.9455283,0.06,0.0,-0.32,0.0,0.004363323129985824,0.0,-0.007965963623283681,0.10209726086737947,-0.00040698376540459683,0.0,0.0,0.0,0.0,0.0,0.0,1500,1500,1500,1500,1500,1500
1747549634.061313,0.06,0.0,-0.32,0.0,0.004363323129985824,0.0,-0.007965963623283681,0.10209726086737947,-0.00040698376540459683,0.0,0.0,0.0,0.0,0.0,0.0,1500,1500,1500,1500,1500,1500
1747549634.1698391,0.04,0.01,-0.34,0.003272492347489368,0.002181661564992912,-0.001090830782496456,-0.007965963623283681,0.10209726086737947,-0.00040698376540459683,0.0,0.0,0.0,0.0,0.0,0.0,1500,1500,1500,1500,1500,1500
1747549634.263555,0.03,0.0,-0.3,0.001090830782496456,0.001090830782496456,0.001090830782496456,-0.007965963623283681,0.10209726086737947,-0.00040698376540459683,0.0,0.0,0.0,0.0,0.0,0.0,1500,1500,1500,1500,1500,1500
1747549634.3735025,0.03,0.0,-0.3,0.001090830782496456,0.001090830782496456,0.001090830782496456,-0.007965963623283681,0.10209726086737947,-0.00040698376540459683,0.0,0.0,0.0,0.0,0.0,0.0,1500,1500,1500,1500,1500,1500
1747549634.4826326,0.03,0.0,-0.33,-0.001090830782496456,0.0,0.001090830782496456,-0.007965963623283681,0.10209726086737947,-0.00040698376540459683,0.0,0.0,0.0,0.0,0.0,0.0,1500,1500,1500,1500,1500,1500
1747549634.579444,0.01,0.0,-0.29,0.0,-0.002181661564992912,0.0,-0.007965963623283681,0.10209726086737947,-0.00040698376540459683,0.0,0.0,0.0,0.0,0.0,0.0,1500,1500,1500,1500,1500,1500
1747549634.6832743,0.01,0.0,-0.29,0.0,-0.002181661564992912,0.0,-0.007965963623283681,0.10209726086737947,-0.00040698376540459683,0.0,0.0,0.0,0.0,0.0,0.0,1500,1500,1500,1500,1500,1500
1747549634.7918265,0.03,0.0,-0.38,0.001090830782496456,-0.001090830782496456,0.002181661564992912,-0.007965963623283681,0.10209726086737947,-0.00040698376540459683,0.0,0.0,0.0,0.0,0.0,0.0,1500,1500,1500,1500,1500,1500
1747549634.8926613,0.02,0.01,-0.31,0.0,0.001090830782496456,0.001090830782496456,-0.007965963623283681,0.10209726086737947,-0.00040698376540459683,0.0,0.0,0.0,0.0,0.0,0.0,1500,1500,1500,1500,1500,1500
1747549635.010424,0.02,0.01,-0.31,0.0,0.001090830782496456,0.001090830782496456,-0.007965963623283681,0.10209726086737947,-0.00040698376540459683,0.0,0.0,0.0,0.0,0.0,0.0,1500,1500,1500,1500,1500,1500
1747549635.1355438,0.04,-0.01,-0.35000000000000003,-0.003272492347489368,-0.004363323129985824,0.001090830782496456,-0.007965963623283681,0.10209726086737947,-0.00040698376540459683,0.0,0.0,0.0,0.0,0.0,0.0,1500,1500,1500,1500,1500,1500
1747549635.2462955,0.04,0.01,-0.36,-0.003272492347489368,0.0,0.002181661564992912,-0.007965963623283681,0.10209726086737947,-0.00040698376540459683,0.0,0.0,0.0,0.0,0.0,0.0,1500,1500,1500,1500,1500,1500
1747549635.353861,0.04,0.01,-0.36,-0.003272492347489368,0.0,0.002181661564992912,-0.007965963623283681,0.10209726086737947,-0.00040698376540459683,0.0,0.0,0.0,0.0,0.0,0.0,1500,1500,1500,1500,1500,1500
1747549635.4798362,0.01,-0.01,-0.27,0.001090830782496456,-0.002181661564992912,0.001090830782496456,-0.007965963623283681,0.10209726086737947,-0.00040698376540459683,0.0,0.0,0.0,0.0,0.0,0.0,1500,1500,1500,1500,1500,1500
1747549635.5878668,0.05,0.01,-0.3,0.0,0.004363323129985824,0.0,-0.007965963623283681,0.10209726086737947,-0.00040698376540459683,0.0,0.0,0.0,0.0,0.0,0.0,1500,1500,1500,1500,1500,1500
1747549635.683569,0.03,0.0,-0.31,0.001090830782496456,0.003272492347489368,0.001090830782496456,-0.007965963623283681,0.10209726086737947,-0.00040698376540459683,0.0,0.0,0.0,0.0,0.0,0.0,1500,1500,1500,1500,1500,1500
1747549635.7899299,0.03,0.0,-0.31,0.001090830782496456,0.003272492347489368,0.001090830782496456,-0.007965963623283681,0.10209726086737947,-0.00040698376540459683,0.0,0.0,0.0,0.0,0.0,0.0,1500,1500,1500,1500,1500,1500
1747549635.8994553,0.06,0.0,-0.37,-0.002181661564992912,-0.002181661564992912,-0.001090830782496456,-0.007965963623283681,0.10209726086737947,-0.00040698376540459683,0.0,0.0,0.0,0.0,0.0,0.0,1500,1500,1500,1500,1500,1500
1747549636.0079389,0.02,0.0,-0.3,-0.002181661564992912,-0.002181661564992912,-0.001090830782496456,-0.007965963623283681,0.10209726086737947,-0.00040698376540459683,0.0,0.0,0.0,0.0,0.0,0.0,1500,1500,1500,1500,1500,1500
1747549636.120392,0.02,0.0,-0.3,-0.002181661564992912,-0.002181661564992912,-0.001090830782496456,-0.007965963623283681,0.10209726086737947,-0.00040698376540459683,0.0,0.0,0.0,0.0,0.0,0.0,1500,1500,1500,1500,1500,1500
1747549636.2304802,0.04,0.0,-0.35000000000000003,0.002181661564992912,0.001090830782496456,0.002181661564992912,-0.007965963623283681,0.10209726086737947,-0.00040698376540459683,0.0,0.0,0.0,0.0,0.0,0.0,1500,1500,1500,1500,1500,1500
1747549636.3519347,0.03,0.0,-0.31,0.0,0.0,0.0,-3.1403914479244657,-1.5707963267948966,3.1392485216749164,0.0,0.0,0.0,0.0,0.0,0.0,1500,1500,1500,1500,1500,1500
1747549636.4637923,0.03,0.0,-0.31,0.0,0.0,0.0,-3.1403914479244657,-1.5707963267948966,3.1392485216749164,0.0,0.0,0.0,0.0,0.0,0.0,1500,1500,1500,1500,1500,1500
1747549636.5721989,0.03,0.01,-0.36,-0.001090830782496456,0.001090830782496456,-0.001090830782496456,-0.007965963623283681,0.10209726086737947,-0.00040698376540459683,0.0,0.0,0.0,0.0,0.0,0.0,1500,1500,1500,1500,1500,1500
1747549636.6831117,0.04,0.02,-0.35000000000000003,-0.002181661564992912,0.001090830782496456,0.002181661564992912,-0.007965963623283681,0.10209726086737947,-0.00040698376540459683,0.0,0.0,0.0,0.0,0.0,0.0,1500,1500,1500,1500,1500,1500
1747549636.7876503,0.02,0.0,-0.3,0.0,0.001090830782496456,-0.001090830782496456,-0.007965963623283681,0.10209726086737947,-0.00040698376540459683,0.0,0.0,0.0,0.0,0.0,0.0,1500,1500,1500,1500,1500,1500
1747549636.9016144,0.02,0.0,-0.3,0.0,0.001090830782496456,-0.001090830782496456,-0.007965963623283681,0.10209726086737947,-0.00040698376540459683,0.0,0.0,0.0,0.0,0.0,0.0,1500,1500,1500,1500,1500,1500
1747549637.012747,0.03,0.01,-0.32,-0.001090830782496456,0.002181661564992912,0.0,-0.007965963623283681,0.10209726086737947,-0.00040698376540459683,0.0,0.0,0.0,0.0,0.0,0.0,1500,1500,1500,1500,1500,1500
1747549637.1068869,0.02,0.01,-0.32,-0.001090830782496456,0.00545415391248228,0.0,-0.007965963623283681,0.10209726086737947,-0.00040698376540459683,0.0,0.0,0.0,0.0,0.0,0.0,1500,1500,1500,1500,1500,1500
1747549637.2136545,0.02,0.01,-0.32,-0.001090830782496456,0.00545415391248228,0.0,-0.007965963623283681,0.10209726086737947,-0.00040698376540459683,0.0,0.0,0.0,0.0,0.0,0.0,1500,1500,1500,1500,1500,1500
1747549637.3212352,0.02,0.0,-0.34,0.002181661564992912,-0.001090830782496456,0.0,-0.007965963623283681,0.10209726086737947,-0.00040698376540459683,0.0,0.0,0.0,0.0,0.0,0.0,1500,1500,1500,1500,1500,1500
1747549637.4307415,0.02,0.0,-0.34,0.002181661564992912,-0.001090830782496456,0.0,-0.007965963623283681,0.10209726086737947,-0.00040698376540459683,0.0,0.0,0.0,0.0,0.0,0.0,1500,1500,1500,1500,1500,1500
1747549637.5402155,0.01,0.01,-0.31,0.0,0.0,-0.002181661564992912,-0.007965963623283681,0.10209726086737947,-0.00040698376540459683,0.0,0.0,0.0,0.0,0.0,0.0,1500,1500,1500,1500,1500,1500
1747549637.663002,0.05,0.0,-0.34,0.003272492347489368,-0.004363323129985824,0.0,-0.02365472360073336,0.10209726086737947,-0.0012084281973140216,0.0,0.0,0.0,0.0,0.0,0.0,1500,1500,1500,1500,1500,1500
1747549637.7723107,0.04,0.01,-0.29,0.0,0.003272492347489368,0.0,-0.007965963623283681,0.10209726086737947,-0.00040698376540459683,0.0,0.0,0.0,0.0,0.0,0.0,1500,1500,1500,1500,1500,1500
1747549637.88219,0.04,0.01,-0.29,0.0,0.003272492347489368,0.0,-0.007965963623283681,0.10209726086737947,-0.00040698376540459683,0.0,0.0,0.0,0.0,0.0,0.0,1500,1500,1500,1500,1500,1500
1747549638.0055177,0.04,0.0,-0.3,0.0,0.001090830782496456,-0.002181661564992912,-0.007965963623283681,0.10209726086737947,-0.00040698376540459683,0.0,0.0,0.0,0.0,0.0,0.0,1500,1500,1500,1500,1500,1500
1747549638.1160073,0.05,-0.01,-0.4,-0.003272492347489368,0.003272492347489368,0.0,-0.007965963623283681,0.10209726086737947,-0.00040698376540459683,0.0,0.0,0.0,0.0,0.0,0.0,1500,1500,1500,1500,1500,1500
1747549638.2093155,0.01,0.0,-0.34,0.001090830782496456,0.002181661564992912,-0.001090830782496456,-0.007965963623283681,0.10209726086737947,-0.00040698376540459683,0.0,0.0,0.0,0.0,0.0,0.0,1500,1500,1500,1500,1500,1500
1747549638.317824,0.01,0.0,-0.34,0.001090830782496456,0.002181661564992912,-0.001090830782496456,-0.007965963623283681,0.10209726086737947,-0.00040698376540459683,0.0,0.0,0.0,0.0,0.0,0.0,1500,1500,1500,1500,1500,1500
1747549638.4139273,0.05,0.0,-0.37,-0.003272492347489368,0.0,-0.001090830782496456,-0.007965963623283681,0.10209726086737947,-0.00040698376540459683,0.0,0.0,0.0,0.0,0.0,0.0,1500,1500,1500,1500,1500,1500
1747549638.521322,0.05,0.0,-0.37,-0.003272492347489368,0.0,-0.001090830782496456,-0.007965963623283681,0.10209726086737947,-0.00040698376540459683,0.0,0.0,0.0,0.0,0.0,0.0,1500,1500,1500,1500,1500,1500
1747549638.6312106,0.02,0.01,-0.27,0.001090830782496456,0.001090830782496456,0.0,-0.007965963623283681,0.10209726086737947,-0.00040698376540459683,0.0,0.0,0.0,0.0,0.0,0.0,1500,1500,1500,1500,1500,1500
1747549638.725546,0.06,0.0,-0.34,0.002181661564992912,0.003272492347489368,0.002181661564992912,-0.007965963623283681,0.10209726086737947,-0.00040698376540459683,0.0,0.0,0.0,0.0,0.0,0.0,1500,1500,1500,1500,1500,1500
1747549638.838269,0.06,0.0,-0.34,0.002181661564992912,0.003272492347489368,0.002181661564992912,-0.007965963623283681,0.10209726086737947,-0.00040698376540459683,0.0,0.0,0.0,0.0,0.0,0.0,1500,1500,1500,1500,1500,1500
1747549638.94264,0.04,0.0,-0.34,0.001090830782496456,0.002181661564992912,0.0,-0.007965963623283681,0.10209726086737947,-0.00040698376540459683,0.0,0.0,0.0,0.0,0.0,0.0,1500,1500,1500,1500,1500,1500
1747549639.0526364,0.04,-0.02,-0.27,0.001090830782496456,-0.003272492347489368,-0.001090830782496456,-0.007965963623283681,0.10209726086737947,-0.00040698376540459683,0.0,0.0,0.0,0.0,0.0,0.0,1500,1500,1500,1500,1500,1500
1747549639.161288,0.04,0.01,-0.37,0.0,0.0,0.0,-0.007965963623283681,0.10209726086737947,-0.00040698376540459683,0.0,0.0,0.0,0.0,0.0,0.0,1500,1500,1500,1500,1500,1500
1747549639.2718937,0.04,0.01,-0.37,0.0,0.0,0.0,-0.007965963623283681,0.10209726086737947,-0.00040698376540459683,0.0,0.0,0.0,0.0,0.0,0.0,1500,1500,1500,1500,1500,1500
1747549639.381297,0.04,0.0,-0.34,0.001090830782496456,0.0,0.0,-0.007965963623283681,0.10209726086737947,-0.00040698376540459683,0.0,0.0,0.0,0.0,0.0,0.0,1500,1500,1500,1500,1500,1500
1747549639.4740937,0.04,0.0,-0.34,0.001090830782496456,0.0,0.0,-0.007965963623283681,0.10209726086737947,-0.00040698376540459683,0.0,0.0,0.0,0.0,0.0,0.0,1500,1500,1500,1500,1500,1500
1747549639.5674727,0.03,0.0,-0.34,0.001090830782496456,0.00545415391248228,0.002181661564992912,-0.007965963623283681,0.10209726086737947,-0.00040698376540459683,0.0,0.0,0.0,0.0,0.0,0.0,1500,1500,1500,1500,1500,1500
1747549639.660115,0.03,0.01,-0.3,0.0,-0.002181661564992912,0.001090830782496456,-0.007965963623283681,0.10209726086737947,-0.00040698376540459683,0.0,0.0,0.0,0.0,0.0,0.0,1500,1500,1500,1500,1500,1500
1747549639.7695434,0.03,0.01,-0.3,0.0,-0.002181661564992912,0.001090830782496456,-0.007965963623283681,0.10209726086737947,-0.00040698376540459683,0.0,0.0,0.0,0.0,0.0,0.0,1500,1500,1500,1500,1500,1500
1747549639.8632493,0.02,0.0,-0.34,0.003272492347489368,0.002181661564992912,-0.001090830782496456,-0.007965963623283681,0.10209726086737947,-0.00040698376540459683,0.0,0.0,0.0,0.0,0.0,0.0,1500,1500,1500,1500,1500,1500
1747549639.9524632,0.04,0.02,-0.32,0.0,-0.002181661564992912,0.0,-0.007965963623283681,0.10209726086737947,-0.00040698376540459683,0.0,0.0,0.0,0.0,0.0,0.0,1500,1500,1500,1500,1500,1500
1747549640.066901,0.04,0.02,-0.32,0.0,-0.002181661564992912,0.0,-0.007965963623283681,0.10209726086737947,-0.00040698376540459683,0.0,0.0,0.0,0.0,0.0,0.0,1500,1500,1500,1500,1500,1500
1747549640.1766653,0.05,0.0,-0.36,0.002181661564992912,-0.002181661564992912,-0.001090830782496456,-0.007965963623283681,0.10209726086737947,-0.00040698376540459683,0.0,0.0,0.0,0.0,0.0,0.0,1500,1500,1500,1500,1500,1500
1747549640.2705674,0.05,0.0,-0.35000000000000003,0.004363323129985824,-0.002181661564992912,0.001090830782496456,-0.007965963623283681,0.10209726086737947,-0.00040698376540459683,0.0,0.0,0.0,0.0,0.0,0.0,1500,1500,1500,1500,1500,1500
1747549640.379944,0.05,0.0,-0.35000000000000003,0.004363323129985824,-0.002181661564992912,0.001090830782496456,-0.007965963623283681,0.10209726086737947,-0.00040698376540459683,0.0,0.0,0.0,0.0,0.0,0.0,1500,1500,1500,1500,1500,1500
1747549640.4865265,0.02,0.0,-0.28,0.0,-0.002181661564992912,0.001090830782496456,-0.007965963623283681,0.10209726086737947,-0.00040698376540459683,0.0,0.0,0.0,0.0,0.0,0.0,1500,1500,1500,1500,1500,1500
1747549640.583773,0.02,0.02,-0.34,-0.001090830782496456,-0.001090830782496456,0.0,-0.007965963623283681,0.10209726086737947,-0.00040698376540459683,0.0,0.0,0.0,0.0,0.0,0.0,1500,1500,1500,1500,1500,1500
1747549640.6895666,0.02,0.02,-0.34,-0.001090830782496456,-0.001090830782496456,0.0,-0.007965963623283681,0.10209726086737947,-0.00040698376540459683,0.0,0.0,0.0,0.0,0.0,0.0,1500,1500,1500,1500,1500,1500
1747549640.7982981,0.02,0.0,-0.3,0.0,0.001090830782496456,-0.001090830782496456,-0.007965963623283681,0.10209726086737947,-0.00040698376540459683,0.0,0.0,0.0,0.0,0.0,0.0,1500,1500,1500,1500,1500,1500
1747549640.8976648,0.03,0.0,-0.34,0.002181661564992912,-0.001090830782496456,0.001090830782496456,-0.007965963623283681,0.10209726086737947,-0.00040698376540459683,0.0,0.0,0.0,0.0,0.0,0.0,1500,1500,1500,1500,1500,1500
1747549641.0008957,0.03,0.0,-0.34,0.002181661564992912,-0.001090830782496456,0.001090830782496456,-0.007965963623283681,0.10209726086737947,-0.00040698376540459683,0.0,0.0,0.0,0.0,0.0,0.0,1500,1500,1500,1500,1500,1500
1747549641.1098104,0.05,0.0,-0.31,-0.003272492347489368,0.004363323129985824,0.0,-0.007965963623283681,0.10209726086737947,-0.00040698376540459683,0.0,0.0,0.0,0.0,0.0,0.0,1500,1500,1500,1500,1500,1500
1747549641.2181654,0.05,0.0,-0.31,-0.003272492347489368,0.004363323129985824,0.0,-0.007965963623283681,0.10209726086737947,-0.00040698376540459683,0.0,0.0,0.0,0.0,0.0,0.0,1500,1500,1500,1500,1500,1500
1747549641.329973,0.03,0.0,-0.37,0.0,0.001090830782496456,0.0,-0.007965963623283681,0.10209726086737947,-0.00040698376540459683,0.0,0.0,0.0,0.0,0.0,0.0,1500,1500,1500,1500,1500,1500
1747549641.4366145,0.01,0.01,-0.33,-0.001090830782496456,0.0,-0.002181661564992912,-0.007965963623283681,0.10209726086737947,-0.00040698376540459683,0.0,0.0,0.0,0.0,0.0,0.0,1500,1500,1500,1500,1500,1500
1747549641.533984,0.05,0.01,-0.36,0.002181661564992912,-0.001090830782496456,0.002181661564992912,-0.007965963623283681,0.10209726086737947,-0.00040698376540459683,0.0,0.0,0.0,0.0,0.0,0.0,1500,1500,1500,1500,1500,1500
1747549641.6421998,0.05,0.01,-0.36,0.002181661564992912,-0.001090830782496456,0.002181661564992912,-0.007965963623283681,0.10209726086737947,-0.00040698376540459683,0.0,0.0,0.0,0.0,0.0,0.0,1500,1500,1500,1500,1500,1500
1747549641.754342,0.03,0.0,-0.34,0.001090830782496456,-0.001090830782496456,0.001090830782496456,-0.007965963623283681,0.10209726086737947,-0.00040698376540459683,0.0,0.0,0.0,0.0,0.0,0.0,1500,1500,1500,1500,1500,1500
1747549641.8467147,0.04,0.01,-0.32,0.0,0.001090830782496456,0.002181661564992912,-0.007965963623283681,0.10209726086737947,-0.00040698376540459683,0.0,0.0,0.0,0.0,0.0,0.0,1500,1500,1500,1500,1500,1500
1747549641.9564078,0.04,0.01,-0.32,0.0,0.001090830782496456,0.002181661564992912,-0.007965963623283681,0.10209726086737947,-0.00040698376540459683,0.0,0.0,0.0,0.0,0.0,0.0,1500,1500,1500,1500,1500,1500
1747549642.0644257,0.06,-0.01,-0.36,0.002181661564992912,0.002181661564992912,0.0,-0.007965963623283681,0.10209726086737947,-0.00040698376540459683,0.0,0.0,0.0,0.0,0.0,0.0,1500,1500,1500,1500,1500,1500
1747549642.1655016,0.03,0.0,-0.28,0.001090830782496456,-0.002181661564992912,0.002181661564992912,-0.007965963623283681,0.10209726086737947,-0.00040698376540459683,0.0,0.0,0.0,0.0,0.0,0.0,1500,1500,1500,1500,1500,1500
1747549642.2803092,0.03,0.0,-0.28,0.001090830782496456,-0.002181661564992912,0.002181661564992912,-0.007965963623283681,0.10209726086737947,-0.00040698376540459683,0.0,0.0,0.0,0.0,0.0,0.0,1500,1500,1500,1500,1500,1500
1747549642.3888526,0.03,0.01,-0.36,0.0,0.002181661564992912,-0.002181661564992912,-0.007965963623283681,0.10209726086737947,-0.00040698376540459683,0.0,0.0,0.0,0.0,0.0,0.0,1500,1500,1500,1500,1500,1500
1747549642.4855645,0.04,0.01,-0.3,-0.001090830782496456,0.0,0.002181661564992912,-0.007965963623283681,0.10209726086737947,-0.00040698376540459683,0.0,0.0,0.0,0.0,0.0,0.0,1500,1500,1500,1500,1500,1500
1747549642.5925756,0.04,0.01,-0.3,-0.001090830782496456,0.0,0.002181661564992912,-0.007965963623283681,0.10209726086737947,-0.00040698376540459683,0.0,0.0,0.0,0.0,0.0,0.0,1500,1500,1500,1500,1500,1500
1747549642.7006037,0.02,0.0,-0.32,0.0,-0.002181661564992912,0.001090830782496456,-0.007965963623283681,0.10209726086737947,-0.00040698376540459683,0.0,0.0,0.0,0.0,0.0,0.0,1500,1500,1500,1500,1500,1500
1747549642.7975957,0.04,0.01,-0.34,0.0,0.003272492347489368,0.0,-0.007965963623283681,0.10209726086737947,-0.00040698376540459683,0.0,0.0,0.0,0.0,0.0,0.0,1500,1500,1500,1500,1500,1500
1747549642.9044666,0.04,0.01,-0.34,0.0,0.003272492347489368,0.0,-0.007965963623283681,0.10209726086737947,-0.00040698376540459683,0.0,0.0,0.0,0.0,0.0,0.0,1500,1500,1500,1500,1500,1500
1747549643.0143583,0.03,0.0,-0.32,0.001090830782496456,0.003272492347489368,0.0,-0.007965963623283681,0.10209726086737947,-0.00040698376540459683,0.0,0.0,0.0,0.0,0.0,0.0,1500,1500,1500,1500,1500,1500
1747549643.118776,0.04,0.0,-0.34,0.001090830782496456,0.002181661564992912,-0.002181661564992912,-0.007965963623283681,0.10209726086737947,-0.00040698376540459683,0.0,0.0,0.0,0.0,0.0,0.0,1500,1500,1500,1500,1500,1500
1747549643.2323458,0.04,0.0,-0.34,0.001090830782496456,0.002181661564992912,-0.002181661564992912,-0.007965963623283681,0.10209726086737947,-0.00040698376540459683,0.0,0.0,0.0,0.0,0.0,0.0,1500,1500,1500,1500,1500,1500
1747549643.3390615,0.03,0.0,-0.35000000000000003,0.002181661564992912,0.001090830782496456,-0.002181661564992912,-0.007965963623283681,0.10209726086737947,-0.00040698376540459683,0.0,0.0,0.0,0.0,0.0,0.0,1500,1500,1500,1500,1500,1500
1747549643.435578,0.06,0.0,-0.35000000000000003,0.001090830782496456,0.002181661564992912,-0.001090830782496456,-0.007965963623283681,0.10209726086737947,-0.00040698376540459683,0.0,0.0,0.0,0.0,0.0,0.0,1500,1500,1500,1500,1500,1500
1747549643.5425136,0.06,0.0,-0.35000000000000003,0.001090830782496456,0.002181661564992912,-0.001090830782496456,-0.007965963623283681,0.10209726086737947,-0.00040698376540459683,0.0,0.0,0.0,0.0,0.0,0.0,1500,1500,1500,1500,1500,1500
1747549643.6519957,0.06,0.0,-0.3,0.001090830782496456,-0.002181661564992912,-0.001090830782496456,-0.007965963623283681,0.10209726086737947,-0.00040698376540459683,0.0,0.0,0.0,0.0,0.0,0.0,1500,1500,1500,1500,1500,1500
1747549643.7503626,0.04,0.0,-0.37,0.002181661564992912,0.0,-0.002181661564992912,-0.007965963623283681,0.10209726086737947,-0.00040698376540459683,0.0,0.0,0.0,0.0,0.0,0.0,1500,1500,1500,1500,1500,1500
1747549643.8551314,0.04,0.0,-0.37,0.002181661564992912,0.0,-0.002181661564992912,-0.007965963623283681,0.10209726086737947,-0.00040698376540459683,0.0,0.0,0.0,0.0,0.0,0.0,1500,1500,1500,1500,1500,1500
1747549643.9639542,0.02,0.01,-0.29,0.002181661564992912,-0.001090830782496456,0.0,-0.007965963623283681,0.10209726086737947,-0.00040698376540459683,0.0,0.0,0.0,0.0,0.0,0.0,1500,1500,1500,1500,1500,1500
1747549644.0672622,0.05,0.01,-0.41000000000000003,-0.002181661564992912,-0.001090830782496456,0.0,-0.007965963623283681,0.10209726086737947,-0.00040698376540459683,0.0,0.0,0.0,0.0,0.0,0.0,1500,1500,1500,1500,1500,1500
1747549644.183512,0.05,0.01,-0.41000000000000003,-0.002181661564992912,-0.001090830782496456,0.0,-0.007965963623283681,0.10209726086737947,-0.00040698376540459683,0.0,0.0,0.0,0.0,0.0,0.0,1500,1500,1500,1500,1500,1500
1747549644.30889,0.03,0.0,-0.31,-0.002181661564992912,-0.002181661564992912,0.002181661564992912,-0.007965963623283681,0.10209726086737947,-0.00040698376540459683,0.0,0.0,0.0,0.0,0.0,0.0,1500,1500,1500,1500,1500,1500
1747549644.4189246,0.02,0.0,-0.33,0.0,0.0,0.0,-0.007965963623283681,0.10209726086737947,-0.00040698376540459683,0.0,0.0,0.0,0.0,0.0,0.0,1500,1500,1500,1500,1500,1500
1747549644.5328686,0.02,0.0,-0.33,0.0,0.0,0.0,-0.007965963623283681,0.10209726086737947,-0.00040698376540459683,0.0,0.0,0.0,0.0,0.0,0.0,1500,1500,1500,1500,1500,1500
1747549644.637262,0.04,0.01,-0.33,0.0,0.001090830782496456,0.002181661564992912,-0.007965963623283681,0.10209726086737947,-0.00040698376540459683,0.0,0.0,0.0,0.0,0.0,0.0,1500,1500,1500,1500,1500,1500
1747549644.7479372,0.01,0.0,-0.26,-0.004363323129985824,0.0,0.001090830782496456,2.6222204971413854,0.10209726086737947,0.20197108272606987,0.0,0.0,0.0,0.0,0.0,0.0,1500,1500,1500,1500,1500,1500
1747549644.8565092,0.01,0.0,-0.26,-0.004363323129985824,0.0,0.001090830782496456,2.6222204971413854,0.10209726086737947,0.20197108272606987,0.0,0.0,0.0,0.0,0.0,0.0,1500,1500,1500,1500,1500,1500
1747549644.9642544,0.01,0.01,-0.35000000000000003,0.004363323129985824,-0.001090830782496456,0.001090830782496456,-0.007965963623283681,0.10209726086737947,-0.00040698376540459683,0.0,0.0,0.0,0.0,0.0,0.0,1500,1500,1500,1500,1500,1500
1747549645.0732975,0.04,-0.01,-0.34,0.003272492347489368,0.0,-0.001090830782496456,-0.007965963623283681,0.10209726086737947,-0.00040698376540459683,0.0,0.0,0.0,0.0,0.0,0.0,1500,1500,1500,1500,1500,1500
1747549645.1763146,0.03,0.01,-0.38,0.0,-0.004363323129985824,0.0,-0.007965963623283681,0.10209726086737947,-0.00040698376540459683,0.0,0.0,0.0,0.0,0.0,0.0,1500,1500,1500,1500,1500,1500
1747549645.2918103,0.03,0.01,-0.38,0.0,-0.004363323129985824,0.0,-0.007965963623283681,0.10209726086737947,-0.00040698376540459683,0.0,0.0,0.0,0.0,0.0,0.0,1500,1500,1500,1500,1500,1500
1747549645.4014282,0.03,0.0,-0.3,0.0,0.0,-0.001090830782496456,-0.007965963623283681,0.10209726086737947,-0.00040698376540459683,0.0,0.0,0.0,0.0,0.0,0.0,1500,1500,1500,1500,1500,1500
1747549645.5254667,0.05,0.0,-0.37,0.003272492347489368,-0.002181661564992912,0.002181661564992912,-0.007965963623283681,0.10209726086737947,-0.00040698376540459683,0.0,0.0,0.0,0.0,0.0,0.0,1500,1500,1500,1500,1500,1500
1747549645.6366084,0.05,0.0,-0.37,0.003272492347489368,-0.002181661564992912,0.002181661564992912,-0.007965963623283681,0.10209726086737947,-0.00040698376540459683,0.0,0.0,0.0,0.0,0.0,0.0,1500,1500,1500,1500,1500,1500
1747549645.74744,0.0,-0.01,-0.3,0.003272492347489368,-0.002181661564992912,0.001090830782496456,-0.007965963623283681,0.10209726086737947,-0.00040698376540459683,0.0,0.0,0.0,0.0,0.0,0.0,1500,1500,1500,1500,1500,1500
1747549645.8696542,0.05,0.0,-0.29,0.001090830782496456,0.004363323129985824,0.001090830782496456,-0.007965963623283681,0.10209726086737947,-0.00040698376540459683,0.0,0.0,0.0,0.0,0.0,0.0,1500,1500,1500,1500,1500,1500
1747549645.996073,0.04,0.01,-0.34,0.001090830782496456,-0.003272492347489368,0.0,-0.007965963623283681,0.10209726086737947,-0.00040698376540459683,0.0,0.0,0.0,0.0,0.0,0.0,1500,1500,1500,1500,1500,1500
1747549646.103696,0.04,0.01,-0.34,0.001090830782496456,-0.003272492347489368,0.0,-0.007965963623283681,0.10209726086737947,-0.00040698376540459683,0.0,0.0,0.0,0.0,0.0,0.0,1500,1500,1500,1500,1500,1500
1747549646.2132952,0.05,-0.01,-0.34,-0.001090830782496456,-0.002181661564992912,-0.002181661564992912,-0.007965963623283681,0.10209726086737947,-0.00040698376540459683,0.0,0.0,0.0,0.0,0.0,0.0,1500,1500,1500,1500,1500,1500
1747549646.31906,0.04,0.0,-0.36,0.001090830782496456,0.0,-0.001090830782496456,-0.007965963623283681,0.10209726086737947,-0.00040698376540459683,0.0,0.0,0.0,0.0,0.0,0.0,1500,1500,1500,1500,1500,1500
1747549646.429841,0.04,0.0,-0.36,0.001090830782496456,0.0,-0.001090830782496456,-0.007965963623283681,0.10209726086737947,-0.00040698376540459683,0.0,0.0,0.0,0.0,0.0,0.0,1500,1500,1500,1500,1500,1500
1747549646.553547,0.02,0.01,-0.31,0.002181661564992912,-0.001090830782496456,-0.001090830782496456,-0.007965963623283681,0.10209726086737947,-0.00040698376540459683,0.0,0.0,0.0,0.0,0.0,0.0,1500,1500,1500,1500,1500,1500
1747549646.6630728,0.05,0.0,-0.36,-0.001090830782496456,-0.006544984694978736,0.001090830782496456,-0.007965963623283681,0.10209726086737947,-0.00040698376540459683,0.0,0.0,0.0,0.0,0.0,0.0,1500,1500,1500,1500,1500,1500
1747549646.7508779,0.02,0.01,-0.27,-0.001090830782496456,-0.002181661564992912,0.001090830782496456,-0.007965963623283681,0.10209726086737947,-0.00040698376540459683,0.0,0.0,0.0,0.0,0.0,0.0,1500,1500,1500,1500,1500,1500
1747549646.8668377,0.02,0.01,-0.27,-0.001090830782496456,-0.002181661564992912,0.001090830782496456,-0.007965963623283681,0.10209726086737947,-0.00040698376540459683,0.0,0.0,0.0,0.0,0.0,0.0,1500,1500,1500,1500,1500,1500
1747549646.9914668,0.01,0.01,-0.33,-0.003272492347489368,-0.001090830782496456,0.001090830782496456,-0.007965963623283681,0.10209726086737947,-0.00040698376540459683,0.0,0.0,0.0,0.0,0.0,0.0,1500,1500,1500,1500,1500,1500
1747549647.1164176,0.02,0.0,-0.36,0.001090830782496456,0.0,0.0,-0.007965963623283681,0.10209726086737947,-0.00040698376540459683,0.0,0.0,0.0,0.0,0.0,0.0,1500,1500,1500,1500,1500,1500
1747549647.2227473,0.04,-0.01,-0.34,-0.002181661564992912,0.001090830782496456,-0.001090830782496456,-0.007965963623283681,0.10209726086737947,-0.00040698376540459683,0.0,0.0,0.0,0.0,0.0,0.0,1500,1500,1500,1500,1500,1500
1747549647.3327982,0.04,-0.01,-0.34,-0.002181661564992912,0.001090830782496456,-0.001090830782496456,-0.007965963623283681,0.10209726086737947,-0.00040698376540459683,0.0,0.0,0.0,0.0,0.0,0.0,1500,1500,1500,1500,1500,1500
1747549647.429304,0.03,0.01,-0.37,-0.002181661564992912,0.0,0.0,-0.007965963623283681,0.10209726086737947,-0.00040698376540459683,0.0,0.0,0.0,0.0,0.0,0.0,1500,1500,1500,1500,1500,1500
1747549647.537444,0.03,0.01,-0.37,-0.002181661564992912,0.0,0.0,-0.007965963623283681,0.10209726086737947,-0.00040698376540459683,0.0,0.0,0.0,0.0,0.0,0.0,1500,1500,1500,1500,1500,1500
1747549647.6312766,0.02,0.0,-0.28,-0.004363323129985824,0.002181661564992912,-0.002181661564992912,-0.007965963623283681,0.10209726086737947,-0.00040698376540459683,0.0,0.0,0.0,0.0,0.0,0.0,1500,1500,1500,1500,1500,1500
1747549647.7395844,,,,0.003272492347489368,-0.004363323129985824,0.001090830782496456,-0.007965963623283681,0.10209726086737947,-0.00040698376540459683,0.0,0.0,0.0,0.0,0.0,0.0,1500,1500,1500,1500,1500,1500
1747549647.8495774,,,,0.003272492347489368,-0.004363323129985824,0.001090830782496456,-0.007965963623283681,0.10209726086737947,-0.00040698376540459683,0.0,0.0,0.0,0.0,0.0,0.0,1500,1500,1500,1500,1500,1500
1747549647.941513,0.01,0.0,-0.28,-0.002181661564992912,-0.002181661564992912,-0.002181661564992912,-0.007965963623283681,0.10209726086737947,-0.00040698376540459683,0.0,0.0,0.0,0.0,0.0,0.0,1500,1500,1500,1500,1500,1500
1747549648.0617115,0.02,-0.01,-0.34,-0.003272492347489368,-0.001090830782496456,-0.001090830782496456,-0.007965963623283681,0.10209726086737947,-0.00040698376540459683,0.0,0.0,0.0,0.0,0.0,0.0,1500,1500,1500,1500,1500,1500
1747549648.171547,0.04,0.0,-0.33,-0.00545415391248228,0.0,0.0,-0.007965963623283681,0.10209726086737947,-0.00040698376540459683,0.0,0.0,0.0,0.0,0.0,0.0,1500,1500,1500,1500,1500,1500
1747549648.2878456,0.04,0.0,-0.33,-0.00545415391248228,0.0,0.0,-0.007965963623283681,0.10209726086737947,-0.00040698376540459683,0.0,0.0,0.0,0.0,0.0,0.0,1500,1500,1500,1500,1500,1500
1747549648.399381,0.04,0.0,-0.35000000000000003,0.002181661564992912,0.004363323129985824,0.0,-0.007965963623283681,0.10209726086737947,-0.00040698376540459683,0.0,0.0,0.0,0.0,0.0,0.0,1500,1500,1500,1500,1500,1500
1747549648.5204093,0.0,-0.01,-0.35000000000000003,-0.001090830782496456,0.002181661564992912,0.0,-0.007965963623283681,0.10209726086737947,-0.00040698376540459683,0.0,0.0,0.0,0.0,0.0,0.0,1500,1500,1500,1500,1500,1500
1747549648.6301084,0.0,-0.01,-0.35000000000000003,-0.001090830782496456,0.002181661564992912,0.0,-0.007965963623283681,0.10209726086737947,-0.00040698376540459683,0.0,0.0,0.0,0.0,0.0,0.0,1500,1500,1500,1500,1500,1500
1747549648.7397125,0.03,-0.01,-0.29,-0.004363323129985824,-0.003272492347489368,0.0,-0.007965963623283681,0.10209726086737947,-0.00040698376540459683,0.0,0.0,0.0,0.0,0.0,0.0,1500,1500,1500,1500,1500,1500
1747549648.848773,0.01,0.0,-0.36,0.004363323129985824,-0.003272492347489368,-0.001090830782496456,-0.007965963623283681,0.10209726086737947,-0.00040698376540459683,0.0,0.0,0.0,0.0,0.0,0.0,1500,1500,1500,1500,1500,1500
1747549648.9554293,0.02,-0.01,-0.29,0.001090830782496456,0.0,0.001090830782496456,-0.007965963623283681,0.10209726086737947,-0.00040698376540459683,0.0,0.0,0.0,0.0,0.0,0.0,1500,1500,1500,1500,1500,1500
1747549649.0686307,0.02,-0.01,-0.29,0.001090830782496456,0.0,0.001090830782496456,-0.007965963623283681,0.10209726086737947,-0.00040698376540459683,0.0,0.0,0.0,0.0,0.0,0.0,1500,1500,1500,1500,1500,1500
1747549649.176924,0.04,-0.02,-0.33,0.0,0.001090830782496456,0.002181661564992912,-0.007965963623283681,0.10209726086737947,-0.00040698376540459683,0.0,0.0,0.0,0.0,0.0,0.0,1500,1500,1500,1500,1500,1500
1747549649.2737901,0.03,0.0,-0.34,0.002181661564992912,0.007635815477475192,0.002181661564992912,-0.007965963623283681,0.10209726086737947,-0.00040698376540459683,0.0,0.0,0.0,0.0,0.0,0.0,1500,1500,1500,1500,1500,1500
1747549649.3808308,0.03,0.0,-0.34,0.002181661564992912,0.007635815477475192,0.002181661564992912,-0.007965963623283681,0.10209726086737947,-0.00040698376540459683,0.0,0.0,0.0,0.0,0.0,0.0,1500,1500,1500,1500,1500,1500
1747549649.4719994,0.05,0.0,-0.35000000000000003,-0.001090830782496456,0.006544984694978736,0.002181661564992912,-0.007965963623283681,0.10209726086737947,-0.00040698376540459683,0.0,0.0,0.0,0.0,0.0,0.0,1500,1500,1500,1500,1500,1500
1747549649.5820346,0.05,0.0,-0.35000000000000003,-0.001090830782496456,0.006544984694978736,0.002181661564992912,-0.007965963623283681,0.10209726086737947,-0.00040698376540459683,0.0,0.0,0.0,0.0,0.0,0.0,1500,1500,1500,1500,1500,1500
