time,ay,ax,az,gy,gx,gz,roll,pitch,yaw,cmd_fx,cmd_fy,cmd_fz,cmd_tx,cmd_ty,cmd_tz,pwm_1,pwm_2,pwm_3,pwm_4,pwm_5,pwm_6
1747615887.9288876,0.0,0.0,0.0,0.0,0.0,0.0,0.0,0.0,0.0,0,0,0,0,0,0,1500,1500,1500,1500,1500,1500
1747615888.0218997,-0.03,0.0,-0.39,0.002181661564992912,0.0,-0.001090830782496456,0.0008591526407062814,-0.1199482902482127,-5.1585924168229995e-05,0,0,0,0,0,0,1500,1500,1500,1500,1500,1500
1747615888.1068695,-0.03,0.0,-0.39,0.002181661564992912,0.0,-0.001090830782496456,0.0008591526407062814,-0.1199482902482127,-5.1585924168229995e-05,0,0,0,0,0,0,1500,1500,1500,1500,1500,1500
1747615888.201614,-0.05,0.01,-0.44,0.0,0.001090830782496456,0.002181661564992912,0.0008591526407062814,-0.1199482902482127,-5.1585924168229995e-05,0,0,0,0,0,0,1500,1500,1500,1500,1500,1500
1747615888.2945151,-0.05,0.01,-0.44,0.0,0.001090830782496456,0.002181661564992912,0.0008591526407062814,-0.1199482902482127,-5.1585924168229995e-05,0,0,0,0,0,0,1500,1500,1500,1500,1500,1500
1747615888.393691,-0.04,0.0,-0.46,0.0,0.0,-0.001090830782496456,0.0008591526407062814,-0.1199482902482127,-5.1585924168229995e-05,0,0,0,0,0,0,1500,1500,1500,1500,1500,1500
1747615888.4978392,-0.06,-0.01,-0.39,-0.001090830782496456,0.00545415391248228,0.0,0.0008591526407062814,-0.1199482902482127,-5.1585924168229995e-05,0,0,0,0,0,0,1500,1500,1500,1500,1500,1500
1747615888.5981004,-0.06,-0.01,-0.39,-0.001090830782496456,0.00545415391248228,0.0,0.0008591526407062814,-0.1199482902482127,-5.1585924168229995e-05,0,0,0,0,0,0,1500,1500,1500,1500,1500,1500
1747615888.6889596,-0.03,0.0,-0.45,-0.001090830782496456,0.00545415391248228,0.001090830782496456,0.0008591526407062814,-0.1199482902482127,-5.1585924168229995e-05,0,0,0,0,0,0,1500,1500,1500,1500,1500,1500
1747615888.7788014,-0.01,-0.01,-0.38,0.0,0.0,0.001090830782496456,0.0008591526407062814,-0.1199482902482127,-5.1585924168229995e-05,0,0,0,0,0,0,1500,1500,1500,1500,1500,1500
1747615888.8720996,-0.01,-0.01,-0.38,0.0,0.0,0.001090830782496456,0.0008591526407062814,-0.1199482902482127,-5.1585924168229995e-05,0,0,0,0,0,0,1500,1500,1500,1500,1500,1500
1747615888.9746728,-0.04,0.0,-0.43,0.0,0.002181661564992912,-0.002181661564992912,0.0008591526407062814,-0.1199482902482127,-5.1585924168229995e-05,0,0,0,0,0,0,1500,1500,1500,1500,1500,1500
1747615889.0555038,-0.04,0.0,-0.43,0.0,0.002181661564992912,-0.002181661564992912,0.0008591526407062814,-0.1199482902482127,-5.1585924168229995e-05,0,0,0,0,0,0,1500,1500,1500,1500,1500,1500
1747615889.1557353,-0.04,0.0,-0.44,0.001090830782496456,0.0,-0.001090830782496456,0.0008591526407062814,-0.1199482902482127,-5.1585924168229995e-05,0,0,0,0,0,0,1500,1500,1500,1500,1500,1500
1747615889.2495167,-0.05,0.0,-0.4,0.001090830782496456,0.00545415391248228,0.001090830782496456,0.0008591526407062814,-0.1199482902482127,-5.1585924168229995e-05,0,0,0,0,0,0,1500,1500,1500,1500,1500,1500
1747615889.3444512,-0.05,0.0,-0.4,0.001090830782496456,0.00545415391248228,0.001090830782496456,0.0008591526407062814,-0.1199482902482127,-5.1585924168229995e-05,0,0,0,0,0,0,1500,1500,1500,1500,1500,1500
1747615889.4432204,-0.05,-0.01,-0.45,-0.001090830782496456,-0.001090830782496456,-0.001090830782496456,0.0008591526407062814,-0.1199482902482127,-5.1585924168229995e-05,0,0,0,0,0,0,1500,1500,1500,1500,1500,1500
1747615889.533297,-0.05,-0.01,-0.45,-0.001090830782496456,-0.001090830782496456,-0.001090830782496456,0.0008591526407062814,-0.1199482902482127,-5.1585924168229995e-05,0,0,0,0,0,0,1500,1500,1500,1500,1500,1500
1747615889.6253605,-0.05,0.0,-0.39,-0.001090830782496456,-0.003272492347489368,0.0,0.0008591526407062814,-0.1199482902482127,-5.1585924168229995e-05,0,0,0,0,0,0,1500,1500,1500,1500,1500,1500
1747615889.7215667,-0.05,0.0,-0.39,-0.001090830782496456,-0.003272492347489368,0.0,0.0008591526407062814,-0.1199482902482127,-5.1585924168229995e-05,0,0,0,0,0,0,1500,1500,1500,1500,1500,1500
1747615889.8229656,-0.05,0.0,-0.4,0.0,0.001090830782496456,0.002181661564992912,0.0008591526407062814,-0.1199482902482127,-5.1585924168229995e-05,0,0,0,0,0,0,1500,1500,1500,1500,1500,1500
1747615889.9226773,-0.04,-0.01,-0.46,-0.001090830782496456,0.0,0.002181661564992912,0.0008591526407062814,-0.1199482902482127,-5.1585924168229995e-05,0,0,0,0,0,0,1500,1500,1500,1500,1500,1500
1747615890.0119283,-0.04,-0.01,-0.46,-0.001090830782496456,0.0,0.002181661564992912,0.0008591526407062814,-0.1199482902482127,-5.1585924168229995e-05,0,0,0,0,0,0,1500,1500,1500,1500,1500,1500
1747615890.1158013,-0.04,0.01,-0.39,-0.002181661564992912,0.0,-0.002181661564992912,0.0008591526407062814,-0.1199482902482127,-5.1585924168229995e-05,0,0,0,0,0,0,1500,1500,1500,1500,1500,1500
1747615890.2224846,-0.05,0.0,-0.45,0.0,0.001090830782496456,-0.001090830782496456,0.0008591526407062814,-0.1199482902482127,-5.1585924168229995e-05,0,0,0,0,0,0,1500,1500,1500,1500,1500,1500
1747615890.3070323,-0.05,0.0,-0.45,0.0,0.001090830782496456,-0.001090830782496456,0.0008591526407062814,-0.1199482902482127,-5.1585924168229995e-05,0,0,0,0,0,0,1500,1500,1500,1500,1500,1500
1747615890.4048588,-0.05,0.0,-0.41000000000000003,0.001090830782496456,0.003272492347489368,-0.002181661564992912,0.0008591526407062814,-0.1199482902482127,-5.1585924168229995e-05,0,0,0,0,0,0,1500,1500,1500,1500,1500,1500
1747615890.5056071,-0.05,0.0,-0.41000000000000003,0.001090830782496456,0.003272492347489368,-0.002181661564992912,0.0008591526407062814,-0.1199482902482127,-5.1585924168229995e-05,0,0,0,0,0,0,1500,1500,1500,1500,1500,1500
1747615890.5872767,-0.03,0.0,-0.44,0.001090830782496456,0.0,-0.001090830782496456,0.0008591526407062814,-0.1199482902482127,-5.1585924168229995e-05,0,0,0,0,0,0,1500,1500,1500,1500,1500,1500
1747615890.6887581,-0.03,0.0,-0.48,0.0,0.003272492347489368,0.0,0.0008591526407062814,-0.1199482902482127,-5.1585924168229995e-05,0,0,0,0,0,0,1500,1500,1500,1500,1500,1500
1747615890.7885864,-0.03,0.0,-0.48,0.0,0.003272492347489368,0.0,0.0008591526407062814,-0.1199482902482127,-5.1585924168229995e-05,0,0,0,0,0,0,1500,1500,1500,1500,1500,1500
1747615890.8885734,-0.02,0.0,-0.4,-0.002181661564992912,0.001090830782496456,0.001090830782496456,0.0008591526407062814,-0.1199482902482127,-5.1585924168229995e-05,0,0,0,0,0,0,1500,1500,1500,1500,1500,1500
1747615890.9848769,-0.05,0.01,-0.45,-0.002181661564992912,0.003272492347489368,0.001090830782496456,0.0008591526407062814,-0.1199482902482127,-5.1585924168229995e-05,0,0,0,0,0,0,1500,1500,1500,1500,1500,1500
1747615891.0708687,-0.05,0.01,-0.45,-0.002181661564992912,0.003272492347489368,0.001090830782496456,0.0008591526407062814,-0.1199482902482127,-5.1585924168229995e-05,0,0,0,0,0,0,1500,1500,1500,1500,1500,1500
1747615891.172122,-0.05,0.01,-0.38,-0.003272492347489368,0.002181661564992912,0.0,0.0008591526407062814,-0.1199482902482127,-5.1585924168229995e-05,0,0,0,0,0,0,1500,1500,1500,1500,1500,1500
1747615891.2709298,-0.05,0.01,-0.38,-0.003272492347489368,0.002181661564992912,0.0,0.0008591526407062814,-0.1199482902482127,-5.1585924168229995e-05,0,0,0,0,0,0,1500,1500,1500,1500,1500,1500
1747615891.3547883,-0.04,0.01,-0.43,0.0,0.002181661564992912,0.002181661564992912,0.0008591526407062814,-0.1199482902482127,-5.1585924168229995e-05,0,0,0,0,0,0,1500,1500,1500,1500,1500,1500
1747615891.4563859,-0.04,0.01,-0.43,0.0,0.002181661564992912,0.002181661564992912,0.0008591526407062814,-0.1199482902482127,-5.1585924168229995e-05,0,0,0,0,0,0,1500,1500,1500,1500,1500,1500
1747615891.5401094,-0.05,-0.02,-0.46,0.002181661564992912,0.0,0.0,0.0008591526407062814,-0.1199482902482127,-5.1585924168229995e-05,0,0,0,0,0,0,1500,1500,1500,1500,1500,1500
1747615891.6464412,-0.05,0.0,-0.4,0.001090830782496456,0.0,-0.002181661564992912,0.0008591526407062814,-0.1199482902482127,-5.1585924168229995e-05,0,0,0,0,0,0,1500,1500,1500,1500,1500,1500
1747615891.739829,-0.05,0.0,-0.4,0.001090830782496456,0.0,-0.002181661564992912,0.0008591526407062814,-0.1199482902482127,-5.1585924168229995e-05,0,0,0,0,0,0,1500,1500,1500,1500,1500,1500
1747615891.822418,-0.03,0.0,-0.45,0.003272492347489368,0.0,0.001090830782496456,0.0008591526407062814,-0.1199482902482127,-5.1585924168229995e-05,0,0,0,0,0,0,1500,1500,1500,1500,1500,1500
1747615891.9249086,-0.03,0.0,-0.45,0.003272492347489368,0.0,0.001090830782496456,0.0008591526407062814,-0.1199482902482127,-5.1585924168229995e-05,0,-1.973167,0,0,0,0,1460,1460,1460,1500,1500,1500
1747615892.0223036,-0.05,0.0,-0.4,0.004363323129985824,-0.003272492347489368,0.0,0.0008591526407062814,-0.1199482902482127,-5.1585924168229995e-05,0,-12.5,0,0,0,0,1420,1420,1420,1500,1500,1500
1747615892.1192296,-0.04,-0.01,-0.45,0.001090830782496456,0.0,-0.003272492347489368,0.0008591526407062814,-0.1199482902482127,-5.1585924168229995e-05,0,-12.5,0,0,0,0,1380,1380,1380,1500,1500,1500
1747615892.2274032,-0.04,-0.01,-0.45,0.001090830782496456,0.0,-0.003272492347489368,0.0008591526407062814,-0.1199482902482127,-5.1585924168229995e-05,0,-12.5,0,0,0,0,1340,1340,1340,1500,1500,1500
1747615892.3265958,-0.1,0.15,-0.5,0.0,0.00545415391248228,-0.14289883250703572,0.0008591526407062814,-0.1199482902482127,-5.1585924168229995e-05,0,-12.5,0,0,0,0,1300,1304,1334,1500,1500,1500
1747615892.4224179,-0.3,0.06,-0.47000000000000003,0.001090830782496456,0.007635815477475192,-0.002181661564992912,0.0008591526407062814,-0.1199482902482127,-5.1585924168229995e-05,0,-12.5,0,0,0,0,1297,1304,1334,1500,1500,1500
1747615892.5221868,-0.3,0.06,-0.47000000000000003,0.001090830782496456,0.007635815477475192,-0.002181661564992912,0.0008591526407062814,-0.1199482902482127,-5.1585924168229995e-05,0,-12.5,0,0,0,0,1297,1304,1334,1500,1500,1500
1747615892.6058931,0.09,-0.38,0.14,0.002181661564992912,-0.014180800172453928,0.00545415391248228,0.0007363823573684457,-0.12006365025145452,-4.42621861378047e-05,0,-12.5,0,0,0,0,1297,1304,1334,1500,1500,1500
1747615892.704829,0.09,-0.38,0.14,0.002181661564992912,-0.014180800172453928,0.00545415391248228,0.0007363823573684457,-0.12006365025145452,-4.42621861378047e-05,0,-12.5,0,0,0,-0.000811,1297,1304,1334,1500,1500,1500
1747615892.7911546,0.19,-0.8300000000000001,0.34,0.007635815477475192,-0.017453292519943295,-0.001090830782496456,0.0009818432114386275,-0.12006365025145452,-5.9016248153763745e-05,0,-12.5,0,0,0,-0.001789,1297,1304,1334,1500,1500,1500
1747615892.8948245,-0.04,0.2,-0.6900000000000001,0.001090830782496456,-0.003272492347489368,0.002181661564992912,0.0008591254600383981,-0.12018638148937587,-5.169251247663347e-05,0,-12.5,0,0,0,-0.010913,1297,1304,1334,1500,1500,1500
1747615892.9883113,-0.04,0.2,-0.6900000000000001,0.001090830782496456,-0.003272492347489368,0.002181661564992912,0.0008591254600383981,-0.12018638148937587,-5.169251247663347e-05,0,-12.5,0,0,0,-0.015672,1297,1304,1334,1500,1500,1500
1747615893.0721908,-0.12,0.44,-0.85,0.006544984694978736,-0.002181661564992912,0.001090830782496456,0.0007364165254049128,-0.1199482902482127,-4.4216506440317164e-05,0,-12.5,0,0,0,-0.019321,1285,1290,1325,1500,1500,1500
1747615893.1711361,-0.12,0.44,-0.85,0.006544984694978736,-0.002181661564992912,0.001090830782496456,0.0007364165254049128,-0.1199482902482127,-4.4216506440317164e-05,0,-12.5,0,0,0,-0.269272,1245,1310,1315,1500,1500,1500
1747615893.2711804,-0.12,-0.01,-0.31,0.008726646259971648,-0.014180800172453928,0.006544984694978736,0.0003682028138988487,-0.11982555502947781,-2.208541438726068e-05,0,-12.5,0,0,0,-0.269272,1242,1310,1315,1500,1500,1500
1747615893.3536425,-0.03,-0.48,-0.16,0.0,0.007635815477475192,-0.003272492347489368,0.0004909287940708213,-0.12018638148937587,-2.953857857579536e-05,0,-12.5,0,0,0,-0.269272,1242,1310,1315,1500,1500,1500
1747615893.4547632,-0.03,-0.48,-0.16,0.0,0.007635815477475192,-0.003272492347489368,0.0004909287940708213,-0.12018638148937587,-2.953857857579536e-05,0,-12.5,0,0,0,-0.276489,1241,1311,1315,1500,1500,1500
1747615893.5547805,-0.12,-0.2,-0.23,0.0,0.004363323129985824,0.0,0.0003682028138988487,-0.11982555502947781,-2.208541438726068e-05,0,-12.5,0,0,0,-0.276489,1241,1311,1315,1500,1500,1500
1747615893.6531694,-0.12,-0.2,-0.23,0.0,0.004363323129985824,0.0,0.0003682028138988487,-0.11982555502947781,-2.208541438726068e-05,0,-12.5,0,0,0,-0.276489,1241,1311,1315,1500,1500,1500
1747615893.7555125,0.05,-0.2,-0.46,0.0,0.006544984694978736,-0.001090830782496456,0.0004909298691566628,-0.11970282162444933,-2.9416768726364385e-05,0,-12.5,0,0,0,-0.276489,1223,1298,1303,1500,1500,1500
1747615893.8372183,-0.01,-0.09,-0.35000000000000003,-0.008726646259971648,0.007635815477475192,0.0,0.0004909370937319726,-0.11982555502947781,-2.944721917929041e-05,0,-12.5,0,0,0,-0.276489,1223,1298,1303,1500,1500,1500
1747615893.939314,-0.01,-0.09,-0.35000000000000003,-0.008726646259971648,0.007635815477475192,0.0,0.0004909370937319726,-0.11982555502947781,-2.944721917929041e-05,0,-12.5,0,0,0,-0.276489,1223,1298,1303,1500,1500,1500
1747615894.0371277,-0.12,0.4,-0.8300000000000001,-0.006544984694978736,0.002181661564992912,0.00545415391248228,0.0004909298691566628,-0.11970282162444933,-2.9416768726364385e-05,0,-12.5,0,0,0,-0.276489,1223,1298,1303,1500,1500,1500
1747615894.1217053,-0.12,0.4,-0.8300000000000001,-0.006544984694978736,0.002181661564992912,0.00545415391248228,0.0004909298691566628,-0.11970282162444933,-2.9416768726364385e-05,0,-12.5,0,0,0,-0.276489,1223,1298,1303,1500,1500,1500
1747615894.2212815,-0.07,0.54,-0.8200000000000001,-0.008726646259971648,0.006544984694978736,-0.001090830782496456,0.0006136804210751884,-0.1199482902482127,-3.6847088707601684e-05,0,-12.5,0,0,0,-0.276489,1223,1298,1303,1500,1500,1500
1747615894.3202255,0.03,-0.07,-0.38,0.002181661564992912,0.014180800172453928,-0.004363323129985824,0.00025281911921183706,-0.11970280661588942,-0.00013744084694627436,0,-12.5,0,0,0,-0.276489,1208,1286,1290,1500,1500,1500
1747615894.4211848,0.03,-0.07,-0.38,0.002181661564992912,0.014180800172453928,-0.004363323129985824,0.00025281911921183706,-0.11970280661588942,-0.00013744084694627436,0,-12.5,0,0,0,-0.276489,1191,1274,1278,1500,1500,1500
1747615894.5212677,0.1,0.27,-0.58,-0.007635815477475192,-0.001090830782496456,-0.00545415391248228,0.00025283034411246433,-0.11982554002069623,-0.00013745787831640082,0,-12.5,0,0,0,-0.276489,1191,1274,1278,1500,1500,1500
1747615894.605702,0.1,0.27,-0.58,-0.007635815477475192,-0.001090830782496456,-0.00545415391248228,0.00025283034411246433,-0.11982554002069623,-0.00013745787831640082,0,-12.5,0,0,0,-0.276489,1191,1274,1278,1500,1500,1500
1747615894.7045603,-0.2,-0.03,-0.53,-0.001090830782496456,-0.00545415391248228,0.0,0.000620999907400241,-0.11958005251035199,-0.00015946355753309802,0,-12.5,0,0,0,-0.276489,1191,1274,1278,1500,1500,1500
1747615894.805078,-0.24,0.16,-0.55,0.008726646259971648,-0.00545415391248228,-0.004363323129985824,0.0001300678240128341,-0.11945735274373671,-0.0001300678240128341,0,-12.5,0,0,0,-0.276489,1191,1274,1278,1500,1500,1500
1747615894.9057436,-0.24,0.16,-0.55,0.008726646259971648,-0.00545415391248228,-0.004363323129985824,0.0001300678240128341,-0.11945735274373671,-0.0001300678240128341,0,-12.5,0,0,0,-0.276489,1172,1260,1264,1500,1500,1500
1747615895.0035625,0.21,0.11,-0.52,0.003272492347489368,0.008726646259971648,0.003272492347489368,0.00037553856210630743,-0.11958006751869042,-0.00014477039795352857,0,-12.5,0,0,0,-0.276489,1172,1260,1264,1500,1500,1500
1747615895.0875971,0.21,0.11,-0.52,0.003272492347489368,0.008726646259971648,0.003272492347489368,0.00037553856210630743,-0.11958006751869042,-0.00014477039795352857,0,-12.5,0,0,0,-0.276489,1172,1260,1264,1500,1500,1500
1747615895.1882908,0.11,0.06,-0.51,0.002181661564992912,0.003272492347489368,0.003272492347489368,0.0006284302926720595,-0.12018630644220293,-0.0002823876114823445,0,-12.5,0,0,0,-0.276489,1172,1260,1264,1500,1500,1500
1747615895.2874207,-0.33,-0.22,-0.3,0.001090830782496456,0.006544984694978736,0.00545415391248228,0.0006284788947845595,-0.12043177437521825,-0.0002824710109517241,0,-12.5,0,0,0,-0.276489,1172,1260,1264,1500,1500,1500
1747615895.3704433,-0.33,-0.22,-0.3,0.001090830782496456,0.006544984694978736,0.00545415391248228,0.0006284788947845595,-0.12043177437521825,-0.0002824710109517241,0,-12.5,0,0,0,-0.276489,1147,1242,1249,1500,1500,1500
1747615895.4710388,-0.37,-0.62,-0.02,0.004363323129985824,-0.003272492347489368,-0.006544984694978736,0.0021015411524283605,-0.12104529601233792,-0.0003719349912615035,0,-12.5,0,0,0,-0.329676,1116,1235,1232,1500,1500,1500
1747615895.5612817,0.0,0.65,-0.99,-0.003272492347489368,0.0,-0.007635815477475192,0.00309949292447474,-0.12312416316993319,-0.0006802617488855388,0,-12.5,0,0,0,-0.345732,1113,1239,1232,1500,1500,1500
1747615895.653749,0.0,0.65,-0.99,-0.003272492347489368,0.0,-0.007635815477475192,0.00309949292447474,-0.12312416316993319,-0.0006802617488855388,0,-12.5,0,0,0,-0.345732,1113,1239,1232,1500,1500,1500
1747615895.7530591,0.11,0.9,-0.67,0.016362461737446838,0.003272492347489368,0.003272492347489368,0.003344950980869433,-0.12300133531435244,-0.0006951834731646521,0,-12.5,0,0,0,-0.345732,1113,1239,1232,1500,1500,1500
1747615895.8382761,0.11,0.9,-0.67,0.016362461737446838,0.003272492347489368,0.003272492347489368,0.003344950980869433,-0.12300133531435244,-0.0006951834731646521,0,-12.5,0,0,0,-0.345732,1113,1239,1232,1500,1500,1500
1747615895.9387796,-0.18,-0.49,0.23,-0.017453292519943295,-0.015271630954950384,-0.013089969389957472,0.0032373971090695836,-0.12312374275480015,-0.0009333666995183425,0,-12.5,0,0,0,-0.345732,1100,1228,1220,1500,1500,1500
1747615896.0245178,-0.18,-0.49,0.23,-0.017453292519943295,-0.015271630954950384,-0.013089969389957472,0.0032373971090695836,-0.12312374275480015,-0.0009333666995183425,0,-12.5,0,0,0,-0.345732,1100,1228,1220,1500,1500,1500
1747615896.125026,0.23,1.25,-1.1400000000000001,0.013089969389957472,0.015271630954950384,0.014180800172453928,0.00337530132681017,-0.12312329231003902,-0.00118647167782943,0,-12.5,0,0,0,-0.345732,1100,1228,1220,1500,1500,1500
1747615896.2220125,-0.15,-0.35000000000000003,-0.73,0.009817477042468103,0.002181661564992912,0.002181661564992912,0.0032524227128665406,-0.12300058458446414,-0.0011786911885975362,0,-12.5,0,0,0,-0.345732,1100,1228,1220,1500,1500,1500
1747615896.305019,-0.15,-0.35000000000000003,-0.73,0.009817477042468103,0.002181661564992912,0.002181661564992912,0.0032524227128665406,-0.12300058458446414,-0.0011786911885975362,0,-12.5,0,0,0,-0.345732,1100,1228,1220,1500,1500,1500
1747615896.4045808,-0.21,-0.47000000000000003,-0.72,0.00545415391248228,-0.004363323129985824,-0.004363323129985824,0.0036204958628238467,-0.1227548744327813,-0.0012008990197610008,0,-12.5,0,0,0,-0.345732,1100,1228,1220,1500,1500,1500
1747615896.503333,-0.21,-0.47000000000000003,-0.72,0.00545415391248228,-0.004363323129985824,-0.004363323129985824,0.0036204958628238467,-0.1227548744327813,-0.0012008990197610008,0,-12.5,0,0,0,-0.345732,1100,1228,1220,1500,1500,1500
1747615896.587262,-0.05,0.87,-0.9,0.009817477042468103,0.007635815477475192,0.006544984694978736,0.0036204958628238467,-0.1227548744327813,-0.0012008990197610008,0,-12.5,0,0,0,-0.345732,1100,1228,1220,1500,1500,1500
1747615896.6874814,0.13,-0.15,-0.9,-0.003272492347489368,0.004363323129985824,0.007635815477475192,0.0038736943890154314,-0.12287728565273005,-0.0013390043562231842,0,-12.5,0,0,0,-0.345732,1100,1228,1220,1500,1500,1500
1747615896.7878804,0.13,-0.15,-0.9,-0.003272492347489368,0.004363323129985824,0.007635815477475192,0.0038736943890154314,-0.12287728565273005,-0.0013390043562231842,0,-12.5,0,0,0,-0.345732,1100,1228,1220,1500,1500,1500
1747615896.8715856,0.27,0.49,-0.9,0.00545415391248228,0.004363323129985824,0.013089969389957472,0.003758217159079513,-0.12263160176146476,-0.001453722900910504,0,-12.5,0,0,0,-0.345732,1100,1228,1220,1500,1500,1500
1747615896.9717324,0.27,0.49,-0.9,0.00545415391248228,0.004363323129985824,0.013089969389957472,0.003758217159079513,-0.12263160176146476,-0.001453722900910504,0,-12.5,0,0,0,-0.345732,1100,1228,1220,1500,1500,1500
1747615897.055781,-0.01,-0.58,-0.68,-0.003272492347489368,-0.006544984694978736,-0.002181661564992912,0.003642992013748837,-0.12263145912929037,-0.0015689473028231843,0,-12.5,0,0,0,-0.345732,1100,1228,1220,1500,1500,1500
1747615897.1553497,-0.06,-0.56,-0.44,0.001090830782496456,0.00545415391248228,0.008726646259971648,0.0038883750627066913,-0.12250853364779948,-0.0015837646779238742,0,-12.5,0,0,0,-0.345732,1100,1228,1220,1500,1500,1500
1747615897.2550302,-0.06,-0.56,-0.44,0.001090830782496456,0.00545415391248228,0.008726646259971648,0.0038883750627066913,-0.12250853364779948,-0.0015837646779238742,0,-12.5,0,0,0,-0.353902,1100,1230,1220,1500,1500,1500
1747615897.3393023,0.07,0.54,-1.11,0.002181661564992912,-0.002181661564992912,-0.013089969389957472,0.003910962984929774,-0.12250783551144863,-0.0019520433657562873,0,-12.5,0,0,0,-0.353902,1100,1230,1220,1500,1500,1500
1747615897.4388566,0.07,0.54,-1.11,0.002181661564992912,-0.002181661564992912,-0.013089969389957472,0.003910962984929774,-0.12250783551144863,-0.0019520433657562873,0,-12.5,0,0,0,-0.353902,1100,1230,1220,1500,1500,1500
1747615897.536993,0.35000000000000003,0.46,-0.84,0.014180800172453928,0.007635815477475192,0.013089969389957472,0.003910635134250038,-0.12226232044013577,-0.0019515192261666066,0,-12.5,0,0,0,-0.353902,1100,1230,1220,1500,1500,1500
1747615897.6214345,0.35000000000000003,0.46,-0.84,0.014180800172453928,0.007635815477475192,0.013089969389957472,0.003910635134250038,-0.12226232044013577,-0.0019515192261666066,0,-12.5,0,0,0,-0.353902,1100,1230,1220,1500,1500,1500
1747615897.7198033,0.02,-0.26,-0.19,0.011999138607461015,0.007635815477475192,0.008726646259971648,0.0036649618903577276,-0.1221397758649147,-0.0019362442298871982,0,-12.5,0,0,0,-0.353902,1100,1230,1220,1500,1500,1500
1747615897.820228,0.13,0.35000000000000003,-0.87,-0.008726646259971648,-0.001090830782496456,0.006544984694978736,0.003564726634956287,-0.12213925040975701,-0.0022970000333418683,0,-12.5,0,0,0,-0.353902,1100,1230,1220,1500,1500,1500
1747615897.921166,0.13,0.35000000000000003,-0.87,-0.008726646259971648,-0.001090830782496456,0.006544984694978736,0.003564726634956287,-0.12213925040975701,-0.0022970000333418683,0,-12.5,0,0,0,-0.353902,1100,1230,1220,1500,1500,1500
1747615898.021268,-0.28,-1.3900000000000001,-0.24,-0.007635815477475192,-0.01090830782496456,-0.016362461737446838,0.0035722330919877652,-0.12213904022770342,-0.002419754185043262,0,0,0,0,0,0,1140,1270,1260,1500,1500,1500
1747615898.103341,0.39,0.6900000000000001,-1.07,0.014180800172453928,0.007635815477475192,0.007635815477475192,0.0032112820914283317,-0.12190124522493949,-0.00251968064326761,0,0,0,0,0,0,1180,1310,1300,1500,1500,1500
1747615898.2059126,0.39,0.6900000000000001,-1.07,0.014180800172453928,0.007635815477475192,0.007635815477475192,0.0032112820914283317,-0.12190124522493949,-0.00251968064326761,0,0,0,0,0,0,1220,1350,1340,1500,1500,1500
1747615898.3048224,-0.45,-0.07,-0.45,-0.013089969389957472,-0.015271630954950384,-0.013089969389957472,0.0033340403855820246,-0.12190110260556514,-0.002527171886583174,0,0,0,0,0,0,1260,1390,1380,1500,1500,1500
1747615898.4048338,-0.45,-0.07,-0.45,-0.013089969389957472,-0.015271630954950384,-0.013089969389957472,0.0033340403855820246,-0.12190110260556514,-0.002527171886583174,0,0,0,0,0,0,1300,1430,1420,1500,1500,1500
1747615898.5046694,-0.08,0.0,-0.43,0.004363323129985824,-0.007635815477475192,0.004363323129985824,0.0034564100206414716,-0.12165544818252905,-0.002534181931059856,0,0,0,0,0,0,1340,1470,1460,1500,1500,1500
1747615898.5901077,0.07,-0.02,-0.4,-0.001090830782496456,-0.002181661564992912,0.0,0.00333346292432643,-0.12153283765801554,-0.002526473010534242,0,0,0,0,0,0,1380,1500,1500,1500,1500,1500
1747615898.687878,0.07,-0.02,-0.4,-0.001090830782496456,-0.002181661564992912,0.0,0.00333346292432643,-0.12153283765801554,-0.002526473010534242,0,0,0,0,0,0,1420,1500,1500,1500,1500,1500
1747615898.7879071,0.0,-0.02,-0.36,-0.002181661564992912,-0.002181661564992912,0.001090830782496456,0.0032109007359773733,-0.12165573341270489,-0.002519229917290508,0,0,0,0,0,0,1460,1500,1500,1500,1500,1500
1747615898.870587,0.0,-0.02,-0.36,-0.002181661564992912,-0.002181661564992912,0.001090830782496456,0.0032109007359773733,-0.12165573341270489,-0.002519229917290508,0,0,0,0,0,0,1500,1500,1500,1500,1500,1500
1747615898.972567,-0.08,0.01,-0.4,0.002181661564992912,0.0,-0.003272492347489368,0.0030881461599216484,-0.12165587602779654,-0.0025117539099830106,0,0,0,0,0,0,1500,1500,1500,1500,1500,1500
1747615899.0709684,-0.06,0.0,-0.41000000000000003,-0.002181661564992912,-0.001090830782496456,-0.001090830782496456,0.0030881461599216484,-0.12165587602779654,-0.0025117539099830106,0,0,0,0,0,0,1500,1500,1500,1500,1500,1500
1747615899.1710584,-0.06,0.0,-0.41000000000000003,-0.002181661564992912,-0.001090830782496456,-0.001090830782496456,0.0030881461599216484,-0.12165587602779654,-0.0025117539099830106,0,0,0,0,0,0,1500,1500,1500,1500,1500,1500
1747615899.2731478,-0.05,-0.02,-0.47000000000000003,-0.002181661564992912,0.0,0.001090830782496456,0.0030881461599216484,-0.12165587602779654,-0.0025117539099830106,0,0,0,0,0,0,1500,1500,1500,1500,1500,1500
1747615899.3728452,-0.07,-0.01,-0.38,0.002181661564992912,-0.001090830782496456,-0.001090830782496456,0.0029653916256116267,-0.12165601864289068,-0.0025042779023947454,0,0,0,0,0,0,1500,1500,1500,1500,1500,1500
1747615899.4728801,-0.07,-0.01,-0.38,0.002181661564992912,-0.001090830782496456,-0.001090830782496456,0.0029653916256116267,-0.12165601864289068,-0.0025042779023947454,0,0,0,0,0,0,1500,1500,1500,1500,1500,1500
1747615899.5708303,-0.06,-0.03,-0.43,0.004363323129985824,0.003272492347489368,0.0,0.0029653916256116267,-0.12165601864289068,-0.0025042779023947454,0,0,0,0,0,0,1500,1500,1500,1500,1500,1500
1747615899.6731503,-0.06,-0.03,-0.43,0.004363323129985824,0.003272492347489368,0.0,0.0029653916256116267,-0.12165601864289068,-0.0025042779023947454,0,0,0,0,0,0,1500,1500,1500,1500,1500,1500
1747615899.7724884,-0.08,-0.03,-0.38,0.0,-0.002181661564992912,-0.001090830782496456,0.0029653916256116267,-0.12165601864289068,-0.0025042779023947454,0,0,0,0,0,0,1500,1500,1500,1500,1500,1500
1747615899.8545814,-0.04,-0.02,-0.45,0.0,0.001090830782496456,0.001090830782496456,0.0029653916256116267,-0.12165601864289068,-0.0025042779023947454,0,0,0,0,0,0,1500,1500,1500,1500,1500,1500
1747615899.9545143,-0.04,-0.02,-0.45,0.0,0.001090830782496456,0.001090830782496456,0.0029653916256116267,-0.12165601864289068,-0.0025042779023947454,0,0,0,0,0,0,1500,1500,1500,1500,1500,1500
1747615900.0551336,-0.08,-0.04,-0.42,0.001090830782496456,-0.00545415391248228,-0.003272492347489368,0.0029653916256116267,-0.12165601864289068,-0.0025042779023947454,0,0,0,0,0,0,1500,1500,1500,1500,1500,1500
1747615900.1489258,-0.04,-0.02,-0.42,0.002181661564992912,-0.001090830782496456,0.001090830782496456,0.0029653916256116267,-0.12165601864289068,-0.0025042779023947454,0,0,0,0,0,0,1500,1500,1500,1500,1500,1500
1747615900.2544806,-0.04,-0.02,-0.42,0.002181661564992912,-0.001090830782496456,0.001090830782496456,0.0029653916256116267,-0.12165601864289068,-0.0025042779023947454,0,0,0,0,0,0,1500,1500,1500,1500,1500,1500
1747615900.3377204,-0.05,-0.04,-0.43,-0.002181661564992912,0.0,-0.002181661564992912,0.0029653916256116267,-0.12165601864289068,-0.0025042779023947454,0,0,0,0,0,0,1500,1500,1500,1500,1500,1500
1747615900.4384766,-0.05,-0.04,-0.43,-0.002181661564992912,0.0,-0.002181661564992912,0.0029653916256116267,-0.12165601864289068,-0.0025042779023947454,0,0,0,0,0,0,1500,1500,1500,1500,1500,1500
1747615900.5371835,-0.05,-0.01,-0.42,0.002181661564992912,-0.003272492347489368,0.001090830782496456,0.0029653916256116267,-0.12165601864289068,-0.0025042779023947454,0,0,0,0,0,0,1500,1500,1500,1500,1500,1500
1747615900.6207523,-0.05,-0.01,-0.42,0.002181661564992912,-0.003272492347489368,0.001090830782496456,0.0029653916256116267,-0.12165601864289068,-0.0025042779023947454,0,0,0,0,0,0,1500,1500,1500,1500,1500,1500
1747615900.7227392,-0.07,-0.01,-0.44,0.002181661564992912,0.0,0.003272492347489368,0.0029653916256116267,-0.12165601864289068,-0.0025042779023947454,0,0,0,0,0,0,1500,1500,1500,1500,1500,1500
1747615900.8535202,-0.04,-0.01,-0.4,-0.002181661564992912,0.0,0.0,0.0029653916256116267,-0.12165601864289068,-0.0025042779023947454,0,0,0,0,0,0,1500,1500,1500,1500,1500,1500
1747615900.955079,-0.04,-0.02,-0.46,0.0,-0.001090830782496456,0.001090830782496456,0.0029653916256116267,-0.12165601864289068,-0.0025042779023947454,0,0,0,0,0,0,1500,1500,1500,1500,1500,1500
1747615901.055617,-0.04,-0.02,-0.46,0.0,-0.001090830782496456,0.001090830782496456,0.0029653916256116267,-0.12165601864289068,-0.0025042779023947454,0,0,0,0,0,0,1500,1500,1500,1500,1500,1500
1747615901.1546025,-0.06,-0.02,-0.4,-0.001090830782496456,-0.001090830782496456,0.0,0.0029653916256116267,-0.12165601864289068,-0.0025042779023947454,0,0,0,0,0,0,1500,1500,1500,1500,1500,1500
1747615901.2531054,-0.05,-0.02,-0.4,-0.002181661564992912,-0.001090830782496456,0.001090830782496456,0.0029653916256116267,-0.12165601864289068,-0.0025042779023947454,0,0,0,0,0,0,1500,1500,1500,1500,1500,1500
1747615901.3406725,-0.05,-0.02,-0.4,-0.002181661564992912,-0.001090830782496456,0.001090830782496456,0.0029653916256116267,-0.12165601864289068,-0.0025042779023947454,0,0,0,0,0,0,1500,1500,1500,1500,1500,1500
1747615901.437334,-0.05,-0.01,-0.47000000000000003,-0.002181661564992912,0.001090830782496456,0.002181661564992912,0.0029653916256116267,-0.12165601864289068,-0.0025042779023947454,0,0,0,0,0,0,1500,1500,1500,1500,1500,1500
1747615901.5378673,-0.05,-0.01,-0.47000000000000003,-0.002181661564992912,0.001090830782496456,0.002181661564992912,0.0029653916256116267,-0.12165601864289068,-0.0025042779023947454,0,0,0,0,0,0,1500,1500,1500,1500,1500,1500
1747615901.6376622,-0.06,-0.01,-0.39,-0.001090830782496456,-0.006544984694978736,0.001090830782496456,0.0029653916256116267,-0.12165601864289068,-0.0025042779023947454,0,0,0,0,0,0,1500,1500,1500,1500,1500,1500
1747615901.7284286,-0.07,0.0,-0.45,0.0,0.002181661564992912,-0.002181661564992912,0.0029653916256116267,-0.12165601864289068,-0.0025042779023947454,0,0,0,0,0,0,1500,1500,1500,1500,1500,1500
1747615901.8233385,-0.07,0.0,-0.45,0.0,0.002181661564992912,-0.002181661564992912,0.0029653916256116267,-0.12165601864289068,-0.0025042779023947454,0,0,0,0,0,0,1500,1500,1500,1500,1500,1500
1747615901.9212484,-0.05,-0.01,-0.41000000000000003,0.002181661564992912,-0.002181661564992912,-0.001090830782496456,0.0029653916256116267,-0.12165601864289068,-0.0025042779023947454,0,0,0,0,0,0,1500,1500,1500,1500,1500,1500
1747615902.0226896,-0.05,-0.01,-0.41000000000000003,0.002181661564992912,-0.002181661564992912,-0.001090830782496456,0.0029653916256116267,-0.12165601864289068,-0.0025042779023947454,0,0,0,0,0,0,1500,1500,1500,1500,1500,1500
1747615902.1045163,-0.04,-0.01,-0.38,0.001090830782496456,0.003272492347489368,0.0,0.0029653916256116267,-0.12165601864289068,-0.0025042779023947454,0,0,0,0,0,0,1500,1500,1500,1500,1500,1500
1747615902.204549,-0.06,-0.02,-0.4,0.001090830782496456,0.0,0.001090830782496456,0.0029653916256116267,-0.12165601864289068,-0.0025042779023947454,0,0,0,0,0,0,1500,1500,1500,1500,1500,1500
1747615902.303546,-0.06,-0.02,-0.4,0.001090830782496456,0.0,0.001090830782496456,0.0029653916256116267,-0.12165601864289068,-0.0025042779023947454,0,0,0,0,0,0,1500,1500,1500,1500,1500,1500
1747615902.4044666,-0.04,-0.02,-0.43,-0.002181661564992912,-0.001090830782496456,-0.001090830782496456,0.0029653916256116267,-0.12165601864289068,-0.0025042779023947454,0,0,0,0,0,0,1500,1500,1500,1500,1500,1500
1747615902.5045614,-0.04,-0.02,-0.43,-0.002181661564992912,-0.001090830782496456,-0.001090830782496456,0.0029653916256116267,-0.12165601864289068,-0.0025042779023947454,0,0,0,0,0,0,1500,1500,1500,1500,1500,1500
1747615902.5877545,-0.06,-0.02,-0.42,0.001090830782496456,0.001090830782496456,-0.006544984694978736,0.0029653916256116267,-0.12165601864289068,-0.0025042779023947454,0,0,0,0,0,0,1500,1500,1500,1500,1500,1500
1747615902.6873293,-0.05,-0.02,-0.43,-0.004363323129985824,-0.002181661564992912,-0.002181661564992912,0.0029653916256116267,-0.12165601864289068,-0.0025042779023947454,0,0,0,0,0,0,1500,1500,1500,1500,1500,1500
1747615902.7882886,-0.05,-0.02,-0.43,-0.004363323129985824,-0.002181661564992912,-0.002181661564992912,0.0029653916256116267,-0.12165601864289068,-0.0025042779023947454,0,0,0,0,0,0,1500,1500,1500,1500,1500,1500
1747615902.8882582,-0.04,-0.04,-0.44,-0.001090830782496456,-0.001090830782496456,0.002181661564992912,0.0029653916256116267,-0.12165601864289068,-0.0025042779023947454,0,0,0,0,0,0,1500,1500,1500,1500,1500,1500
1747615902.9877324,-0.04,-0.04,-0.44,-0.001090830782496456,-0.001090830782496456,0.002181661564992912,0.0029653916256116267,-0.12165601864289068,-0.0025042779023947454,0,0,0,0,0,0,1500,1500,1500,1500,1500,1500
1747615903.0880065,-0.04,-0.02,-0.41000000000000003,-0.003272492347489368,0.004363323129985824,-0.001090830782496456,0.0029653916256116267,-0.12165601864289068,-0.0025042779023947454,0,0,0,0,0,0,1500,1500,1500,1500,1500,1500
1747615903.1885934,-0.06,-0.02,-0.38,-0.003272492347489368,0.002181661564992912,0.0,0.0029653916256116267,-0.12165601864289068,-0.0025042779023947454,0,0,0,0,0,0,1500,1500,1500,1500,1500,1500
1747615903.2878084,-0.06,-0.02,-0.38,-0.003272492347489368,0.002181661564992912,0.0,0.0029653916256116267,-0.12165601864289068,-0.0025042779023947454,0,-12.5,0,0,0,0,1460,1460,1460,1500,1500,1500
1747615903.387815,-0.06,-0.03,-0.45,0.002181661564992912,-0.002181661564992912,0.0,0.0029653916256116267,-0.12165601864289068,-0.0025042779023947454,0,-12.5,0,0,0,0,1420,1420,1420,1500,1500,1500
1747615903.4882636,-0.06,-0.01,-0.4,0.0,-0.002181661564992912,-0.001090830782496456,0.0029653916256116267,-0.12165601864289068,-0.0025042779023947454,0,-12.5,0,0,0,-0.003148,1380,1380,1380,1500,1500,1500
1747615903.5728195,-0.06,-0.01,-0.4,0.0,-0.002181661564992912,-0.001090830782496456,0.0029653916256116267,-0.12165601864289068,-0.0025042779023947454,0,-12.5,0,0,0,-0.092892,1340,1340,1340,1500,1500,1500
1747615903.6733282,-0.23,0.12,-0.51,-0.00545415391248228,0.001090830782496456,0.00545415391248228,0.0027124066709642903,-0.12165646150030411,-0.0023665715380969884,0,-12.5,0,0,0,-0.092892,1300,1300,1300,1500,1500,1500
1747615903.7710266,-0.23,0.12,-0.51,-0.00545415391248228,0.001090830782496456,0.00545415391248228,0.0027124066709642903,-0.12165646150030411,-0.0023665715380969884,0,-12.5,0,0,0,-0.09715,1260,1260,1260,1500,1500,1500
1747615903.8530357,-0.32,0.1,-0.61,-0.003272492347489368,-0.002181661564992912,0.0,0.0029577363167433593,-0.12153343813361103,-0.0023813153324434904,0,-12.5,0,0,0,-0.101504,1220,1220,1220,1500,1500,1500
1747615903.9534428,0.4,-0.26,-0.23,-0.004363323129985824,-0.009817477042468103,0.004363323129985824,0.0027120554338265126,-0.12141095703533589,-0.0023661855970305034,0,-12.5,0,0,0,-0.101504,1180,1184,1220,1500,1500,1500
1747615904.0530398,0.4,-0.26,-0.23,-0.004363323129985824,-0.009817477042468103,0.004363323129985824,0.0027120554338265126,-0.12141095703533589,-0.0023661855970305034,0,-12.5,0,0,0,-0.101504,1140,1184,1220,1500,1500,1500
1747615904.153531,0.24,-0.09,-0.53,0.003272492347489368,0.001090830782496456,-0.00545415391248228,0.0023516195162357895,-0.12165673171839866,-0.0024668978602711495,0,-12.5,0,0,0,-0.101504,1140,1184,1220,1500,1500,1500
1747615904.2530363,0.24,-0.09,-0.53,0.003272492347489368,0.001090830782496456,-0.00545415391248228,0.0023516195162357895,-0.12165673171839866,-0.0024668978602711495,0,-12.5,0,0,0,-0.101504,1140,1184,1220,1500,1500,1500
1747615904.3377724,-0.23,0.3,-0.4,-0.007635815477475192,-0.004363323129985824,-0.011999138607461015,0.002481475504869021,-0.12141094202366991,-0.0025967654497586075,0,-12.5,0,0,0,-0.101504,1140,1184,1220,1500,1500,1500
1747615904.4368582,-0.43,0.61,-0.76,0.009817477042468103,0.01090830782496456,0.011999138607461015,0.00272697697156909,-0.12141064179035622,-0.002611686992067705,0,-12.5,0,0,0,-0.101504,1140,1184,1220,1500,1500,1500
1747615904.5368185,-0.43,0.61,-0.76,0.009817477042468103,0.01090830782496456,0.011999138607461015,0.00272697697156909,-0.12141064179035622,-0.002611686992067705,0,-12.5,0,0,0,-0.101504,1140,1184,1220,1500,1500,1500
1747615904.6229742,-0.02,0.5,-0.64,-0.01090830782496456,-0.004363323129985824,-0.004363323129985824,0.0031024863149239352,-0.12128726184070342,-0.002756598792054441,0,-12.5,0,0,0,-0.101504,1140,1184,1220,1500,1500,1500
1747615904.7220929,-0.02,0.5,-0.64,-0.01090830782496456,-0.004363323129985824,-0.004363323129985824,0.0031024863149239352,-0.12128726184070342,-0.002756598792054441,0,-12.5,0,0,0,-0.101504,1140,1184,1220,1500,1500,1500
1747615904.8204906,-0.24,-0.74,-0.34,0.003272492347489368,-0.001090830782496456,-0.00545415391248228,0.0036081627434970246,-0.12116346343245962,-0.003031653969105515,0,-12.5,0,0,0,-0.101504,1140,1184,1220,1500,1500,1500
1747615904.9234252,0.06,0.81,-0.54,0.00545415391248228,-0.001090830782496456,-0.003272492347489368,0.004850790295387871,-0.1212839142903675,-0.0033519387114378,0,-12.5,0,0,0,-0.101504,1140,1184,1220,1500,1500,1500
1747615905.021098,0.06,0.81,-0.54,0.00545415391248228,-0.001090830782496456,-0.003272492347489368,0.004850790295387871,-0.1212839142903675,-0.0033519387114378,0,-12.5,0,0,0,-0.101504,1140,1184,1220,1500,1500,1500
1747615905.1072671,-0.08,0.54,-0.59,-0.001090830782496456,0.00545415391248228,0.004363323129985824,0.004107080942538087,-0.12140802976099119,-0.003184758543856716,0,-12.5,0,0,0,-0.101504,1140,1184,1220,1500,1500,1500
1747615905.1989486,-0.01,-0.42,-0.1,-0.002181661564992912,-0.004363323129985824,-0.001090830782496456,0.0028802403644103388,-0.12177809056971307,-0.0031107858128501522,0,-12.5,0,0,0,-0.101504,1140,1184,1220,1500,1500,1500
1747615905.289851,-0.01,-0.42,-0.1,-0.002181661564992912,-0.004363323129985824,-0.001090830782496456,0.0028802403644103388,-0.12177809056971307,-0.0031107858128501522,0,-12.5,0,0,0,-0.101504,1140,1184,1220,1500,1500,1500
1747615905.3890285,0.05,-0.67,0.03,0.001090830782496456,0.004363323129985824,0.003272492347489368,0.00019497112218881104,-0.12202756943811884,-0.0031917548797548577,0,-12.5,0,0,0,-0.101504,1140,1184,1220,1500,1500,1500
1747615905.4884176,0.05,-0.67,0.03,0.001090830782496456,0.004363323129985824,0.003272492347489368,0.00019497112218881104,-0.12202756943811884,-0.0031917548797548577,0,-12.5,0,0,0,-0.101504,1140,1184,1220,1500,1500,1500
1747615905.5702162,-0.05,0.29,-0.89,-0.003272492347489368,-0.006544984694978736,-0.011999138607461015,-0.0006568473121168266,-0.12202898814768223,-0.0032620231735005253,0,-12.5,0,0,0,-0.101504,1140,1184,1220,1500,1500,1500
1747615905.6716979,-0.05,0.29,-0.89,-0.003272492347489368,-0.006544984694978736,-0.011999138607461015,-0.0006568473121168266,-0.12202898814768223,-0.0032620231735005253,0,-12.5,0,0,0,-0.101504,1140,1184,1220,1500,1500,1500
1747615905.7709448,-0.26,0.0,-0.2,0.009817477042468103,0.009817477042468103,0.009817477042468103,-0.0005267910545326799,-0.12190607176628776,-0.0033922765181472582,0,-12.5,0,0,0,-0.101504,1140,1184,1220,1500,1500,1500
1747615905.8555915,-0.2,0.52,-0.8200000000000001,-0.006544984694978736,-0.008726646259971648,-0.008726646259971648,0.00021680499292390037,-0.12165929879074217,-0.0035598758176733957,0,-12.5,0,0,0,-0.001789,1157,1165,1220,1500,1500,1500
1747615905.9544723,-0.2,0.52,-0.8200000000000001,-0.006544984694978736,-0.008726646259971648,-0.008726646259971648,0.00021680499292390037,-0.12165929879074217,-0.0035598758176733957,0,0,0,0,0,0,1197,1205,1260,1500,1500,1500
1747615906.0545602,-0.08,-0.21,-0.01,0.006544984694978736,0.009817477042468103,0.006544984694978736,0.0007152973233276136,-0.12165839806351235,-0.003712534626331869,0,0,0,0,0,0,1237,1245,1300,1500,1500,1500
1747615906.150454,-0.34,0.56,-1.01,0.001090830782496456,0.002181661564992912,0.00545415391248228,0.0009677872300821137,-0.12141239815539732,-0.0038500364130045475,0,0,0,0,0,0,1277,1285,1340,1500,1500,1500
1747615906.2547417,-0.34,0.56,-1.01,0.001090830782496456,0.002181661564992912,0.00545415391248228,0.0009677872300821137,-0.12141239815539732,-0.0038500364130045475,0,0,0,0,0,0,1317,1325,1380,1500,1500,1500
1747615906.338307,0.45,0.25,-0.5,0.001090830782496456,0.00545415391248228,0.007635815477475192,0.0015964610386788615,-0.12141106962283156,-0.00413284274312012,0,0,0,0,0,0,1357,1365,1420,1500,1500,1500
1747615906.437509,0.45,0.25,-0.5,0.001090830782496456,0.00545415391248228,0.007635815477475192,0.0015964610386788615,-0.12141106962283156,-0.00413284274312012,0,0,0,0,0,0,1397,1405,1460,1500,1500,1500
1747615906.5382855,0.11,0.11,-0.58,0.003272492347489368,0.0,0.001090830782496456,0.0015964610386788615,-0.12141106962283156,-0.00413284274312012,0,0,0,0,0,0,1437,1445,1500,1500,1500,1500
1747615906.623855,0.11,0.11,-0.58,0.003272492347489368,0.0,0.001090830782496456,0.0015964610386788615,-0.12141106962283156,-0.00413284274312012,0,0,0,0,0,0,1477,1485,1500,1500,1500,1500
1747615906.7222993,0.02,-0.27,-0.38,-0.002181661564992912,0.0,0.0,0.0015961895408509745,-0.1212883201472597,-0.004132698544425585,0,0,0,0,0,0,1500,1500,1500,1500,1500,1500
1747615906.8084388,0.0,-0.02,-0.4,-0.001090830782496456,-0.00545415391248228,-0.003272492347489368,-3.1405816856442,1.5707963267948966,-3.141339142761113,0,0,0,0,0,0,1500,1500,1500,1500,1500,1500
1747615906.9046047,0.0,-0.02,-0.4,-0.001090830782496456,-0.00545415391248228,-0.003272492347489368,-3.1405816856442,1.5707963267948966,-3.141339142761113,0,0,0,0,0,0,1500,1500,1500,1500,1500,1500
1747615907.0048485,-0.04,0.0,-0.39,-0.001090830782496456,0.0,0.0,0.0014734409019941253,-0.1212885678360479,-0.004125245428207899,0,0,0,0,0,0,1500,1500,1500,1500,1500,1500
1747615907.088924,-0.04,0.0,-0.39,-0.001090830782496456,0.0,0.0,0.0014734409019941253,-0.1212885678360479,-0.004125245428207899,0,0,0,0,0,0,1500,1500,1500,1500,1500,1500
1747615907.1890976,-0.04,-0.02,-0.46,-0.001090830782496456,0.001090830782496456,0.001090830782496456,0.0013506922777070834,-0.12128881552484358,-0.004117792311531906,0,0,0,0,0,0,1500,1500,1500,1500,1500,1500
1747615907.2879817,-0.05,-0.01,-0.38,-0.001090830782496456,-0.001090830782496456,0.001090830782496456,0.0013506922777070834,-0.12128881552484358,-0.004117792311531906,0,0,0,0,0,0,1500,1500,1500,1500,1500,1500
1747615907.3710544,-0.05,-0.01,-0.38,-0.001090830782496456,-0.001090830782496456,0.001090830782496456,0.0013506922777070834,-0.12128881552484358,-0.004117792311531906,0,0,0,0,0,0,1500,1500,1500,1500,1500,1500
1747615907.472545,-0.06,0.0,-0.41000000000000003,-0.001090830782496456,-0.002181661564992912,0.0,0.0013506922777070834,-0.12128881552484358,-0.004117792311531906,0,0,0,0,0,0,1500,1500,1500,1500,1500,1500
1747615907.5718713,-0.06,0.0,-0.41000000000000003,-0.001090830782496456,-0.002181661564992912,0.0,0.0013506922777070834,-0.12128881552484358,-0.004117792311531906,0,0,0,0,0,0,1500,1500,1500,1500,1500,1500
1747615907.6739354,-0.05,0.0,-0.42,0.002181661564992912,0.0,-0.001090830782496456,0.0013506922777070834,-0.12128881552484358,-0.004117792311531906,0,0,0,0,0,0,1500,1500,1500,1500,1500,1500
1747615907.7722497,-0.05,0.0,-0.4,0.004363323129985824,0.0,-0.001090830782496456,0.0013506922777070834,-0.12128881552484358,-0.004117792311531906,0,0,0,0,0,0,1500,1500,1500,1500,1500,1500
1747615907.8531537,-0.05,0.0,-0.4,0.004363323129985824,0.0,-0.001090830782496456,0.0013506922777070834,-0.12128881552484358,-0.004117792311531906,0,0,0,0,0,0,1500,1500,1500,1500,1500,1500
1747615907.9559636,-0.05,0.0,-0.43,-0.001090830782496456,-0.004363323129985824,0.0,0.0013506922777070834,-0.12128881552484358,-0.004117792311531906,0,0,0,0,0,0,1500,1500,1500,1500,1500,1500
1747615908.0547445,-0.05,0.0,-0.4,0.001090830782496456,0.006544984694978736,0.0,0.0013506922777070834,-0.12128881552484358,-0.004117792311531906,0,0,0,0,0,0,1500,1500,1500,1500,1500,1500
1747615908.1562629,-0.05,0.0,-0.4,0.001090830782496456,0.006544984694978736,0.0,0.0013506922777070834,-0.12128881552484358,-0.004117792311531906,0,0,0,0,0,0,1500,1500,1500,1500,1500,1500
1747615908.2531562,-0.04,0.0,-0.42,0.002181661564992912,-0.001090830782496456,0.0,0.0013506922777070834,-0.12128881552484358,-0.004117792311531906,0,0,0,0,0,0,1500,1500,1500,1500,1500,1500
1747615908.3370812,-0.04,0.0,-0.42,0.002181661564992912,-0.001090830782496456,0.0,0.0013506922777070834,-0.12128881552484358,-0.004117792311531906,0,0,0,0,0,0,1500,1500,1500,1500,1500,1500
1747615908.4377956,-0.05,-0.01,-0.39,-0.003272492347489368,0.0,0.0,0.0013506922777070834,-0.12128881552484358,-0.004117792311531906,0,0,0,0,0,0,1500,1500,1500,1500,1500,1500
1747615908.538358,-0.05,0.0,-0.44,0.0,0.001090830782496456,-0.001090830782496456,0.0013506922777070834,-0.12128881552484358,-0.004117792311531906,0,0,0,0,0,0,1500,1500,1500,1500,1500,1500
1747615908.638008,-0.05,0.0,-0.44,0.0,0.001090830782496456,-0.001090830782496456,0.0013506922777070834,-0.12128881552484358,-0.004117792311531906,0,0,0,0,0,0,1500,1500,1500,1500,1500,1500
1747615908.7386982,-0.05,-0.03,-0.39,0.002181661564992912,0.001090830782496456,0.001090830782496456,0.0013506922777070834,-0.12128881552484358,-0.004117792311531906,0,0,0,0,0,0,1500,1500,1500,1500,1500,1500
1747615908.8215828,-0.05,-0.03,-0.39,0.002181661564992912,0.001090830782496456,0.001090830782496456,0.0013506922777070834,-0.12128881552484358,-0.004117792311531906,0,0,0,0,0,0,1500,1500,1500,1500,1500,1500
1747615908.9218247,-0.05,0.0,-0.44,0.001090830782496456,-0.001090830782496456,-0.001090830782496456,0.0013506922777070834,-0.12128881552484358,-0.004117792311531906,0,0,0,0,0,0,1500,1500,1500,1500,1500,1500
1747615909.0211613,-0.06,-0.02,-0.43,0.0,0.001090830782496456,-0.001090830782496456,0.0013506922777070834,-0.12128881552484358,-0.004117792311531906,0,0,0,0,0,0,1500,1500,1500,1500,1500,1500
1747615909.106415,-0.06,-0.02,-0.43,0.0,0.001090830782496456,-0.001090830782496456,0.0013506922777070834,-0.12128881552484358,-0.004117792311531906,0,0,0,0,0,0,1500,1500,1500,1500,1500,1500
1747615909.2047849,-0.07,-0.01,-0.39,0.002181661564992912,-0.001090830782496456,-0.001090830782496456,0.0013506922777070834,-0.12128881552484358,-0.004117792311531906,0,0,0,0,0,0,1500,1500,1500,1500,1500,1500
1747615909.306766,-0.05,0.0,-0.42,0.001090830782496456,0.00545415391248228,0.0,0.0013506922777070834,-0.12128881552484358,-0.004117792311531906,0,0,0,0,0,0,1500,1500,1500,1500,1500,1500
1747615909.4039125,-0.05,0.0,-0.42,0.001090830782496456,0.00545415391248228,0.0,0.0013506922777070834,-0.12128881552484358,-0.004117792311531906,0,0,0,0,0,0,1500,1500,1500,1500,1500,1500
1747615909.504582,-0.07,0.0,-0.42,0.001090830782496456,-0.003272492347489368,0.001090830782496456,0.0013506922777070834,-0.12128881552484358,-0.004117792311531906,0,0,0,0,0,0,1500,1500,1500,1500,1500,1500
1747615909.5879164,-0.07,0.0,-0.42,0.001090830782496456,-0.003272492347489368,0.001090830782496456,0.0013506922777070834,-0.12128881552484358,-0.004117792311531906,0,0,0,0,0,0,1500,1500,1500,1500,1500,1500
1747615909.6878996,-0.08,-0.02,-0.44,0.0,-0.003272492347489368,0.0,0.0013506922777070834,-0.12128881552484358,-0.004117792311531906,0,0,0,0,0,0,1500,1500,1500,1500,1500,1500
1747615909.7825038,-0.06,0.0,-0.39,0.001090830782496456,-0.001090830782496456,0.002181661564992912,0.0013509601142773977,-0.1214115650078309,-0.004117921276392537,0,0,0,0,0,0,1500,1500,1500,1500,1500,1500
1747615909.872228,-0.06,0.0,-0.39,0.001090830782496456,-0.001090830782496456,0.002181661564992912,0.0013509601142773977,-0.1214115650078309,-0.004117921276392537,0,0,0,0,0,0,1500,1500,1500,1500,1500,1500
1747615909.970756,-0.03,0.0,-0.46,0.0,0.004363323129985824,0.002181661564992912,0.0013509601142773977,-0.1214115650078309,-0.004117921276392537,0,0,0,0,0,0,1500,1500,1500,1500,1500,1500
1747615910.072296,-0.03,0.0,-0.46,0.0,0.004363323129985824,0.002181661564992912,0.0013509601142773977,-0.1214115650078309,-0.004117921276392537,0,0,0,0,0,0,1500,1500,1500,1500,1500,1500
1747615910.1702678,-0.04,0.0,-0.42,0.002181661564992912,0.001090830782496456,0.0,0.0013509601142773977,-0.1214115650078309,-0.004117921276392537,0,0,0,0,0,0,1500,1500,1500,1500,1500,1500
1747615910.2709453,-0.07,0.0,-0.44,0.001090830782496456,0.001090830782496456,0.001090830782496456,0.0013509601142773977,-0.1214115650078309,-0.004117921276392537,0,0,0,0,0,0,1500,1500,1500,1500,1500,1500
1747615910.3563833,-0.07,0.0,-0.44,0.001090830782496456,0.001090830782496456,0.001090830782496456,0.0013509601142773977,-0.1214115650078309,-0.004117921276392537,0,0,0,0,0,0,1500,1500,1500,1500,1500,1500
1747615910.455765,-0.07,-0.01,-0.4,0.0,0.0,0.0,0.0013509601142773977,-0.1214115650078309,-0.004117921276392537,0,0,0,0,0,0,1500,1500,1500,1500,1500,1500
1747615910.5536551,-0.07,-0.01,-0.4,0.0,0.0,0.0,0.0013509601142773977,-0.1214115650078309,-0.004117921276392537,0,0,0,0,0,0,1500,1500,1500,1500,1500,1500
1747615910.6531453,-0.07,-0.01,-0.4,-0.002181661564992912,0.003272492347489368,0.001090830782496456,0.0013509601142773977,-0.1214115650078309,-0.004117921276392537,0,0,0,0,0,0,1500,1500,1500,1500,1500,1500
1747615910.7533484,-0.06,0.0,-0.4,0.00545415391248228,-0.002181661564992912,-0.002181661564992912,0.0013509601142773977,-0.1214115650078309,-0.004117921276392537,0,0,0,0,0,0,1500,1500,1500,1500,1500,1500
1747615910.837422,-0.06,0.0,-0.4,0.00545415391248228,-0.002181661564992912,-0.002181661564992912,0.0013509601142773977,-0.1214115650078309,-0.004117921276392537,0,0,0,0,0,0,1500,1500,1500,1500,1500,1500
1747615910.9374652,-0.04,0.0,-0.43,0.001090830782496456,-0.006544984694978736,0.0,0.0013509601142773977,-0.1214115650078309,-0.004117921276392537,0,0,0,0,0,0,1500,1500,1500,1500,1500,1500
1747615911.037569,-0.04,0.0,-0.43,0.001090830782496456,-0.006544984694978736,0.0,0.0013509601142773977,-0.1214115650078309,-0.004117921276392537,0,0,0,0,0,0,1500,1500,1500,1500,1500,1500
1747615911.1370487,-0.06,0.0,-0.43,-0.002181661564992912,0.0,0.0,0.0013509601142773977,-0.1214115650078309,-0.004117921276392537,0,0,0,0,0,0,1500,1500,1500,1500,1500,1500
1747615911.2378068,-0.06,-0.02,-0.41000000000000003,0.002181661564992912,0.0,0.001090830782496456,0.0013509601142773977,-0.1214115650078309,-0.004117921276392537,0,0,0,0,0,0,1500,1500,1500,1500,1500,1500
1747615911.322327,-0.06,-0.02,-0.41000000000000003,0.002181661564992912,0.0,0.001090830782496456,0.0013509601142773977,-0.1214115650078309,-0.004117921276392537,0,0,0,0,0,0,1500,1500,1500,1500,1500,1500
1747615911.4210246,-0.05,0.0,-0.38,-0.001090830782496456,-0.001090830782496456,0.0,0.0013509601142773977,-0.1214115650078309,-0.004117921276392537,0,0,0,0,0,0,1500,1500,1500,1500,1500,1500
1747615911.5199707,-0.05,0.0,-0.38,-0.001090830782496456,-0.001090830782496456,0.0,0.0013509601142773977,-0.1214115650078309,-0.004117921276392537,0,0,0,0,0,0,1500,1500,1500,1500,1500,1500
1747615911.6032152,-0.04,0.0,-0.43,-0.002181661564992912,0.0,0.001090830782496456,0.0013509601142773977,-0.1214115650078309,-0.004117921276392537,0,0,0,0,0,0,1500,1500,1500,1500,1500,1500
1747615911.7045977,-0.05,0.0,-0.39,-0.002181661564992912,0.001090830782496456,0.0,0.0013509601142773977,-0.1214115650078309,-0.004117921276392537,0,0,0,0,0,0,1500,1500,1500,1500,1500,1500
1747615911.8068998,-0.05,0.0,-0.39,-0.002181661564992912,0.001090830782496456,0.0,0.0013509601142773977,-0.1214115650078309,-0.004117921276392537,0,0,0,0,0,0,1500,1500,1500,1500,1500,1500
1747615911.904422,-0.06,-0.02,-0.45,0.0,0.002181661564992912,0.001090830782496456,0.0013509601142773977,-0.1214115650078309,-0.004117921276392537,0,0,0,0,0,0,1500,1500,1500,1500,1500,1500
1747615911.994726,-0.03,-0.02,-0.43,0.001090830782496456,-0.002181661564992912,0.001090830782496456,0.0013509601142773977,-0.1214115650078309,-0.004117921276392537,0,0,0,0,0,0,1500,1500,1500,1500,1500,1500
1747615912.0874481,-0.03,-0.02,-0.43,0.001090830782496456,-0.002181661564992912,0.001090830782496456,0.0013509601142773977,-0.1214115650078309,-0.004117921276392537,0,0,0,0,0,0,1500,1500,1500,1500,1500,1500
1747615912.1879401,-0.06,-0.01,-0.4,-0.004363323129985824,-0.003272492347489368,-0.001090830782496456,0.0013509601142773977,-0.1214115650078309,-0.004117921276392537,0,0,0,0,0,0,1500,1500,1500,1500,1500,1500
1747615912.2876177,-0.06,-0.01,-0.4,-0.004363323129985824,-0.003272492347489368,-0.001090830782496456,0.0013509601142773977,-0.1214115650078309,-0.004117921276392537,0,0,0,0,0,0,1500,1500,1500,1500,1500,1500
1747615912.371032,-0.05,0.0,-0.43,-0.001090830782496456,-0.003272492347489368,0.003272492347489368,0.0013509601142773977,-0.1214115650078309,-0.004117921276392537,0,0,0,0,0,0,1500,1500,1500,1500,1500,1500
1747615912.4704478,-0.06,0.0,-0.4,0.0,-0.003272492347489368,-0.001090830782496456,0.0013509601142773977,-0.1214115650078309,-0.004117921276392537,0,0,0,0,0,0,1500,1500,1500,1500,1500,1500
1747615912.555983,-0.06,0.0,-0.4,0.0,-0.003272492347489368,-0.001090830782496456,0.0013509601142773977,-0.1214115650078309,-0.004117921276392537,0,0,0,0,0,0,1500,1500,1500,1500,1500,1500
1747615912.6553445,-0.06,-0.01,-0.44,0.001090830782496456,0.0,0.001090830782496456,0.0013509601142773977,-0.1214115650078309,-0.004117921276392537,0,0,0,0,0,0,1500,1500,1500,1500,1500,1500
1747615912.7533429,-0.06,-0.01,-0.44,0.001090830782496456,0.0,0.001090830782496456,0.0013509601142773977,-0.1214115650078309,-0.004117921276392537,0,0,0,0,0,0,1500,1500,1500,1500,1500,1500
1747615912.8381534,-0.08,-0.01,-0.4,-0.001090830782496456,-0.001090830782496456,0.002181661564992912,0.0013509601142773977,-0.1214115650078309,-0.004117921276392537,0,0,0,0,0,0,1500,1500,1500,1500,1500,1500
1747615912.9380102,-0.08,-0.01,-0.4,-0.001090830782496456,-0.001090830782496456,0.002181661564992912,0.0013509601142773977,-0.1214115650078309,-0.004117921276392537,0,0,0,0,0,0,1500,1500,1500,1500,1500,1500
1747615913.0380569,-0.05,0.0,-0.4,0.004363323129985824,-0.003272492347489368,0.0,0.0013509601142773977,-0.1214115650078309,-0.004117921276392537,0,0,0,0,0,0,1500,1500,1500,1500,1500,1500
1747615913.122414,-0.05,0.0,-0.42,0.0,0.0,0.0,0.0013509601142773977,-0.1214115650078309,-0.004117921276392537,0,0,0,0,0,0,1500,1500,1500,1500,1500,1500
1747615913.2227657,-0.05,0.0,-0.42,0.0,0.0,0.0,0.0013509601142773977,-0.1214115650078309,-0.004117921276392537,0,0,0,0,0,0,1500,1500,1500,1500,1500,1500
1747615913.3060176,-0.07,0.0,-0.41000000000000003,0.002181661564992912,-0.002181661564992912,0.0,0.0013509601142773977,-0.1214115650078309,-0.004117921276392537,0,0,0,0,0,0,1500,1500,1500,1500,1500,1500
1747615913.404583,-0.07,0.0,-0.41000000000000003,0.002181661564992912,-0.002181661564992912,0.0,0.0013509601142773977,-0.1214115650078309,-0.004117921276392537,0,0,0,0,0,0,1500,1500,1500,1500,1500,1500
1747615913.5056877,-0.05,-0.01,-0.42,-0.003272492347489368,0.0,0.001090830782496456,0.0013509601142773977,-0.1214115650078309,-0.004117921276392537,0,0,0,0,0,0,1500,1500,1500,1500,1500,1500
1747615913.5889595,-0.05,0.01,-0.4,-0.001090830782496456,-0.001090830782496456,-0.001090830782496456,0.0013509601142773977,-0.1214115650078309,-0.004117921276392537,0,0,0,0,0,0,1500,1500,1500,1500,1500,1500
1747615913.6873925,-0.05,0.01,-0.4,-0.001090830782496456,-0.001090830782496456,-0.001090830782496456,0.0013509601142773977,-0.1214115650078309,-0.004117921276392537,0,0,0,0,0,0,1500,1500,1500,1500,1500,1500
1747615913.7893822,-0.07,-0.01,-0.44,-0.001090830782496456,-0.001090830782496456,0.0,0.0013509601142773977,-0.1214115650078309,-0.004117921276392537,0,0,0,0,0,0,1500,1500,1500,1500,1500,1500
1747615913.888031,-0.05,0.0,-0.41000000000000003,0.003272492347489368,0.002181661564992912,-0.002181661564992912,0.0013509601142773977,-0.1214115650078309,-0.004117921276392537,0,0,0,0,0,0,1500,1500,1500,1500,1500,1500
1747615913.98751,-0.05,0.0,-0.41000000000000003,0.003272492347489368,0.002181661564992912,-0.002181661564992912,0.0013509601142773977,-0.1214115650078309,-0.004117921276392537,0,0,0,0,0,0,1500,1500,1500,1500,1500,1500
1747615914.0710194,-0.04,0.0,-0.45,0.0,-0.001090830782496456,0.0,0.0013509601142773977,-0.1214115650078309,-0.004117921276392537,0,0,0,0,0,0,1500,1500,1500,1500,1500,1500
1747615914.174707,-0.04,0.0,-0.45,0.0,-0.001090830782496456,0.0,0.0013509601142773977,-0.1214115650078309,-0.004117921276392537,0,0,0,0,0,0,1500,1500,1500,1500,1500,1500
1747615914.2724564,-0.06,0.0,-0.43,0.002181661564992912,0.0,-0.002181661564992912,0.0013509601142773977,-0.1214115650078309,-0.004117921276392537,0,0,0,0,0,0,1500,1500,1500,1500,1500,1500
1747615914.3556416,-0.06,0.0,-0.43,0.002181661564992912,0.0,-0.002181661564992912,0.0013509601142773977,-0.1214115650078309,-0.004117921276392537,0,0,0,0,0,0,1500,1500,1500,1500,1500,1500
1747615914.4583995,-0.05,0.0,-0.44,0.003272492347489368,0.004363323129985824,-0.003272492347489368,0.0013509601142773977,-0.1214115650078309,-0.004117921276392537,0,0,0,0,0,0,1500,1500,1500,1500,1500,1500
1747615914.5544899,-0.06,-0.02,-0.42,0.0,0.001090830782496456,0.0,0.0013509601142773977,-0.1214115650078309,-0.004117921276392537,0,0,0,0,0,0,1500,1500,1500,1500,1500,1500
1747615914.6662784,-0.06,-0.02,-0.42,0.0,0.001090830782496456,0.0,0.0013509601142773977,-0.1214115650078309,-0.004117921276392537,0,0,0,0,0,0,1500,1500,1500,1500,1500,1500
1747615914.7749043,-0.06,0.0,-0.41000000000000003,-0.001090830782496456,-0.001090830782496456,-0.001090830782496456,0.0013509601142773977,-0.1214115650078309,-0.004117921276392537,0,0,0,0,0,0,1500,1500,1500,1500,1500,1500
1747615914.87219,-0.05,-0.02,-0.44,-0.001090830782496456,0.001090830782496456,0.0,0.0013509601142773977,-0.1214115650078309,-0.004117921276392537,0,0,0,0,0,0,1500,1500,1500,1500,1500,1500
1747615914.9704306,-0.05,-0.02,-0.44,-0.001090830782496456,0.001090830782496456,0.0,0.0013509601142773977,-0.1214115650078309,-0.004117921276392537,0,0,0,0,0,0,1500,1500,1500,1500,1500,1500
1747615915.055663,-0.07,0.0,-0.38,0.0,-0.003272492347489368,0.0,0.0013509601142773977,-0.1214115650078309,-0.004117921276392537,0,0,0,0,0,0,1500,1500,1500,1500,1500,1500
1747615915.154862,-0.06,-0.02,-0.45,0.002181661564992912,0.004363323129985824,0.0,0.0013509601142773977,-0.1214115650078309,-0.004117921276392537,0,0,0,0,0,0,1500,1500,1500,1500,1500,1500
1747615915.2563972,-0.06,-0.02,-0.45,0.002181661564992912,0.004363323129985824,0.0,0.0013509601142773977,-0.1214115650078309,-0.004117921276392537,0,0,0,0,0,0,1500,1500,1500,1500,1500,1500
1747615915.336882,-0.07,-0.01,-0.41000000000000003,-0.002181661564992912,-0.002181661564992912,-0.002181661564992912,0.0013509601142773977,-0.1214115650078309,-0.004117921276392537,0,0,0,0,0,0,1500,1500,1500,1500,1500,1500
1747615915.4380162,-0.07,-0.01,-0.41000000000000003,-0.002181661564992912,-0.002181661564992912,-0.002181661564992912,0.0013509601142773977,-0.1214115650078309,-0.004117921276392537,0,0,0,0,0,0,1500,1500,1500,1500,1500,1500
1747615915.5370767,-0.03,-0.01,-0.44,0.0,0.0,0.001090830782496456,0.0013509601142773977,-0.1214115650078309,-0.004117921276392537,0,0,0,0,0,0,1500,1500,1500,1500,1500,1500
1747615915.621326,-0.03,-0.01,-0.44,0.0,0.0,0.001090830782496456,0.0013509601142773977,-0.1214115650078309,-0.004117921276392537,0,0,0,0,0,0,1500,1500,1500,1500,1500,1500
1747615915.7210763,-0.03,-0.02,-0.44,-0.001090830782496456,0.0,0.0,0.0013509601142773977,-0.1214115650078309,-0.004117921276392537,0,0,0,0,0,0,1500,1500,1500,1500,1500,1500
1747615915.821082,-0.03,0.0,-0.4,0.003272492347489368,-0.002181661564992912,0.001090830782496456,0.0013509601142773977,-0.1214115650078309,-0.004117921276392537,0,0,0,0,0,0,1500,1500,1500,1500,1500,1500
1747615915.9214952,-0.03,0.0,-0.4,0.003272492347489368,-0.002181661564992912,0.001090830782496456,0.0013509601142773977,-0.1214115650078309,-0.004117921276392537,0,0,0,0,0,0,1500,1500,1500,1500,1500,1500
1747615916.0218868,-0.07,0.0,-0.44,-0.001090830782496456,0.0,-0.002181661564992912,0.0013509601142773977,-0.1214115650078309,-0.004117921276392537,0,0,0,0,0,0,1500,1500,1500,1500,1500,1500
1747615916.1058762,-0.06,0.0,-0.36,-0.001090830782496456,0.001090830782496456,-0.001090830782496456,0.0013509601142773977,-0.1214115650078309,-0.004117921276392537,0,0,0,0,0,0,1500,1500,1500,1500,1500,1500
1747615916.2047145,-0.06,0.0,-0.36,-0.001090830782496456,0.001090830782496456,-0.001090830782496456,0.0013509601142773977,-0.1214115650078309,-0.004117921276392537,0,0,0,0,0,0,1500,1500,1500,1500,1500,1500
