time,ay,ax,az,gy,gx,gz,roll,pitch,yaw,cmd_fx,cmd_fy,cmd_fz,cmd_tx,cmd_ty,cmd_tz,pwm_1,pwm_2,pwm_3,pwm_4,pwm_5,pwm_6
1747551205.194137,0.0,0.0,0.0,0.0,0.0,0.0,0.0,0.0,0.0,0,0,0,0,0,0,1500,1500,1500,1500,1500,1500
1747551205.2805934,-0.05,-0.35000000000000003,0.1,-0.014180800172453928,-0.04581489286485115,0.011999138607461015,1.914020100658817,-0.24356800519934957,-0.38521980654484916,0,0,0,0,0,0,1500,1500,1500,1500,1500,1500
1747551205.3812077,-0.05,-0.35000000000000003,0.1,-0.014180800172453928,-0.04581489286485115,0.011999138607461015,1.914020100658817,-0.24356800519934957,-0.38521980654484916,0,0,0,0,0,0,1500,1500,1500,1500,1500,1500
1747551205.4650884,-0.03,-0.34,0.02,-0.008726646259971648,-0.044724062082354694,0.008726646259971648,1.9152481744487355,-0.2419764400436237,-0.39253231715443027,0,0,0,0,0,0,1500,1500,1500,1500,1500,1500
1747551205.563505,-0.03,-0.34,0.02,-0.008726646259971648,-0.044724062082354694,0.008726646259971648,1.9152481744487355,-0.2419764400436237,-0.39253231715443027,0,0,0,0,0,0,1500,1500,1500,1500,1500,1500
1747551205.6646712,-0.02,-0.36,0.07,-0.00545415391248228,0.001090830782496456,0.0,1.9164205792038012,-0.24091380815594168,-0.3971668910148331,0,0,0,0,0,0,1500,1500,1500,1500,1500,1500
1747551205.76379,0.08,-0.05,0.0,-0.011999138607461015,0.0,0.00545415391248228,1.9155928784911591,-0.24086855039731847,-0.3972080806075277,0,0,0,0,0,0,1500,1500,1500,1500,1500,1500
1747551205.8634439,0.08,-0.05,0.0,-0.011999138607461015,0.0,0.00545415391248228,1.9155928784911591,-0.24086855039731847,-0.3972080806075277,0,0,0,0,0,0,1500,1500,1500,1500,1500,1500
1747551205.9475446,0.04,-0.05,0.04,-0.006544984694978736,0.009817477042468103,0.007635815477475192,1.9151189731102465,-0.24088578189010476,-0.39704807589612756,0,0,0,0,0,0,1500,1500,1500,1500,1500,1500
1747551206.042624,0.08,0.0,-0.02,0.003272492347489368,0.003272492347489368,0.00545415391248228,1.9151189731102465,-0.24088578189010476,-0.39704807589612756,0,0,0,0,0,0,1500,1500,1500,1500,1500,1500
1747551206.1472363,0.08,0.0,-0.02,0.003272492347489368,0.003272492347489368,0.00545415391248228,1.9151189731102465,-0.24088578189010476,-0.39704807589612756,0,0,0,0,0,0,1500,1500,1500,1500,1500,1500
1747551206.2471268,0.08,-0.07,-0.02,-0.001090830782496456,0.003272492347489368,-0.001090830782496456,1.9151189731102465,-0.24088578189010476,-0.39704807589612756,0,0,0,0,0,0,1500,1500,1500,1500,1500,1500
1747551206.3473423,0.08,-0.07,-0.02,-0.001090830782496456,0.003272492347489368,-0.001090830782496456,1.9151189731102465,-0.24088578189010476,-0.39704807589612756,0,0,0,0,0,0,1500,1500,1500,1500,1500,1500
1747551206.4309533,0.09,-0.08,-0.05,-0.007635815477475192,-0.007635815477475192,-0.003272492347489368,1.9151722146812082,-0.2409586291004351,-0.3971609195943491,0,0,0,0,0,0,1500,1500,1500,1500,1500,1500
1747551206.5323322,0.07,-0.07,0.03,-0.002181661564992912,-0.003272492347489368,0.004363323129985824,1.915195738467475,-0.2408316402635005,-0.3972277855704541,0,0,0,0,0,0,1500,1500,1500,1500,1500,1500
1747551206.630925,0.07,-0.07,0.03,-0.002181661564992912,-0.003272492347489368,0.004363323129985824,1.915195738467475,-0.2408316402635005,-0.3972277855704541,0,0,0,0,0,0,1500,1500,1500,1500,1500,1500
1747551206.712957,0.05,-0.06,-0.01,-0.007635815477475192,0.0,0.001090830782496456,1.915195738467475,-0.2408316402635005,-0.3972277855704541,0,0,0,0,0,0,1500,1500,1500,1500,1500,1500
1747551206.8139608,0.05,-0.06,-0.01,-0.007635815477475192,0.0,0.001090830782496456,1.915195738467475,-0.2408316402635005,-0.3972277855704541,0,0,0,0,0,0,1500,1500,1500,1500,1500,1500
1747551206.9140718,0.06,-0.01,0.03,-0.001090830782496456,0.003272492347489368,-0.003272492347489368,1.915195738467475,-0.2408316402635005,-0.3972277855704541,0,0,0,0,0,0,1500,1500,1500,1500,1500,1500
1747551207.0142708,0.06,-0.05,0.05,0.004363323129985824,0.0,-0.01090830782496456,1.9150699332958465,-0.24048931489962802,-0.39713964962159193,0,0,0,0,0,0,1500,1500,1500,1500,1500,1500
1747551207.1143093,0.06,-0.05,0.05,0.004363323129985824,0.0,-0.01090830782496456,1.9150699332958465,-0.24048931489962802,-0.39713964962159193,0,0,0,0,0,0,1500,1500,1500,1500,1500,1500
1747551207.198384,0.07,-0.05,0.03,0.004363323129985824,-0.001090830782496456,0.008726646259971648,1.9150699332958465,-0.24048931489962802,-0.39713964962159193,0,0,0,0,0,0,1500,1500,1500,1500,1500,1500
1747551207.296944,0.07,-0.05,0.03,0.004363323129985824,-0.001090830782496456,0.008726646259971648,1.9150699332958465,-0.24048931489962802,-0.39713964962159193,0,0,0,0,0,0,1500,1500,1500,1500,1500,1500
1747551207.3991349,0.05,-0.06,0.0,-0.001090830782496456,0.001090830782496456,0.018544123302439753,1.9152287532181713,-0.24221049325856658,-0.3976849932925707,0,0,0,0,0,0,1500,1500,1500,1500,1500,1500
1747551207.4985912,0.05,-0.02,0.0,0.001090830782496456,-0.001090830782496456,0.016362461737446838,1.9155804988870357,-0.24498229147805586,-0.3987374212509632,0,0,0,0,0,0,1500,1500,1500,1500,1500,1500
1747551207.5971282,0.05,-0.02,0.0,0.001090830782496456,-0.001090830782496456,0.016362461737446838,1.9155804988870357,-0.24498229147805586,-0.3987374212509632,0,0,0,0,0,0,1500,1500,1500,1500,1500,1500
1747551207.681231,0.02,-0.05,-0.04,0.001090830782496456,-0.002181661564992912,-0.002181661564992912,1.9155372945518305,-0.24522840879640911,-0.39886830934946843,0,0,0,0,0,0,1500,1500,1500,1500,1500,1500
1747551207.780477,0.05,-0.03,0.02,-0.003272492347489368,-0.003272492347489368,-0.003272492347489368,1.9155372945518305,-0.24522840879640911,-0.39886830934946843,0,0,0,0,0,0,1500,1500,1500,1500,1500,1500
1747551207.8805003,0.05,-0.03,0.02,-0.003272492347489368,-0.003272492347489368,-0.003272492347489368,1.9155372945518305,-0.24522840879640911,-0.39886830934946843,0,0,0,0,0,0,1500,1500,1500,1500,1500,1500
1747551207.964956,0.01,-0.05,0.03,-0.003272492347489368,0.006544984694978736,0.008726646259971648,1.9155372945518305,-0.24522840879640911,-0.39886830934946843,0,0,0,0,0,0,1500,1500,1500,1500,1500,1500
1747551208.0642502,0.01,-0.05,0.03,-0.003272492347489368,0.006544984694978736,0.008726646259971648,1.9155372945518305,-0.24522840879640911,-0.39886830934946843,0,0,0,0,0,0,1500,1500,1500,1500,1500,1500
1747551208.1648452,0.0,-0.07,0.04,0.001090830782496456,0.0,0.00545415391248228,1.9155039404066585,-0.24557289558987674,-0.39893054822801216,0,0,0,0,0,0,1500,1500,1500,1500,1500,1500
1747551208.2647028,-0.01,-0.04,0.0,-0.008726646259971648,-0.007635815477475192,-0.00545415391248228,1.915538215427926,-0.24544908706643062,-0.3991810132801628,0,0,0,0,0,0,1500,1500,1500,1500,1500,1500
1747551208.3641653,-0.01,-0.04,0.0,-0.008726646259971648,-0.007635815477475192,-0.00545415391248228,1.915538215427926,-0.24544908706643062,-0.3991810132801628,0,0,0,0,0,0,1500,1500,1500,1500,1500,1500
1747551208.4476142,0.03,0.0,0.03,-0.014180800172453928,-0.004363323129985824,0.002181661564992912,1.9150794644330202,-0.24536708014746755,-0.39972041707680384,0,0,0,0,0,0,1500,1500,1500,1500,1500,1500
1747551208.548044,0.03,0.0,0.03,-0.014180800172453928,-0.004363323129985824,0.002181661564992912,1.9150794644330202,-0.24536708014746755,-0.39972041707680384,0,0,0,0,0,0,1500,1500,1500,1500,1500,1500
1747551208.647443,0.0,0.0,0.09,0.0,-0.001090830782496456,0.011999138607461015,1.9148746755103712,-0.24606528738426256,-0.4001853711017183,0,0,0,0,0,0,1500,1500,1500,1500,1500,1500
1747551208.7471755,0.01,-0.05,0.05,0.00545415391248228,0.00545415391248228,0.002181661564992912,1.9148531410630896,-0.24672902690705195,-0.40049177512022743,0,0,0,0,0,0,1500,1500,1500,1500,1500,1500
1747551208.8473792,0.01,-0.05,0.05,0.00545415391248228,0.00545415391248228,0.002181661564992912,1.9148531410630896,-0.24672902690705195,-0.40049177512022743,0,0,0,0,0,0,1500,1500,1500,1500,1500,1500
1747551208.9305005,0.01,-0.08,0.04,-0.001090830782496456,-0.00545415391248228,-0.004363323129985824,1.9148531410630896,-0.24672902690705195,-0.40049177512022743,0,0,0,0,0,0,1500,1500,1500,1500,1500,1500
1747551209.030639,0.01,-0.08,0.04,-0.001090830782496456,-0.00545415391248228,-0.004363323129985824,1.9148531410630896,-0.24672902690705195,-0.40049177512022743,0,-3.954077,0,0,0,-0.00489,1460,1460,1460,1500,1500,1500
1747551209.1307518,0.01,-0.02,0.0,-0.006544984694978736,-0.008726646259971648,-0.00545415391248228,1.9148531410630896,-0.24672902690705195,-0.40049177512022743,0,-12.5,0,0,0,-0.046218,1420,1420,1425,1500,1500,1500
1747551209.2147236,0.03,-0.01,0.05,-0.006544984694978736,-0.003272492347489368,0.0,1.9148531410630896,-0.24672902690705195,-0.40049177512022743,0,-12.5,0,0,0,-0.055557,1413,1415,1425,1500,1500,1500
1747551209.3142114,0.03,-0.01,0.05,-0.006544984694978736,-0.003272492347489368,0.0,1.9148531410630896,-0.24672902690705195,-0.40049177512022743,0,-12.5,0,0,0,-0.058861,1413,1415,1425,1500,1500,1500
1747551209.413553,-0.24,0.0,0.07,-0.02181661564992912,-0.011999138607461015,0.004363323129985824,1.9134072015394998,-0.24629059069658413,-0.4009834554723081,0,-12.5,0,0,0,-0.058861,1413,1415,1425,1500,1500,1500
1747551209.509206,-0.15,0.09,0.04,-0.04799655442984406,-0.017453292519943295,-0.06435901616729091,1.907553654661256,-0.24092018371721483,-0.4017055497896637,0,-12.5,0,0,0,-0.058861,1413,1415,1425,1500,1500,1500
1747551209.613944,-0.15,0.09,0.04,-0.04799655442984406,-0.017453292519943295,-0.06435901616729091,1.907553654661256,-0.24092018371721483,-0.4017055497896637,0,-12.5,0,0,0,-0.058861,1413,1415,1425,1500,1500,1500
1747551209.6981199,-0.14,0.03,0.07,-0.07417649320975901,-0.028361600344907856,-0.1505346479845109,1.8975434295285434,-0.22298829582296323,-0.3993910938681755,0,-12.5,0,0,0,-0.062261,1413,1415,1425,1500,1500,1500
1747551209.7974167,-0.14,0.03,0.07,-0.07417649320975901,-0.028361600344907856,-0.1505346479845109,1.8975434295285434,-0.22298829582296323,-0.3993910938681755,0,-12.5,0,0,0,-0.062261,1413,1415,1425,1500,1500,1500
1747551209.897856,0.01,0.03,-0.08,-0.07308566242726255,-0.03599741582238305,-0.20398535632683726,1.8843451951568662,-0.19409607450124727,-0.3951035272722826,0,-12.5,0,0,0,-0.062261,1413,1415,1425,1500,1500,1500
1747551209.9971387,0.05,-0.06,-0.05,-0.031634092692397225,-0.031634092692397225,-0.19744037163185854,1.8760997160398327,-0.1644106049360493,-0.3904761756720739,0,-12.5,0,0,0,-0.062261,1413,1415,1425,1500,1500,1500
1747551210.0970361,0.05,-0.06,-0.05,-0.031634092692397225,-0.031634092692397225,-0.19744037163185854,1.8760997160398327,-0.1644106049360493,-0.3904761756720739,0,-12.5,0,0,0,-0.062261,1413,1415,1425,1500,1500,1500
1747551210.1813383,,,,0.004363323129985824,-0.019634954084936207,-0.17998707911191522,1.8784503400071948,-0.14519753708913402,-0.39912452911639046,0,-12.5,0,0,0,-0.062261,1413,1415,1425,1500,1500,1500
1747551210.2812018,,,,0.004363323129985824,-0.019634954084936207,-0.17998707911191522,1.8784503400071948,-0.14519753708913402,-0.39912452911639046,0,-12.5,0,0,0,-0.062261,1413,1415,1425,1500,1500,1500
1747551210.3802443,-0.05,0.0,0.13,0.032724923474893676,-0.007635815477475192,-0.16689710972195776,1.8740497610016202,-0.11133692181174891,-0.3797501295864044,0,-12.5,0,0,0,-0.062261,1413,1415,1425,1500,1500,1500
1747551210.4649057,0.11,0.05,0.08,0.05999569303730508,0.01090830782496456,-0.1341721862470641,1.8805860961059748,-0.08963937863062561,-0.37226592430810157,0,-12.5,0,0,0,-0.062261,1413,1415,1425,1500,1500,1500
1747551210.563354,0.11,0.05,0.08,0.05999569303730508,0.01090830782496456,-0.1341721862470641,1.8805860961059748,-0.08963937863062561,-0.37226592430810157,0,-12.5,0,0,0,-0.062261,1413,1415,1425,1500,1500,1500
1747551210.663574,0.08,-0.15,0.14,0.07090400086226964,0.031634092692397225,-0.09817477042468103,1.8896808553744608,-0.0742507774674789,-0.3630652967287399,0,-12.5,0,0,0,-0.062261,1413,1415,1425,1500,1500,1500
1747551210.7645116,0.0,-0.07,0.2,0.07963064712224129,0.04036073895236887,-0.0719948316447661,1.9005539200569685,-0.0645665819253173,-0.3542145864816099,0,-12.5,0,0,0,-0.062261,1413,1415,1425,1500,1500,1500
1747551210.8636668,0.0,-0.07,0.2,0.07963064712224129,0.04036073895236887,-0.0719948316447661,1.9005539200569685,-0.0645665819253173,-0.3542145864816099,0,-12.5,0,0,0,-0.062261,1413,1415,1425,1500,1500,1500
1747551210.9469829,0.0,-0.03,0.19,0.10253809355466686,0.0545415391248228,-0.0545415391248228,1.913838863046528,-0.05787966956416234,-0.3453199559800495,0,-12.5,0,0,0,-0.062261,1413,1415,1425,1500,1500,1500
1747551211.0472069,0.0,-0.03,0.19,0.10253809355466686,0.0545415391248228,-0.0545415391248228,1.913838863046528,-0.05787966956416234,-0.3453199559800495,0,-12.5,0,0,0,-0.062261,1413,1415,1425,1500,1500,1500
1747551211.1469347,0.06,0.0,0.1,0.1189005552921137,0.06872233929727672,-0.031634092692397225,1.930153623819922,-0.054971287836825596,-0.33400769464731617,0,-12.5,0,0,0,-0.062261,1413,1415,1425,1500,1500,1500
1747551211.2302287,0.15,0.0,0.09,0.11344640137963143,0.08835729338221293,-0.004363323129985824,1.9457347211944298,-0.05736082177039965,-0.3223068332040536,0,-12.5,0,0,0,-0.062261,1413,1415,1425,1500,1500,1500
1747551211.3307028,0.15,0.0,0.09,0.11344640137963143,0.08835729338221293,-0.004363323129985824,1.9457347211944298,-0.05736082177039965,-0.3223068332040536,0,-0.008311,0,0,0,0,1453,1455,1465,1500,1500,1500
1747551211.4304602,-0.01,-0.03,0.16,0.09817477042468103,0.10471975511965978,0.0,1.960733222315729,-0.06326277260933458,-0.3081981755414672,0,0,0,0,0,0,1493,1495,1500,1500,1500,1500
1747551211.5290742,0.46,-0.04,0.22,0.10799224746714914,0.11453723216212788,0.038179077387375956,1.9728425207134523,-0.07047540119074645,-0.29469827069982135,0,0,0,0,0,0,1500,1500,1500,1500,1500,1500
1747551211.6303399,0.46,-0.04,0.22,0.10799224746714914,0.11453723216212788,0.038179077387375956,1.9728425207134523,-0.07047540119074645,-0.29469827069982135,0,0,0,0,0,0,1500,1500,1500,1500,1500,1500
1747551211.7133834,0.0,0.07,0.12,0.136353847812057,0.1265363707695889,0.14835298641951802,1.991279364725249,-0.09507507063559952,-0.28419031813890344,0,0,0,0,0,0,1500,1500,1500,1500,1500,1500
1747551211.8138247,0.0,0.07,0.12,0.136353847812057,0.1265363707695889,0.14835298641951802,1.991279364725249,-0.09507507063559952,-0.28419031813890344,0,0,0,0,0,0,1500,1500,1500,1500,1500,1500
1747551211.914193,0.04,0.08,0.07,0.11999138607461016,0.11453723216212788,0.1832595714594046,2.009963557168035,-0.1272454894075693,-0.27807912700266674,0,0,0,0,0,0,1500,1500,1500,1500,1500,1500
1747551212.0134406,0.0,0.04,0.14,0.09381144729469522,0.12326387842209953,0.19853120241435498,2.0249871731107802,-0.16254616824804818,-0.2740475349830882,0,0,0,0,0,0,1500,1500,1500,1500,1500,1500
1747551212.1142218,0.0,0.04,0.14,0.09381144729469522,0.12326387842209953,0.19853120241435498,2.0249871731107802,-0.16254616824804818,-0.2740475349830882,0,0,0,0,0,0,1500,1500,1500,1500,1500,1500
1747551212.1970594,-0.03,0.07,0.14,0.06981317007977318,0.1265363707695889,0.19525871006686563,2.034874849902023,-0.1960487966868942,-0.271017871587485,0,0,0,0,0,0,1500,1500,1500,1500,1500,1500
1747551212.297018,-0.03,0.07,0.14,0.06981317007977318,0.1265363707695889,0.19525871006686563,2.034874849902023,-0.1960487966868942,-0.271017871587485,0,0,0,0,0,0,1500,1500,1500,1500,1500,1500
1747551212.3975263,-0.09,0.11,0.06,0.03490658503988659,0.10035643198967395,0.17453292519943295,2.040742571004748,-0.22693978788274932,-0.26810775540781573,0,0,0,0,0,0,1500,1500,1500,1500,1500,1500
1747551212.4797351,-0.06,0.14,0.09,0.001090830782496456,0.07635815477475191,0.14180800172453928,2.0416747337662917,-0.25384632004543395,-0.2664794527940972,0,0,0,0,0,0,1500,1500,1500,1500,1500,1500
1747551212.580355,-0.06,0.14,0.09,0.001090830782496456,0.07635815477475191,0.14180800172453928,2.0416747337662917,-0.25384632004543395,-0.2664794527940972,0,0,0,0,0,0,1500,1500,1500,1500,1500,1500
1747551212.6801755,-0.12,0.11,-0.01,-0.028361600344907856,0.05999569303730508,0.10362892433716332,2.0387117408911015,-0.27333432740600955,-0.26549014338959287,0,-12.5,0,0,0,0,1460,1460,1460,1500,1500,1500
1747551212.780273,-0.06,0.06,0.06,-0.05781403147231216,0.04581489286485115,0.05890486225480862,2.0313310671984026,-0.28821363088604096,-0.26341653019544675,0,-12.5,0,0,0,0,1420,1420,1420,1500,1500,1500
1747551212.880675,-0.06,0.06,0.06,-0.05781403147231216,0.04581489286485115,0.05890486225480862,2.0313310671984026,-0.28821363088604096,-0.26341653019544675,0,-12.5,0,0,0,0,1380,1380,1385,1500,1500,1500
1747551212.963232,-0.36,0.21,-0.1,-0.08944812416470939,0.0272707695624114,0.031634092692397225,2.0200607957707115,-0.2969554665743965,-0.2609009907642339,0,-12.5,0,0,0,-0.000811,1361,1364,1385,1500,1500,1500
1747551213.0641496,-0.36,0.21,-0.1,-0.08944812416470939,0.0272707695624114,0.031634092692397225,2.0200607957707115,-0.2969554665743965,-0.2609009907642339,0,-12.5,0,0,0,-0.001252,1361,1364,1385,1500,1500,1500
1747551213.163781,-0.66,0.4,0.3,-0.12980886311707826,0.019634954084936207,0.02399827721492203,2.002847685336663,-0.3002727961031156,-0.2603371655771353,0,-12.5,0,0,0,-0.001252,1361,1364,1385,1500,1500,1500
1747551213.2637842,-0.78,0.14,-0.11,-0.20943951023931956,-0.05235987755982989,-0.31306843457648287,1.972463984584795,-0.27324073947328725,-0.2514520604351454,0,-12.5,0,0,0,-0.001252,1361,1364,1385,1500,1500,1500
1747551213.363402,-0.78,0.14,-0.11,-0.20943951023931956,-0.05235987755982989,-0.31306843457648287,1.972463984584795,-0.27324073947328725,-0.2514520604351454,0,-12.5,0,0,0,-0.001252,1361,1364,1385,1500,1500,1500
1747551213.4473155,-0.44,-0.03,0.27,-0.17780541754692233,-0.07635815477475191,-0.3370667117914049,1.9397111300685952,-0.2174096410907556,-0.24151750818720658,0,-12.5,0,0,0,-0.001252,1361,1364,1385,1500,1500,1500
1747551213.5469713,-0.44,-0.03,0.27,-0.17780541754692233,-0.07635815477475191,-0.3370667117914049,1.9397111300685952,-0.2174096410907556,-0.24151750818720658,0,-12.5,0,0,0,-0.001252,1361,1364,1385,1500,1500,1500
1747551213.6471176,-0.16,0.08,0.08,-0.13962634015954636,-0.07635815477475191,-0.32179508083645453,1.9151277945676273,-0.16615028610738095,-0.23555060130817992,0,-12.5,0,0,0,-0.001252,1361,1364,1385,1500,1500,1500
1747551213.7300322,-0.07,0.02,0.23,-0.10253809355466686,-0.08835729338221293,-0.3174317577064687,1.89573720312029,-0.11404805580909988,-0.23173973994715505,0,-12.5,0,0,0,-0.001252,1361,1364,1385,1500,1500,1500
1747551213.8303294,-0.07,0.02,0.23,-0.10253809355466686,-0.08835729338221293,-0.3174317577064687,1.89573720312029,-0.11404805580909988,-0.23173973994715505,0,0,0,0,0,0,1401,1404,1425,1500,1500,1500
1747551213.9291027,-0.51,-0.14,0.27,-0.06872233929727672,-0.08835729338221293,-0.30325095753401476,1.882971591880836,-0.06765089455159841,-0.2300106145661656,0,0,0,0,0,0,1441,1444,1465,1500,1500,1500
1747551214.0295334,0.88,-0.2,-0.15,0.016362461737446838,-0.04581489286485115,-0.18653206380689397,1.8773092219594911,-0.026002148185908507,-0.22915555072818494,0,0,0,0,0,0,1481,1484,1500,1500,1500,1500
1747551214.1305597,0.88,-0.2,-0.15,0.016362461737446838,-0.04581489286485115,-0.18653206380689397,1.8773092219594911,-0.026002148185908507,-0.22915555072818494,0,0,0,0,0,0,1500,1500,1500,1500,1500,1500
1747551214.214186,0.4,-0.09,0.02,0.1308996938995747,0.0272707695624114,0.06326818538479445,1.888333885448008,-0.022903015730034008,-0.2263537705147955,0,0,0,0,0,0,1500,1500,1500,1500,1500,1500
1747551214.31377,0.4,-0.09,0.02,0.1308996938995747,0.0272707695624114,0.06326818538479445,1.888333885448008,-0.022903015730034008,-0.2263537705147955,0,0,0,0,0,0,1500,1500,1500,1500,1500,1500
1747551214.4141126,0.07,-0.02,0.18,0.17780541754692233,0.04145156973486533,0.20725784867432664,1.9097562501954868,-0.04591744720564423,-0.22834051664122243,0,0,0,0,0,0,1500,1500,1500,1500,1500,1500
1747551214.5138257,0.09,-0.05,0.13,0.18980455615438332,0.06217735460229799,0.2792526803190927,1.9371924005533752,-0.08553769426645613,-0.23419486134858838,0,0,5.301858,0,0,0,1500,1500,1500,1500,1460,1540
1747551214.6138217,0.09,-0.05,0.13,0.18980455615438332,0.06217735460229799,0.2792526803190927,1.9371924005533752,-0.08553769426645613,-0.23419486134858838,0,0,7.5,0,0,0,1500,1500,1500,1500,1420,1580
1747551214.6969924,0.06,0.01,0.12,0.19744037163185854,0.08399397025222712,0.32506757318394386,1.9671684436220152,-0.13396894166074205,-0.24113282488489926,0,0,7.5,0,0,0,1500,1500,1500,1500,1380,1606
1747551214.7990801,0.06,0.01,0.12,0.19744037163185854,0.08399397025222712,0.32506757318394386,1.9671684436220152,-0.13396894166074205,-0.24113282488489926,0,0,7.5,0,0,0,1500,1500,1500,1500,1377,1606
1747551214.8969538,-0.04,0.05,0.12,0.17562375598192942,0.08508480103472356,0.32506757318394386,1.9959970289417852,-0.18507079843379506,-0.24889346322583542,0,0,7.5,0,0,0,1500,1500,1500,1500,1377,1606
1747551214.9801393,-0.03,0.25,0.36,0.04908738521234052,0.10253809355466686,0.2879793265790644,2.015138239978466,-0.2301801779906216,-0.2545268832012492,0,0,7.5,0,0,0,1500,1500,1500,1500,1377,1606
1747551215.080191,-0.03,0.25,0.36,0.04908738521234052,0.10253809355466686,0.2879793265790644,2.015138239978466,-0.2301801779906216,-0.2545268832012492,0,0,7.5,0,0,0,1500,1500,1500,1500,1377,1606
1747551215.1802678,0.18,0.25,-0.02,-0.44178646691106466,0.13199052468207118,0.23343778745424157,1.978364914433927,-0.26973949079921566,-0.25359586777385673,0,0,7.5,0,0,0,1500,1500,1500,1500,1377,1606
1747551215.2806878,-0.13,0.06,0.26,-0.6272276999354622,0.14180800172453928,0.21925698728178766,1.8917086589596077,-0.3094243445268313,-0.24621030839462651,0,0,7.5,0,0,0,1500,1500,1500,1500,1377,1606
1747551215.3804803,-0.13,0.06,0.26,-0.6272276999354622,0.14180800172453928,0.21925698728178766,1.8917086589596077,-0.3094243445268313,-0.24621030839462651,0,0,7.5,0,0,0,1500,1500,1500,1500,1377,1606
1747551215.462802,-0.52,-0.11,0.28,-0.7417649320975901,0.14944381720201447,0.2083486794568231,1.7884576923562825,-0.34531020389999934,-0.23361013685700435,0,0,7.5,0,0,0,1500,1500,1500,1500,1377,1606
1747551215.5634928,-0.52,-0.11,0.28,-0.7417649320975901,0.14944381720201447,0.2083486794568231,1.7884576923562825,-0.34531020389999934,-0.23361013685700435,0,0,0,0,0,0,1500,1500,1500,1500,1417,1566
1747551215.663907,0.11,0.05,-0.1,-0.8366672101747817,0.1538071403320003,0.1832595714594046,1.6576804671317176,-0.3790749488461601,-0.21370411670043593,0,0,0,0,0,0,1500,1500,1500,1500,1457,1526
1747551215.7640386,-0.1,-0.18,-0.14,-0.7777623479199731,0.15489797111449674,0.18435040224190105,1.5247482941863808,-0.4058851335106988,-0.1904214749706545,0,0,0,0,0,0,1500,1500,1500,1500,1497,1500
1747551215.863582,-0.1,-0.18,-0.14,-0.7777623479199731,0.15489797111449674,0.18435040224190105,1.5247482941863808,-0.4058851335106988,-0.1904214749706545,0,0,0,0,0,0,1500,1500,1500,1500,1500,1500
1747551215.9456518,-0.04,-0.24,-0.23,-0.4788747135159442,0.136353847812057,0.17998707911191522,1.4170393816613218,-0.4320366281053861,-0.1628970851119198,0,0,0,0,0,0,1500,1500,1500,1500,1500,1500
1747551216.0471632,-0.04,-0.24,-0.23,-0.4788747135159442,0.136353847812057,0.17998707911191522,1.4170393816613218,-0.4320366281053861,-0.1628970851119198,0,0,0,0,0,0,1500,1500,1500,1500,1500,1500
1747551216.1469972,-0.11,-0.29,-0.16,-0.25634523388666713,0.12326387842209953,0.16144295580947549,1.3524930161429252,-0.4547071995285547,-0.13632697866238372,0,0,0,0,0,0,1500,1500,1500,1500,1500,1500
1747551216.229642,-0.1,-0.3,-0.07,-0.07963064712224129,0.1265363707695889,0.10799224746714914,1.316290461464955,-0.4712533358177153,-0.11018762733420023,0,0,0,0,0,0,1500,1500,1500,1500,1500,1500
1747551216.3303053,-0.1,-0.3,-0.07,-0.07963064712224129,0.1265363707695889,0.10799224746714914,1.316290461464955,-0.4712533358177153,-0.11018762733420023,0,0,0,0,0,0,1500,1500,1500,1500,1500,1500
1747551216.4299033,-0.05,-0.23,-0.07,0.07526732399225546,0.11453723216212788,0.04799655442984406,1.3070575809638871,-0.4779395592110957,-0.08826482561639315,0,0,0,0,0,0,1500,1500,1500,1500,1500,1500
1747551216.5300806,0.0,-0.23,-0.11,0.21380283336930536,0.10799224746714914,-0.011999138607461015,1.319936248375304,-0.4763509325532808,-0.06907896914560166,0,0,0,0,0,0,1500,1500,1500,1500,1500,1500
1747551216.6303341,0.0,-0.23,-0.11,0.21380283336930536,0.10799224746714914,-0.011999138607461015,1.319936248375304,-0.4763509325532808,-0.06907896914560166,0,0,0,0,0,0,1500,1500,1500,1500,1500,1500
1747551216.7135634,-0.02,-0.28,-0.09,0.32288591161895097,0.10471975511965978,-0.06435901616729091,1.3544857532036962,-0.4672706617627434,-0.05186701059345363,0,0,0,0,0,0,1500,1500,1500,1500,1500,1500
1747551216.813817,-0.02,-0.28,-0.09,0.32288591161895097,0.10471975511965978,-0.06435901616729091,1.3544857532036962,-0.4672706617627434,-0.05186701059345363,0,0,0,0,0,0,1500,1500,1500,1500,1500,1500
1747551216.913717,0.0,-0.31,-0.13,0.3937899124812206,0.09490227807719166,-0.11235557059713497,1.4018227668648142,-0.45222043149885677,-0.03872388992187616,0,0,0,0,0,0,1500,1500,1500,1500,1500,1500
1747551217.0137672,0.17,-0.18,0.18,0.4145156973486533,0.08072147790473774,-0.14835298641951802,1.4599434773379838,-0.4305070210549895,-0.027246320974064306,0,0,0,0,0,0,1500,1500,1500,1500,1500,1500
1747551217.1136978,0.17,-0.18,0.18,0.4145156973486533,0.08072147790473774,-0.14835298641951802,1.4599434773379838,-0.4305070210549895,-0.027246320974064306,0,0,0,0,0,0,1500,1500,1500,1500,1500,1500
1747551217.1970258,0.17,-0.12,0.16,0.41996985126113556,0.07635815477475191,-0.1636246173744684,1.512313472228051,-0.41048061546979026,-0.015074193718510187,0,0,0,0,0,0,1500,1500,1500,1500,1500,1500
1747551217.2954614,0.18,-0.06,0.09,0.41996985126113556,0.0719948316447661,-0.15489797111449674,1.5697991243514475,-0.38907340785659855,-0.001816689498032147,0,0,0,0,0,0,1500,1500,1500,1500,1500,1500
1747551217.3969817,0.18,-0.06,0.09,0.41996985126113556,0.0719948316447661,-0.15489797111449674,1.5697991243514475,-0.38907340785659855,-0.001816689498032147,0,0,0,0,0,0,1500,1500,1500,1500,1500,1500
1747551217.4796805,0.18,-0.07,0.06,0.41560652813114973,0.06435901616729091,-0.136353847812057,1.6281396187995592,-0.3698585509835984,0.011320925594681817,0,0,0,0,0,0,1500,1500,1500,1500,1500,1500
1747551217.5805154,0.18,-0.07,0.06,0.41560652813114973,0.06435901616729091,-0.136353847812057,1.6281396187995592,-0.3698585509835984,0.011320925594681817,0,0,0,0,0,0,1500,1500,1500,1500,1500,1500
1747551217.6802635,0.15,-0.06,0.12,0.40578905108868163,0.05890486225480862,-0.136353847812057,1.6818785833525964,-0.3536184877610949,0.023679016753023596,0,0,0,0,0,0,1500,1500,1500,1500,1500,1500
1747551217.780283,0.15,-0.01,0.09,0.37960911230876665,0.04145156973486533,-0.1439896632895322,1.7363931323791297,-0.33572058924721637,0.036274041517864494,0,0,0,0,0,0,1500,1500,1500,1500,1500,1500
1747551217.8800023,0.15,-0.01,0.09,0.37960911230876665,0.04145156973486533,-0.1439896632895322,1.7363931323791297,-0.33572058924721637,0.036274041517864494,0,0,0,0,0,0,1500,1500,1500,1500,1500,1500
1747551217.9640448,0.13,0.03,0.12,0.3567016658763411,0.03599741582238305,-0.13199052468207118,1.7847794599718836,-0.3187151425261382,0.04654712214182381,0,0,0,0,0,0,1500,1500,1500,1500,1500,1500
1747551218.0635147,0.13,0.03,0.12,0.3567016658763411,0.03599741582238305,-0.13199052468207118,1.7847794599718836,-0.3187151425261382,0.04654712214182381,0,0,0,0,0,0,1500,1500,1500,1500,1500,1500
1747551218.1631124,0.14,0.03,0.06,0.3392483733563978,0.037088246604879506,-0.11453723216212788,1.8342174466625607,-0.30346624341771444,0.057469590747705586,0,0,0,0,0,0,1500,1500,1500,1500,1500,1500
1747551218.2458453,0.12,-0.01,0.11,0.31852258848896514,0.04145156973486533,-0.10035643198967395,1.8779038381718163,-0.29181325121989626,0.06853095862330187,0,0,0,0,0,0,1500,1500,1500,1500,1500,1500
1747551218.347083,0.12,-0.01,0.11,0.31852258848896514,0.04145156973486533,-0.10035643198967395,1.8779038381718163,-0.29181325121989626,0.06853095862330187,0,0,0,0,0,0,1500,1500,1500,1500,1500,1500
1747551218.4469538,0.11,-0.03,0.13,0.29343348049154666,0.044724062082354694,-0.09708393964218458,1.921076984859974,-0.28075427381453544,0.08090963402014098,0,0,0,0,0,0,1500,1500,1500,1500,1500,1500
1747551218.5458343,0.06,0.0,0.07,0.2628902185816459,0.032724923474893676,-0.0916297857297023,1.9578409252149365,-0.27048638050610435,0.0913529481978156,0,0,0,0,0,0,1500,1500,1500,1500,1500,1500
1747551218.6470423,0.06,0.0,0.07,0.2628902185816459,0.032724923474893676,-0.0916297857297023,1.9578409252149365,-0.27048638050610435,0.0913529481978156,0,0,0,0,0,0,1500,1500,1500,1500,1500,1500
1747551218.7298322,0.08,0.04,0.08,0.2203478180642841,0.025089107997418487,-0.07963064712224129,1.9924894010789815,-0.26014760064680725,0.10115175015617,0,0,0,0,0,0,1500,1500,1500,1500,1500,1500
1747551218.8304045,0.08,0.04,0.08,0.2203478180642841,0.025089107997418487,-0.07963064712224129,1.9924894010789815,-0.26014760064680725,0.10115175015617,0,0,0,0,0,0,1500,1500,1500,1500,1500,1500
1747551218.92976,0.05,0.08,0.04,0.18762289458939044,0.02945243112740431,-0.06763150851478027,2.021606608162509,-0.25155251214804436,0.11014426119806639,0,0,0,0,0,0,1500,1500,1500,1500,1500,1500
1747551219.0302575,0.05,0.14,0.12,0.15707963267948966,0.04036073895236887,-0.06326818538479445,2.044526464880644,-0.24524530562956343,0.1194359029084062,0,0,0,0,0,0,1500,1500,1500,1500,1500,1500
1747551219.1310372,0.05,0.14,0.12,0.15707963267948966,0.04036073895236887,-0.06326818538479445,2.044526464880644,-0.24524530562956343,0.1194359029084062,0,0,0,0,0,0,1500,1500,1500,1500,1500,1500
1747551219.2137659,0.05,0.12,0.07,0.11999138607461016,0.030543261909900768,-0.061086523819801536,2.06392942988315,-0.23907523114151416,0.12937450266480938,0,0,0,0,0,0,1500,1500,1500,1500,1500,1500
1747551219.312978,0.05,0.12,0.07,0.11999138607461016,0.030543261909900768,-0.061086523819801536,2.06392942988315,-0.23907523114151416,0.12937450266480938,0,0,0,0,0,0,1500,1500,1500,1500,1500,1500
1747551219.4134493,0.07,0.08,0.07,0.07963064712224129,0.030543261909900768,-0.05235987755982989,2.0774269058948693,-0.24187312417957255,0.12391872717728816,0,0,0,0,0,0,1500,1500,1500,1500,1500,1500
1747551219.5138686,0.05,0.05,0.12,0.037088246604879506,0.039269908169872414,-0.02945243112740431,2.0831080539146987,-0.23182510593460737,0.1463662900202544,0,0,0,0,0,0,1500,1500,1500,1500,1500,1500
1747551219.6140387,0.05,0.05,0.12,0.037088246604879506,0.039269908169872414,-0.02945243112740431,2.0831080539146987,-0.23182510593460737,0.1463662900202544,0,0,0,0,0,0,1500,1500,1500,1500,1500,1500
1747551219.6962094,0.01,0.07,0.18,0.006544984694978736,0.04799655442984406,-0.02181661564992912,2.0840165331169374,-0.23209597696392284,0.1543294891544859,0,0,0,0,0,0,1500,1500,1500,1500,1500,1500
1747551219.7969973,-0.05,0.09,0.1,-0.019634954084936207,0.05235987755982989,-0.02399827721492203,2.0815062670947686,-0.2327336741257991,0.16236173604637588,0,0,0,0,0,0,1500,1500,1500,1500,1500,1500
1747551219.8963277,-0.05,0.09,0.1,-0.019634954084936207,0.05235987755982989,-0.02399827721492203,2.0815062670947686,-0.2327336741257991,0.16236173604637588,0,0,0,0,0,0,1500,1500,1500,1500,1500,1500
1747551219.9801717,-0.01,0.09,0.09,-0.038179077387375956,0.05126904677733343,-0.025089107997418487,2.0753231563403363,-0.23296744934283903,0.171204527371153,0,0,0,0,0,0,1500,1500,1500,1500,1500,1500
1747551220.0789475,-0.01,0.09,0.09,-0.038179077387375956,0.05126904677733343,-0.025089107997418487,2.0753231563403363,-0.23296744934283903,0.171204527371153,0,0,0,0,0,0,1500,1500,1500,1500,1500,1500
1747551220.1802166,-0.05,0.07,0.05,-0.06326818538479445,0.055632369907319255,-0.004363323129985824,2.0654648255971644,-0.234976170082393,0.17978070851677552,0,0,0,0,0,0,1500,1500,1500,1500,1500,1500
1747551220.2799742,-0.05,0.11,0.18,-0.07417649320975901,0.05672320068981571,0.017453292519943295,2.052861959405365,-0.23996959100765566,0.18728792808325906,0,0,0,0,0,0,1500,1500,1500,1500,1500,1500
1747551220.380081,-0.05,0.11,0.18,-0.07417649320975901,0.05672320068981571,0.017453292519943295,2.052861959405365,-0.23996959100765566,0.18728792808325906,0,0,0,0,0,0,1500,1500,1500,1500,1500,1500
1747551220.4637296,-0.07,0.11,0.12,-0.06654067773228381,0.06544984694978735,0.02181661564992912,2.039289113774293,-0.24634127955411586,0.19437089651756045,0,0,0,0,0,0,1500,1500,1500,1500,1500,1500
1747551220.5634022,-0.07,0.11,0.12,-0.06654067773228381,0.06544984694978735,0.02181661564992912,2.039289113774293,-0.24634127955411586,0.19437089651756045,0,0,0,0,0,0,1500,1500,1500,1500,1500,1500
1747551220.663126,-0.02,0.09,0.13,-0.06326818538479445,0.06217735460229799,0.02399827721492203,2.025842969058368,-0.2531846519693271,0.20189401945735264,0,0,0,0,0,0,1500,1500,1500,1500,1500,1500
1747551220.7469418,-0.05,0.02,0.06,-0.07090400086226964,0.06217735460229799,0.04036073895236887,2.01384560080428,-0.2607437085952415,0.20826998002816968,0,0,0,0,0,0,1500,1500,1500,1500,1500,1500
1747551220.8462734,-0.05,0.02,0.06,-0.07090400086226964,0.06217735460229799,0.04036073895236887,2.01384560080428,-0.2607437085952415,0.20826998002816968,0,0,0,0,0,0,1500,1500,1500,1500,1500,1500
1747551220.9461763,-0.06,0.04,0.12,-0.07417649320975901,0.06872233929727672,0.05126904677733343,2.000544887117365,-0.2714132673387739,0.21491278778428663,0,0,0,0,0,0,1500,1500,1500,1500,1500,1500
1747551221.0457587,-0.14,0.03,0.08,-0.0719948316447661,0.06217735460229799,0.04036073895236887,1.987542972967883,-0.2812040533256555,0.22183908175688571,0,0,0,0,0,0,1500,1500,1500,1500,1500,1500
1747551221.1470451,-0.14,0.03,0.08,-0.0719948316447661,0.06217735460229799,0.04036073895236887,1.987542972967883,-0.2812040533256555,0.22183908175688571,0,0,0,0,0,0,1500,1500,1500,1500,1500,1500
1747551221.2297442,-0.1,0.06,0.13,-0.06654067773228381,0.050178215994836975,0.02399827721492203,1.9743851130215513,-0.28812574072606933,0.22881738974227073,0,0,0,0,0,0,1500,1500,1500,1500,1500,1500
1747551221.3300312,-0.1,0.06,0.13,-0.06654067773228381,0.050178215994836975,0.02399827721492203,1.9743851130215513,-0.28812574072606933,0.22881738974227073,0,0,0,0,0,0,1500,1500,1500,1500,1500,1500
1747551221.4296112,-0.07,0.09,0.01,-0.061086523819801536,0.050178215994836975,0.026179938779914945,1.9631528895870873,-0.29360361001664637,0.23440460723125783,0,0,0,0,0,0,1500,1500,1500,1500,1500,1500
1747551221.529518,-0.03,0.08,0.03,-0.05126904677733343,0.05672320068981571,0.039269908169872414,1.9522615849874412,-0.3014241940907977,0.24013556125241506,0,0,0,0,0,0,1500,1500,1500,1500,1500,1500
1747551221.6295915,-0.03,0.08,0.03,-0.05126904677733343,0.05672320068981571,0.039269908169872414,1.9522615849874412,-0.3014241940907977,0.24013556125241506,0,0,0,0,0,0,1500,1500,1500,1500,1500,1500
1747551221.713574,-0.09,0.04,0.0,-0.04690572364734761,0.05126904677733343,0.03599741582238305,1.943132887874115,-0.31021243016443306,0.24564832137195003,0,0,-6.323529,0,0,0,1500,1500,1500,1500,1540,1460
1747551221.813438,-0.09,0.04,0.0,-0.04690572364734761,0.05126904677733343,0.03599741582238305,1.943132887874115,-0.31021243016443306,0.24564832137195003,0,0,-7.5,0,0,0,1500,1500,1500,1500,1580,1420
1747551221.9129481,-0.13,0.02,0.06,-0.04690572364734761,0.03490658503988659,0.017453292519943295,1.9348326849912274,-0.3166237990029015,0.2504891326523033,0,0,-7.5,0,0,0,1500,1500,1500,1500,1607,1380
1747551221.9971058,0.2,-0.16,-0.08,-0.0818123086872342,0.030543261909900768,-0.002181661564992912,1.925072631992976,-0.318983995189255,0.255580368622319,0,0,-7.5,0,0,0,1500,1500,1500,1500,1607,1379
1747551222.097378,0.2,-0.16,-0.08,-0.0818123086872342,0.030543261909900768,-0.002181661564992912,1.925072631992976,-0.318983995189255,0.255580368622319,0,0,-7.5,0,0,0,1500,1500,1500,1500,1607,1379
1747551222.1969616,-0.1,-0.12,-0.15,0.04581489286485115,0.009817477042468103,-0.02181661564992912,1.9193480283127884,-0.3169095131371566,0.2595738147564097,0,0,-7.5,0,0,0,1500,1500,1500,1500,1607,1379
1747551222.2971635,-0.17,0.0,-0.08,0.4439681284760576,-0.03381575425739013,-0.04036073895236887,1.960737444168165,-0.31080986003218636,0.25908744255668026,0,0,-7.5,0,0,0,1500,1500,1500,1500,1607,1379
1747551222.3957946,-0.17,0.0,-0.08,0.4439681284760576,-0.03381575425739013,-0.04036073895236887,1.960737444168165,-0.31080986003218636,0.25908744255668026,0,0,-7.5,0,0,0,1500,1500,1500,1500,1607,1379
1747551222.4800422,-0.12,-0.01,-0.03,0.6534076387153771,-0.06435901616729091,-0.05999569303730508,2.0424757743238455,-0.3002593028827548,0.2548478662524221,0,0,-7.5,0,0,0,1500,1500,1500,1500,1607,1379
1747551222.5795212,-0.12,-0.01,-0.03,0.6534076387153771,-0.06435901616729091,-0.05999569303730508,2.0424757743238455,-0.3002593028827548,0.2548478662524221,0,0,-7.5,0,0,0,1500,1500,1500,1500,1607,1379
1747551222.6797616,-0.02,0.33,-0.11,0.7581273938350369,-0.08399397025222712,-0.07853981633974483,2.155046711834014,-0.28509699925914744,0.25120771363342076,0,0,-7.5,0,0,0,1500,1500,1500,1500,1607,1379
1747551222.7804472,-0.23,0.1,0.03,0.8126689329598596,-0.08508480103472356,-0.10362892433716332,2.2783467712460386,-0.26554190445967735,0.2507108940373974,0,0,-7.5,0,0,0,1500,1500,1500,1500,1607,1379
1747551222.8804867,-0.23,0.1,0.03,0.8126689329598596,-0.08508480103472356,-0.10362892433716332,2.2783467712460386,-0.26554190445967735,0.2507108940373974,0,0,-7.5,0,0,0,1500,1500,1500,1500,1607,1379
1747551222.9634986,-0.08,0.16,0.14,0.8443030256522569,-0.11671889372712078,-0.10690141668465268,2.4057521361509546,-0.24213989522001209,0.2513338862562967,0,0,-7.5,0,0,0,1500,1500,1500,1500,1607,1379
1747551223.0634198,-0.08,0.16,0.14,0.8443030256522569,-0.11671889372712078,-0.10690141668465268,2.4057521361509546,-0.24213989522001209,0.2513338862562967,0,0,-7.5,0,0,0,1500,1500,1500,1500,1607,1379
1747551223.1637964,-0.17,0.38,0.14,0.8541205026947251,-0.15489797111449674,-0.09381144729469522,2.537068887368165,-0.21514717127498037,0.25010649325774065,0,0,-7.5,0,0,0,1500,1500,1500,1500,1607,1379
1747551223.263255,-0.21,0.25,0.06,0.8595746566072073,-0.16144295580947549,-0.06872233929727672,2.6604769818757528,-0.18796875676162755,0.24825988809473565,0,0,-7.5,0,0,0,1500,1500,1500,1500,1607,1379
1747551223.3635097,-0.21,0.25,0.06,0.8595746566072073,-0.16144295580947549,-0.06872233929727672,2.6604769818757528,-0.18796875676162755,0.24825988809473565,0,0,-7.5,0,0,0,1500,1500,1500,1500,1607,1379
1747551223.4456575,-0.46,0.15,0.27,0.7723081940074908,-0.16798794050445423,-0.05126904677733343,2.7884670206300926,-0.1608547260017196,0.2467372658378771,0,0,-7.5,0,0,0,1500,1500,1500,1500,1607,1379
1747551223.5471842,-0.19,0.37,-0.19,0.6294093615004551,-0.1908953869368798,-0.03381575425739013,2.8884590834343444,-0.13409563514473694,0.24512549408061945,0,0,-7.5,0,0,0,1500,1500,1500,1500,1607,1379
1747551223.6469343,-0.19,0.37,-0.19,0.6294093615004551,-0.1908953869368798,-0.03381575425739013,2.8884590834343444,-0.13409563514473694,0.24512549408061945,0,0,-7.5,0,0,0,1500,1500,1500,1500,1607,1379
1747551223.7304196,-0.49,0.2,0.2,0.3687008044838021,-0.19525871006686563,0.003272492347489368,2.957702549607062,-0.10102981395550296,0.2418289223027527,0,0,-4.551084,0,0,0,1500,1500,1500,1500,1584,1407
1747551223.830285,-0.49,0.2,0.2,0.3687008044838021,-0.19525871006686563,0.003272492347489368,2.957702549607062,-0.10102981395550296,0.2418289223027527,0,0,7.5,0,0,0,1500,1500,1500,1500,1544,1447
1747551223.9295535,-0.49,0.0,0.56,-0.004363323129985824,-0.17235126363444003,0.039269908169872414,2.977797596822985,-0.06443712710391612,0.234339327961925,0,0,7.5,0,0,0,1500,1500,1500,1500,1504,1487
1747551224.0300963,-0.4,0.03,0.65,-0.21271200258680892,-0.030543261909900768,0.08835729338221293,2.9568321191131517,-0.04796170966054404,0.22315684292236054,0,0,7.5,0,0,0,1500,1500,1500,1500,1464,1527
1747551224.1295016,-0.4,0.03,0.65,-0.21271200258680892,-0.030543261909900768,0.08835729338221293,2.9568321191131517,-0.04796170966054404,0.22315684292236054,0,0,7.5,0,0,0,1500,1500,1500,1500,1424,1567
1747551224.2129486,-0.31,0.13,0.18,-0.18653206380689397,0.12762720155208535,0.12980886311707826,2.9203392850340095,-0.05245336063847551,0.2086576139034087,0,0,7.5,0,0,0,1500,1500,1500,1500,1384,1606
1747551224.3131487,-0.31,0.13,0.18,-0.18653206380689397,0.12762720155208535,0.12980886311707826,2.9203392850340095,-0.05245336063847551,0.2086576139034087,0,0,7.5,0,0,0,1500,1500,1500,1500,1377,1606
1747551224.4134214,0.35000000000000003,0.04,0.07,-0.14944381720201447,0.1832595714594046,0.1538071403320003,2.8927404463261555,-0.07624444292259058,0.19249279640268546,0,0,7.5,0,0,0,1500,1500,1500,1500,1377,1606
1747551224.5136244,-0.16,0.03,0.42,-0.11235557059713497,0.18216874067690814,0.17562375598192942,2.8712638059261195,-0.10901647229998636,0.17427931001711194,0,0,7.5,0,0,0,1500,1500,1500,1500,1377,1606
1747551224.6134195,-0.16,0.03,0.42,-0.11235557059713497,0.18216874067690814,0.17562375598192942,2.8712638059261195,-0.10901647229998636,0.17427931001711194,0,0,7.5,0,0,0,1500,1500,1500,1500,1377,1606
1747551224.6968813,-0.39,0.0,0.29,-0.34797501961636945,0.14835298641951802,0.14180800172453928,2.831856927879467,-0.13474270638592828,0.1593696906507184,0,0,7.5,0,0,0,1500,1500,1500,1500,1377,1606
1747551224.7956,-0.22,0.15,0.08,-0.5214171140333059,0.16907877128695067,0.09926560120717749,2.760753670276897,-0.15998649303483753,0.15031488278979033,0,0,7.5,0,0,0,1500,1500,1500,1500,1377,1606
1747551224.896317,-0.22,0.15,0.08,-0.5214171140333059,0.16907877128695067,0.09926560120717749,2.760753670276897,-0.15998649303483753,0.15031488278979033,0,0,7.5,0,0,0,1500,1500,1500,1500,1377,1606
1747551224.979399,-0.16,0.29,0.12,-0.5628686837681712,0.21162117180431245,0.08508480103472356,2.6798044211268377,-0.18753659061401332,0.14952811345918685,0,0,7.5,0,0,0,1500,1500,1500,1500,1377,1606
1747551225.0803125,-0.16,0.29,0.12,-0.5628686837681712,0.21162117180431245,0.08508480103472356,2.6798044211268377,-0.18753659061401332,0.14952811345918685,0,0,7.5,0,0,0,1500,1500,1500,1500,1377,1606
1747551225.1800437,-0.24,0.3,-0.06,-0.5923211148955756,0.22580197197676638,0.05999569303730508,2.592690758584345,-0.21697661744211502,0.15583097723548225,0,0,7.5,0,0,0,1500,1500,1500,1500,1377,1606
1747551225.2796748,-0.18,0.29,0.0,-0.6021385919380436,0.23671027980173096,0.038179077387375956,2.494180590143432,-0.2448651902343711,0.17069063152021244,0,0,7.5,0,0,0,1500,1500,1500,1500,1377,1606
1747551225.379384,-0.18,0.29,0.0,-0.6021385919380436,0.23671027980173096,0.038179077387375956,2.494180590143432,-0.2448651902343711,0.17069063152021244,0,0,7.5,0,0,0,1500,1500,1500,1500,1377,1606
1747551225.4637463,-0.24,0.16,-0.04,-0.5846852994181004,0.2585268954516601,0.028361600344907856,2.396416887032278,-0.2730759084237149,0.19239767008346365,0,0,7.5,0,0,0,1500,1500,1500,1500,1377,1606
1747551225.5616229,-0.24,0.19,-0.08,-0.5410520681182421,0.2781618495365963,0.02945243112740431,2.3075125221208848,-0.3008314727432117,0.21860391864280915,0,0,7.5,0,0,0,1500,1500,1500,1500,1377,1606
1747551225.6631234,-0.24,0.19,-0.08,-0.5410520681182421,0.2781618495365963,0.02945243112740431,2.3075125221208848,-0.3008314727432117,0.21860391864280915,0,0,7.5,0,0,0,1500,1500,1500,1500,1377,1606
1747551225.7471197,-0.24,0.21,-0.15,-0.5083271446433485,0.29670597283903605,0.03381575425739013,2.216635152300642,-0.3305130958612318,0.251108452472671,0,0,7.5,0,0,0,1500,1500,1500,1500,1377,1606
1747551225.8458264,-0.24,0.21,-0.15,-0.5083271446433485,0.29670597283903605,0.03381575425739013,2.216635152300642,-0.3305130958612318,0.251108452472671,0,0,7.5,0,0,0,1500,1500,1500,1500,1377,1606
1747551225.9459395,-0.31,0.11,-0.18,-0.46796640569097964,0.2923426497090502,0.03599741582238305,2.1301407196276427,-0.3567668095996565,0.2869444125685579,0,0,7.5,0,0,0,1500,1500,1500,1500,1377,1606
1747551226.0459573,-0.12,0.25,-0.18,-0.4363323129985824,0.28907015736156083,0.032724923474893676,2.0530703621643216,-0.3782745262413591,0.3227807403899258,0,0,7.5,0,0,0,1500,1500,1500,1500,1377,1606
1747551226.1464212,-0.12,0.25,-0.18,-0.4363323129985824,0.28907015736156083,0.032724923474893676,2.0530703621643216,-0.3782745262413591,0.3227807403899258,0,0,7.5,0,0,0,1500,1500,1500,1500,1377,1606
1747551226.2300134,-0.14,0.02,-0.1,-0.40033489717619936,0.2912518189265537,0.037088246604879506,1.9740800223467139,-0.39978701356691,0.3636187342112843,0,0,7.5,0,0,0,1500,1500,1500,1500,1377,1606
1747551226.3300471,-0.14,0.02,-0.1,-0.40033489717619936,0.2912518189265537,0.037088246604879506,1.9740800223467139,-0.39978701356691,0.3636187342112843,0,0,7.5,0,0,0,1500,1500,1500,1500,1377,1606
1747551226.4295406,-0.1,0.25,-0.25,-0.3490658503988659,0.3043417883165112,0.04036073895236887,1.9052611107449182,-0.41822909790294904,0.40425147860519495,0,0,7.5,0,0,0,1500,1500,1500,1500,1377,1606
1747551226.5294213,-0.09,0.01,-0.18,-0.32288591161895097,0.3196134192714616,0.039269908169872414,1.839656293211581,-0.4353315571275168,0.44855557395044565,0,0,7.5,0,0,0,1500,1500,1500,1500,1377,1606
1747551226.6305196,-0.09,0.01,-0.18,-0.32288591161895097,0.3196134192714616,0.039269908169872414,1.839656293211581,-0.4353315571275168,0.44855557395044565,0,0,7.5,0,0,0,1500,1500,1500,1500,1377,1606
1747551226.7133558,0.03,0.13,-0.25,-0.30325095753401476,0.33815754257390135,0.025089107997418487,1.7721358167047327,-0.4498613292644693,0.5007009328806585,0,0,7.5,0,0,0,1500,1500,1500,1500,1377,1606
1747551226.8136141,0.07,0.08,-0.24,-0.284706834231575,0.3392483733563978,0.006544984694978736,1.709542992401088,-0.4579007708867236,0.5527805080939615,0,0,7.5,0,0,0,1500,1500,1500,1500,1377,1606
1747551226.9135685,0.07,0.08,-0.24,-0.284706834231575,0.3392483733563978,0.006544984694978736,1.709542992401088,-0.4579007708867236,0.5527805080939615,0,0,7.5,0,0,0,1500,1500,1500,1500,1377,1606
1747551227.013378,-0.02,0.08,-0.25,-0.24652775684419906,0.34033920413889424,-0.006544984694978736,1.6467954675026126,-0.4624948793706185,0.6094930368248173,0,0,7.5,0,0,0,1500,1500,1500,1500,1377,1606
1747551227.112495,-0.02,0.08,-0.25,-0.24652775684419906,0.34033920413889424,-0.006544984694978736,1.6467954675026126,-0.4624948793706185,0.6094930368248173,0,0,7.5,0,0,0,1500,1500,1500,1500,1377,1606
1747551227.196263,0.15,0.04,-0.24,-0.20725784867432664,0.34579335805137656,0.011999138607461015,1.5886001326649912,-0.4645487958837764,0.6678536546970548,0,0,7.5,0,0,0,1500,1500,1500,1500,1377,1606
1747551227.2973795,0.09,0.09,-0.24,-0.20725784867432664,0.34579335805137656,0.011999138607461015,1.5383631355010492,-0.46773728707432394,0.7243738397128782,0,0,7.5,0,0,0,1500,1500,1500,1500,1377,1606
1747551227.3957815,0.09,0.09,-0.24,-0.20725784867432664,0.34579335805137656,0.011999138607461015,1.5383631355010492,-0.46773728707432394,0.7243738397128782,0,0,7.5,0,0,0,1500,1500,1500,1500,1377,1606
1747551227.4793708,0.18,0.1,-0.22,-0.16144295580947549,0.36542831213631277,0.06326818538479445,1.4860955040783872,-0.4736636387161167,0.7868004039784766,0,0,7.5,0,0,0,1500,1500,1500,1500,1377,1606
1747551227.5792944,0.18,0.1,-0.22,-0.16144295580947549,0.36542831213631277,0.06326818538479445,1.4860955040783872,-0.4736636387161167,0.7868004039784766,0,0,7.5,0,0,0,1500,1500,1500,1500,1377,1606
1747551227.6801822,0.16,0.13,-0.24,-0.11780972450961724,0.3752457891787809,0.06763150851478027,1.441462094587355,-0.4781973255643197,0.8467344591615913,0,0,7.5,0,0,0,1500,1500,1500,1500,1377,1606
1747551227.7790864,0.17,0.09,-0.22,-0.08072147790473774,0.38069994309126315,0.07853981633974483,1.3984389459980502,-0.4816788485141723,0.9124543725661786,0,0,7.5,0,0,0,1500,1500,1500,1500,1377,1606
1747551227.8791952,0.17,0.09,-0.22,-0.08072147790473774,0.38069994309126315,0.07853981633974483,1.3984389459980502,-0.4816788485141723,0.9124543725661786,0,0,7.5,0,0,0,1500,1500,1500,1500,1377,1606
1747551227.9630463,0.0,-0.04,-0.12,-0.05235987755982989,0.38724492778624187,0.07090400086226964,1.3619118892121562,-0.4829046104192813,0.9752278166662169,0,0,7.5,0,0,0,1500,1500,1500,1500,1377,1606
1747551228.063239,0.22,0.04,-0.25,-0.02399827721492203,0.3959715740462135,0.05345070834232634,1.3291558621777115,-0.4809608519394596,1.0388864839153664,0,0,5.294118,0,0,0,1500,1500,1500,1500,1399,1588
1747551228.165487,0.22,0.04,-0.25,-0.02399827721492203,0.3959715740462135,0.05345070834232634,1.3291558621777115,-0.4809608519394596,1.0388864839153664,0,0,-7.5,0,0,0,1500,1500,1500,1500,1439,1548
1747551228.2637026,0.17,0.0,-0.34,0.008726646259971648,0.39269908169872414,0.03599741582238305,1.3013014910054985,-0.47446418301038373,1.1055396847429482,0,0,-7.5,0,0,0,1500,1500,1500,1500,1479,1508
1747551228.3578691,0.21,-0.17,-0.58,0.05235987755982989,0.3763366199612773,0.02945243112740431,1.2822907246816473,-0.4661730993030009,1.168376446311785,0,0,-7.5,0,0,0,1500,1500,1500,1500,1519,1468
1747551228.447108,0.21,-0.17,-0.58,0.05235987755982989,0.3763366199612773,0.02945243112740431,1.2822907246816473,-0.4661730993030009,1.168376446311785,0,0,-7.5,0,0,0,1500,1500,1500,1500,1559,1428
1747551228.5469503,0.13,-0.07,-0.3,0.16035212502697901,0.3567016658763411,0.013089969389957472,1.2811896997623615,-0.45690842216004496,1.2225569324471812,0,0,-4.311146,0,0,0,1500,1500,1500,1500,1581,1410
1747551228.6462755,0.13,-0.07,-0.3,0.16035212502697901,0.3567016658763411,0.013089969389957472,1.2811896997623615,-0.45690842216004496,1.2225569324471812,0,0,0,0,0,0,1500,1500,1500,1500,1541,1450
1747551228.729932,0.18,-0.09,-0.3,0.23561944901923448,0.34797501961636945,-0.002181661564992912,1.2903067093734235,-0.44355283092108383,1.2796434920024036,0,0,0,0,0,0,1500,1500,1500,1500,1501,1490
1747551228.8299263,0.18,-0.09,-0.3,0.23561944901923448,0.34797501961636945,-0.002181661564992912,1.2903067093734235,-0.44355283092108383,1.2796434920024036,0,0,0,0,0,0,1500,1500,1500,1500,1500,1500
1747551228.9291024,0.01,-0.1,-0.04,0.28034351110158917,0.33052172709642613,-0.02399827721492203,1.3066302233426277,-0.42915808419425655,1.3337891994670457,0,0,0,0,0,-0.7,1460,1540,1500,1500,1500,1500
1747551229.0294342,0.11,-0.07,-0.09,0.35779249665883756,0.32070425005395803,-0.044724062082354694,1.3335166601930488,-0.4128584581717924,1.3835298802212135,0,0,0,0,0,-0.7,1420,1580,1500,1500,1500,1500
1747551229.1290267,0.11,-0.07,-0.09,0.35779249665883756,0.32070425005395803,-0.044724062082354694,1.3335166601930488,-0.4128584581717924,1.3835298802212135,0,0,0,0,0,-0.7,1402,1587,1500,1500,1500,1500
1747551229.2122183,0.12,-0.1,-0.12,0.4145156973486533,0.32288591161895097,-0.06326818538479445,1.3740187056020263,-0.39479579246010815,1.4348705049259958,0,0,0,0,0,-0.7,1402,1587,1500,1500,1500,1500
1747551229.3123274,0.31,-0.08,-0.12,0.39269908169872414,0.32070425005395803,-0.1930770485018727,1.4170139907462993,-0.3729252240001591,1.481330113763845,0,0,0,0,0,-0.7,1402,1587,1500,1500,1500,1500
1747551229.4134674,0.31,-0.08,-0.12,0.39269908169872414,0.32070425005395803,-0.1930770485018727,1.4170139907462993,-0.3729252240001591,1.481330113763845,0,0,0,0,0,-0.7,1402,1587,1500,1500,1500,1500
1747551229.5139709,0.14,0.04,-0.1,0.24325526449670967,0.33052172709642613,-0.5301437602932776,1.4516375326225075,-0.3180520964976689,1.5232190430470431,0,0,0,0,0,-0.005903,1442,1547,1500,1500,1500,1500
1747551229.6081924,0.07,-0.21,0.05,0.09926560120717749,0.32179508083645453,-0.7515824091400581,1.4669642969057137,-0.21351361107822084,1.5639422778250098,0,0,0,0,0,0,1482,1507,1500,1500,1500,1500
1747551229.6960952,0.07,-0.21,0.05,0.09926560120717749,0.32179508083645453,-0.7515824091400581,1.4669642969057137,-0.21351361107822084,1.5639422778250098,0,0,0,0.073032,-0.28,0,1500,1500,1460,1500,1460,1460
1747551229.7954628,0.24,-0.28,0.0,0.136353847812057,0.3076142806640006,-0.5181446216858165,1.4776801659913341,-0.11140742386523311,1.6034870470367406,0,0,0,0.076813,-0.28,0,1500,1500,1454,1500,1436,1436
1747551229.8963552,0.24,-0.28,0.0,0.136353847812057,0.3076142806640006,-0.5181446216858165,1.4776801659913341,-0.11140742386523311,1.6034870470367406,0,0,0,0.076813,-0.28,0,1500,1500,1454,1500,1436,1436
1747551229.9787352,0.11,-0.39,0.11,0.1810779098944117,0.28361600344907856,-0.26070855701665296,1.4978522936479215,-0.052631750205974,1.6443452851402258,0,0,0,0.076813,-0.28,0,1500,1500,1454,1500,1436,1436
1747551230.0786777,0.11,-0.39,0.11,0.1810779098944117,0.28361600344907856,-0.26070855701665296,1.4978522936479215,-0.052631750205974,1.6443452851402258,0,0,0,0.076813,-0.28,0,1500,1500,1454,1500,1436,1436
1747551230.179098,0.06,-0.32,0.11,0.06654067773228381,0.2530727415391778,-0.04036073895236887,1.5148440068592073,-0.030192327816456834,1.6851208371568203,0,0,0,0.076813,-0.28,0,1500,1500,1454,1500,1436,1436
1747551230.2797294,0.14,-0.17,0.1,-0.03490658503988659,0.22471114119426994,0.13199052468207118,1.5145044597355375,-0.03815045217329368,1.720479111854499,0,0,0,0.076813,-0.28,0,1500,1500,1454,1500,1436,1436
1747551230.3789437,0.14,-0.17,0.1,-0.03490658503988659,0.22471114119426994,0.13199052468207118,1.5145044597355375,-0.03815045217329368,1.720479111854499,0,0,0,0.076813,-0.28,0,1500,1500,1454,1500,1436,1436
1747551230.462824,0.23,-0.22,0.11,-0.11999138607461016,0.18216874067690814,0.3174317577064687,1.4989132399055287,-0.07434905354535597,1.7547518727411426,0,0,0,0.076813,-0.28,0,1500,1500,1454,1500,1436,1436
1747551230.5634634,0.22,-0.15,0.09,-0.17562375598192942,0.14944381720201447,0.40906154343617096,1.4729550615290739,-0.12780021921224977,1.7836587365021561,0,0,0,0.076813,-0.28,0,1500,1500,1454,1500,1436,1436
1747551230.6624107,0.22,-0.15,0.09,-0.17562375598192942,0.14944381720201447,0.40906154343617096,1.4729550615290739,-0.12780021921224977,1.7836587365021561,0,0,0,0.076813,-0.28,0,1500,1500,1454,1500,1436,1436
1747551230.7456691,0.17,-0.11,0.05,-0.19634954084936207,0.12544553998709243,0.41233403578366035,1.4405052422397011,-0.1865327912958958,1.811210958132173,0,0,0,0.076813,-0.28,0,1500,1500,1454,1500,1436,1436
1747551230.845756,0.17,-0.11,0.05,-0.19634954084936207,0.12544553998709243,0.41233403578366035,1.4405052422397011,-0.1865327912958958,1.811210958132173,0,0,0,0.076813,-0.28,0,1500,1500,1454,1500,1436,1436
1747551230.9461622,0.12,-0.11,0.02,-0.2007128639793479,0.09381144729469522,0.3719732968312915,1.4037950596158748,-0.24473693420599596,1.8383045247750402,0,0,0,0.076813,-0.28,0,1500,1500,1454,1500,1436,1436
1747551231.046201,0.17,-0.09,-0.01,-0.19525871006686563,0.05999569303730508,0.3141592653589793,1.3693201504308958,-0.2920160758819588,1.858786252395609,0,0,0,0.076813,-0.28,0,1500,1500,1454,1500,1436,1436
1747551231.146459,0.17,-0.09,-0.01,-0.19525871006686563,0.05999569303730508,0.3141592653589793,1.3693201504308958,-0.2920160758819588,1.858786252395609,0,0,0,0.076813,-0.28,0,1500,1500,1454,1500,1436,1436
1747551231.229708,0.23,-0.06,0.01,-0.18871372537188688,0.02945243112740431,0.27598018797160334,1.3342562778996547,-0.33650634451749173,1.8758790520001014,0,0,0,0.076813,-0.28,0,1500,1500,1454,1500,1436,1436
1747551231.3283288,0.16,-0.14,0.01,-0.19962203319685143,0.003272492347489368,0.23561944901923448,1.29950265106159,-0.3765612085928016,1.8885770154841794,0,0,0,0.076813,-0.28,0,1500,1500,1454,1500,1436,1436
1747551231.4290154,0.16,-0.14,0.01,-0.19962203319685143,0.003272492347489368,0.23561944901923448,1.29950265106159,-0.3765612085928016,1.8885770154841794,0,0,0,0.076813,-0.28,0,1500,1500,1454,1500,1436,1436
1747551231.5293412,0.17,-0.07,0.0,-0.1908953869368798,-0.017453292519943295,0.15271630954950383,1.265795161297664,-0.40730898833345935,1.0981432164102316,0,0,0,0.076813,-0.28,0,1500,1500,1454,1500,1436,1436
1747551231.6289673,0.17,-0.07,0.0,-0.1908953869368798,-0.017453292519943295,0.15271630954950383,1.265795161297664,-0.40730898833345935,1.0981432164102316,0,0,0,0.076813,-0.28,0,1500,1500,1454,1500,1436,1436
1747551231.7127612,0.14,-0.09,-0.14,-0.17235126363444003,-0.02399827721492203,-0.001090830782496456,1.2387917040164476,-0.4253277988604307,1.090055313477808,0,0,0,0.046218,-0.28,0,1500,1500,1494,1500,1436,1436
1747551231.8130002,0.26,-0.09,-0.16,-0.15707963267948966,-0.025089107997418487,0.002181661564992912,1.2153452701287508,-0.4336731885164295,1.077686970622127,0,0,0,0,0,0,1500,1500,1500,1500,1476,1476
1747551231.9136324,0.26,-0.09,-0.16,-0.15707963267948966,-0.025089107997418487,0.002181661564992912,1.2153452701287508,-0.4336731885164295,1.077686970622127,0,0,0,0,0,0,1500,1500,1500,1500,1500,1500
1747551232.0128407,0.19,-0.15,-0.14,-0.08290313946973066,-0.00545415391248228,-0.04908738521234052,1.196716445628153,-0.43646241200644753,1.0595614355530614,0,0,0,0,0,0,1500,1500,1500,1500,1500,1500
1747551232.1134305,0.1,-0.15,-0.07,0.1439896632895322,-0.001090830782496456,-0.08835729338221293,1.2056191000860519,-0.4306172468269308,1.0525760965476352,0,0,0,0,0,0,1500,1500,1500,1500,1500,1500
1747551232.1971536,0.1,-0.15,-0.07,0.1439896632895322,-0.001090830782496456,-0.08835729338221293,1.2056191000860519,-0.4306172468269308,1.0525760965476352,0,0,0,0,0,0,1500,1500,1500,1500,1500,1500
1747551232.2968743,0.17,-0.14,-0.02,0.28688849579656794,-0.01090830782496456,-0.1189005552921137,1.2424499003409493,-0.41848703476063653,1.0463103063535695,0,0,0,0,0,0,1500,1500,1500,1500,1500,1500
1747551232.39546,0.17,-0.14,-0.02,0.28688849579656794,-0.01090830782496456,-0.1189005552921137,1.2424499003409493,-0.41848703476063653,1.0463103063535695,0,0,0,0.017449,-0.151595,0,1500,1500,1500,1500,1460,1460
1747551232.478779,0.22,-0.13,-0.14,0.36542831213631277,-0.019634954084936207,-0.11999138607461016,1.2930467262089569,-0.40496753579917233,1.0361124535306192,0,0,0,0.030116,-0.28,0,1500,1500,1500,1500,1436,1436
1747551232.5795634,0.2,-0.11,-0.11,0.42542400517361784,-0.032724923474893676,-0.09817477042468103,1.3589092905203073,-0.39302061795004634,1.0243205032474876,0,0,0,0.030116,-0.28,0,1500,1500,1500,1500,1436,1436
1747551232.6797767,0.2,-0.11,-0.11,0.42542400517361784,-0.032724923474893676,-0.09817477042468103,1.3589092905203073,-0.39302061795004634,1.0243205032474876,0,0,0,0.030116,-0.28,0,1500,1500,1500,1500,1436,1436
1747551232.779654,0.16,-0.03,-0.11,0.34033920413889424,-0.02399827721492203,-0.08508480103472356,1.4226948785534312,-0.38522358368596177,1.0109883752406026,0,0,0,0.01399,-0.28,0,1500,1500,1500,1500,1436,1436
1747551232.879345,0.16,-0.03,-0.11,0.34033920413889424,-0.02399827721492203,-0.08508480103472356,1.4226948785534312,-0.38522358368596177,1.0109883752406026,0,0,0,0.01399,-0.28,0,1500,1500,1500,1500,1436,1436
1747551232.962355,0.21,-0.13,0.0,0.17453292519943295,-0.026179938779914945,-0.10362892433716332,1.465509706510065,-0.3740559675694707,0.9980365737142161,0,0,0,0.01399,-0.28,0,1500,1500,1500,1500,1436,1436
1747551233.0628564,0.19,-0.1,0.01,0.06326818538479445,-0.022907446432425576,-0.09599310885968812,1.484239155165107,-0.3629970054782377,0.9778390611363292,0,0,0,0.01399,-0.28,0,1500,1500,1500,1500,1436,1436
1747551233.1622813,0.19,-0.1,0.01,0.06326818538479445,-0.022907446432425576,-0.09599310885968812,1.484239155165107,-0.3629970054782377,0.9778390611363292,0,0,0,0.01399,-0.28,0,1500,1500,1500,1500,1436,1436
1747551233.262222,0.2,-0.1,-0.02,-0.0272707695624114,-0.022907446432425576,-0.07635815477475191,1.4874069133412187,-0.354281025644802,0.9644088422362926,0,0,0,0.01399,-0.28,0,1500,1500,1500,1500,1436,1436
1747551233.362049,0.22,-0.1,-0.03,-0.09926560120717749,-0.014180800172453928,-0.07417649320975901,1.478290707933256,-0.3462772599018336,0.960535135675534,0,0,0,0.01399,-0.28,0,1500,1500,1500,1500,1436,1436
1747551233.4455526,0.22,-0.1,-0.03,-0.09926560120717749,-0.014180800172453928,-0.07417649320975901,1.478290707933256,-0.3462772599018336,0.960535135675534,0,0,0,0.01399,-0.28,0,1500,1500,1500,1500,1436,1436
1747551233.5459316,0.21,-0.09,-0.07,-0.14944381720201447,-0.00545415391248228,-0.07635815477475191,1.4603249006332952,-0.3376932200314877,0.9590371557725468,0,0,0,0.010913,-0.28,0,1500,1500,1500,1500,1436,1436
1747551233.6457088,0.21,-0.09,-0.07,-0.14944381720201447,-0.00545415391248228,-0.07635815477475191,1.4603249006332952,-0.3376932200314877,0.9590371557725468,0,0,0,0.010913,-0.28,0,1500,1500,1500,1500,1436,1436
1747551233.7297785,0.23,-0.12,0.0,-0.16907877128695067,-0.00545415391248228,-0.05345070834232634,1.4379305867978232,-0.3309536217773462,0.9575946353846336,0,0,0,0.010913,-0.28,0,1500,1500,1500,1500,1436,1436
1747551233.8297133,0.21,-0.11,-0.03,-0.18871372537188688,-0.009817477042468103,-0.028361600344907856,1.411864192556267,-0.3277661641526383,0.9553345052342763,0,0,0,0.010913,-0.28,0,1500,1500,1500,1500,1436,1436
