time,ay,ax,az,gy,gx,gz,roll,pitch,yaw,cmd_fx,cmd_fy,cmd_fz,cmd_tx,cmd_ty,cmd_tz,pwm_1,pwm_2,pwm_3,pwm_4,pwm_5,pwm_6
1748733132.1794918,0.0,0.0,0.0,0.0,0.0,0.0,0.0,0.0,0.0,0.0,0.0,0.0,0.0,0.0,0.0,1500,1500,1500,1500,1500,1500
1748733132.2813637,0.02,0.0,-0.01,0.002181661564992912,-0.004363323129985824,0.0,0.005991882557345524,0.5622590138574997,0.6746791273343563,0.0,0.0,0.0,0.0,0.0,0.0,1500,1500,1500,1500,1500,1500
1748733132.394907,0.02,0.0,-0.01,0.002181661564992912,-0.004363323129985824,0.0,0.005991882557345524,0.5622590138574997,0.6746791273343563,0.0,0.0,0.0,0.0,0.0,0.0,1500,1500,1500,1500,1500,1500
1748733132.5145273,0.04,-0.03,-0.05,0.0,-0.00545415391248228,-0.001090830782496456,0.005991882557345524,0.5622590138574997,0.6746791273343563,0.0,0.0,0.0,0.0,0.0,0.0,1500,1500,1500,1500,1500,1500
1748733132.6220932,0.02,-0.01,-0.07,0.003272492347489368,0.003272492347489368,-0.001090830782496456,0.005991882557345524,0.5622590138574997,0.6746791273343563,0.0,0.0,0.0,0.0,0.0,0.0,1500,1500,1500,1500,1500,1500
1748733132.7233336,0.01,0.03,-0.06,0.003272492347489368,0.003272492347489368,0.001090830782496456,0.005991882557345524,0.5622590138574997,0.6746791273343563,0.0,0.0,0.0,0.0,0.0,0.0,1500,1500,1500,1500,1500,1500
1748733132.8278427,0.01,0.03,-0.06,0.003272492347489368,0.003272492347489368,0.001090830782496456,0.005991882557345524,0.5622590138574997,0.6746791273343563,0.0,0.0,0.0,0.0,0.0,0.0,1500,1500,1500,1500,1500,1500
1748733132.9219887,-0.03,0.3,0.12,0.002181661564992912,0.001090830782496456,0.002181661564992912,0.005991882557345524,0.5622590138574997,0.6746791273343563,0.0,0.0,0.0,0.0,0.0,0.0,1500,1500,1500,1500,1500,1500
1748733133.0287447,-0.03,0.3,0.12,0.002181661564992912,0.001090830782496456,0.002181661564992912,0.005991882557345524,0.5622590138574997,0.6746791273343563,0.0,0.0,0.0,0.0,0.0,0.0,1500,1500,1500,1500,1500,1500
1748733133.1284218,0.85,0.05,0.25,-0.007635815477475192,0.001090830782496456,0.018544123302439753,0.005991882557345524,0.5622590138574997,0.6746791273343563,0,0,0,0,0,0,1500,1500,1500,1500,1500,1500
1748733133.2235718,0.06,-0.2,-0.14,0.003272492347489368,0.001090830782496456,-0.001090830782496456,0.0062911522504535715,0.5621803228791917,0.6748976832949574,0,0,0,0,0,0,1500,1500,1500,1500,1500,1500
1748733133.321937,0.06,-0.2,-0.14,0.003272492347489368,0.001090830782496456,-0.001090830782496456,0.0062911522504535715,0.5621803228791917,0.6748976832949574,0,0,0,0,0,0,1500,1500,1500,1500,1500,1500
1748733133.420683,0.07,-0.02,-0.01,0.002181661564992912,0.002181661564992912,0.002181661564992912,0.0062911522504535715,0.5621803228791917,0.6748976832949574,0,0,0,0,0,0,1500,1500,1500,1500,1500,1500
1748733133.5213354,0.07,-0.02,-0.01,0.002181661564992912,0.002181661564992912,0.002181661564992912,0.0062911522504535715,0.5621803228791917,0.6748976832949574,0,0,0,0,0,0,1500,1500,1500,1500,1500,1500
1748733133.6191516,0.01,0.1,0.08,-0.003272492347489368,-0.002181661564992912,-0.001090830782496456,0.0062911522504535715,0.5621803228791917,0.6748976832949574,0,0,0,0,0,0,1500,1500,1500,1500,1500,1500
1748733133.7226896,0.01,-0.05,-0.09,-0.002181661564992912,0.002181661564992912,0.0,0.0062911522504535715,0.5621803228791917,0.6748976832949574,0,0,0,0,0,0,1500,1500,1500,1500,1500,1500
1748733133.8076658,0.01,-0.05,-0.09,-0.002181661564992912,0.002181661564992912,0.0,0.0062911522504535715,0.5621803228791917,0.6748976832949574,0,0,0,0,0,0,1500,1500,1500,1500,1500,1500
1748733133.9118125,0.0,0.0,-0.02,-0.004363323129985824,0.0,0.003272492347489368,0.0062911522504535715,0.5621803228791917,0.6748976832949574,0,0,0,0,0,0,1500,1500,1500,1500,1500,1500
1748733134.0184064,0.0,0.0,-0.06,0.002181661564992912,0.001090830782496456,-0.002181661564992912,0.0062911522504535715,0.5621803228791917,0.6748976832949574,0,0,0,0,0,0,1500,1500,1500,1500,1500,1500
1748733134.1027038,0.0,0.0,-0.06,0.002181661564992912,0.001090830782496456,-0.002181661564992912,0.0062911522504535715,0.5621803228791917,0.6748976832949574,0,0,0,0,0,0,1500,1500,1500,1500,1500,1500
1748733134.2056737,0.02,0.01,-0.06,0.002181661564992912,-0.001090830782496456,0.001090830782496456,0.0062911522504535715,0.5621803228791917,0.6748976832949574,0,0,0,0,0,0,1500,1500,1500,1500,1500,1500
1748733134.308463,0.02,0.01,-0.06,0.002181661564992912,-0.001090830782496456,0.001090830782496456,0.0062911522504535715,0.5621803228791917,0.6748976832949574,0,0,0,0,0,0,1500,1500,1500,1500,1500,1500
1748733134.4096859,0.01,-0.01,0.0,0.0,0.003272492347489368,0.001090830782496456,0.0062911522504535715,0.5621803228791917,0.6748976832949574,0,0,0,0,0,0,1500,1500,1500,1500,1500,1500
1748733134.5024443,0.08,0.0,-0.01,-0.003272492347489368,-0.003272492347489368,0.001090830782496456,0.0062911522504535715,0.5621803228791917,0.6748976832949574,0,0,0,0,0,0,1500,1500,1500,1500,1500,1500
1748733134.5841792,0.08,0.0,-0.01,-0.003272492347489368,-0.003272492347489368,0.001090830782496456,0.0062911522504535715,0.5621803228791917,0.6748976832949574,0,0,0,0,0,0,1500,1500,1500,1500,1500,1500
1748733134.6849816,0.0,0.03,-0.03,0.0,-0.001090830782496456,-0.003272492347489368,0.0062911522504535715,0.5621803228791917,0.6748976832949574,0,0,0,0,0,0,1500,1500,1500,1500,1500,1500
1748733134.7849295,0.0,0.03,-0.03,0.0,-0.001090830782496456,-0.003272492347489368,0.0062911522504535715,0.5621803228791917,0.6748976832949574,0,0,0,0,0,0,1500,1500,1500,1500,1500,1500
1748733134.8800726,0.01,0.01,-0.04,0.0,-0.003272492347489368,-0.002181661564992912,0.0062911522504535715,0.5621803228791917,0.6748976832949574,0,0,0,0,0,0,1500,1500,1500,1500,1500,1500
1748733134.9861233,0.02,0.01,-0.02,0.001090830782496456,0.0,0.004363323129985824,0.0062911522504535715,0.5621803228791917,0.6748976832949574,0,0,0,0,0,0,1500,1500,1500,1500,1500,1500
1748733135.0688674,0.02,0.01,-0.02,0.001090830782496456,0.0,0.004363323129985824,0.0062911522504535715,0.5621803228791917,0.6748976832949574,0,0,0,0,0,0,1500,1500,1500,1500,1500,1500
1748733135.1680036,0.04,-0.04,-0.02,-0.001090830782496456,0.0,0.0,0.0062911522504535715,0.5621803228791917,0.6748976832949574,0,0,0,0,0,0,1500,1500,1500,1500,1500,1500
1748733135.2693481,0.04,-0.04,-0.02,-0.001090830782496456,0.0,0.0,0.0062911522504535715,0.5621803228791917,0.6748976832949574,0,0,0,0,0,0,1500,1500,1500,1500,1500,1500
1748733135.368946,-0.01,0.02,-0.05,-0.002181661564992912,-0.001090830782496456,0.0,0.0062911522504535715,0.5621803228791917,0.6748976832949574,0,0,0,0,0,0,1500,1500,1500,1500,1500,1500
1748733135.4728224,0.03,0.01,-0.03,-0.002181661564992912,0.001090830782496456,0.002181661564992912,0.0062911522504535715,0.5621803228791917,0.6748976832949574,0,0,0,0,0,0,1500,1500,1500,1500,1500,1500
1748733135.568936,0.03,0.01,-0.03,-0.002181661564992912,0.001090830782496456,0.002181661564992912,0.0062911522504535715,0.5621803228791917,0.6748976832949574,0,0,0,0,0,0,1500,1500,1500,1500,1500,1500
1748733135.6706614,0.0,0.01,-0.06,-0.002181661564992912,0.002181661564992912,0.002181661564992912,0.0062911522504535715,0.5621803228791917,0.6748976832949574,0,0,0,0,0,0,1500,1500,1500,1500,1500,1500
1748733135.7695377,0.0,0.01,-0.06,-0.002181661564992912,0.002181661564992912,0.002181661564992912,0.0062911522504535715,0.5621803228791917,0.6748976832949574,0,0,0,0,0,0,1500,1500,1500,1500,1500,1500
1748733135.854344,0.04,-0.02,-0.03,-0.002181661564992912,0.003272492347489368,0.002181661564992912,0.0062911522504535715,0.5621803228791917,0.6748976832949574,0,0,0,0,0,0,1500,1500,1500,1500,1500,1500
1748733135.95353,0.02,-0.01,-0.05,0.004363323129985824,-0.002181661564992912,-0.001090830782496456,0.0062911522504535715,0.5621803228791917,0.6748976832949574,0,0,0,0,0,0,1500,1500,1500,1500,1500,1500
1748733136.0515144,0.02,-0.01,-0.05,0.004363323129985824,-0.002181661564992912,-0.001090830782496456,0.0062911522504535715,0.5621803228791917,0.6748976832949574,0,0,0,0,0,0,1500,1500,1500,1500,1500,1500
1748733136.1520593,0.03,0.03,-0.01,0.004363323129985824,0.003272492347489368,0.0,0.0062911522504535715,0.5621803228791917,0.6748976832949574,0,0,0,0,0,0,1500,1500,1500,1500,1500,1500
1748733136.2535381,0.03,0.03,-0.01,0.004363323129985824,0.003272492347489368,0.0,0.0062911522504535715,0.5621803228791917,0.6748976832949574,0,0,0,0,0,0,1500,1500,1500,1500,1500,1500
1748733136.3356621,-0.02,0.07,-0.02,0.001090830782496456,0.00545415391248228,0.001090830782496456,0.0062911522504535715,0.5621803228791917,0.6748976832949574,0,0,0,0,0,0,1500,1500,1500,1500,1500,1500
1748733136.4346132,0.0,0.03,-0.01,0.002181661564992912,-0.001090830782496456,0.0,0.0062911522504535715,0.5621803228791917,0.6748976832949574,0,0,0,0,0,0,1500,1500,1500,1500,1500,1500
1748733136.5372908,0.0,0.03,-0.01,0.002181661564992912,-0.001090830782496456,0.0,0.0062911522504535715,0.5621803228791917,0.6748976832949574,0,0,0,0,0,0,1500,1500,1500,1500,1500,1500
1748733136.6359632,0.1,0.32,-0.36,-0.001090830782496456,0.00545415391248228,0.001090830782496456,0.006114239452070083,0.5620952606990548,0.6748307521824782,0,0,0,0,0,0,1500,1500,1500,1500,1500,1500
1748733136.7245142,0.05,0.23,-0.17,0.009817477042468103,0.003272492347489368,-0.006544984694978736,0.00593734421340913,0.5620102030761612,0.6747638516493694,0,0,0,0,0,0,1500,1500,1500,1500,1500,1500
1748733136.8181362,0.05,0.23,-0.17,0.009817477042468103,0.003272492347489368,-0.006544984694978736,0.00593734421340913,0.5620102030761612,0.6747638516493694,0,0,0,0,0,0,1500,1500,1500,1500,1500,1500
1748733136.917953,-0.16,0.2,-0.07,-0.001090830782496456,0.002181661564992912,0.00545415391248228,0.00593734421340913,0.5620102030761612,0.6747638516493694,0,0,0,0,0,0,1500,1500,1500,1500,1500,1500
1748733137.0183618,-0.16,0.2,-0.07,-0.001090830782496456,0.002181661564992912,0.00545415391248228,0.00593734421340913,0.5620102030761612,0.6747638516493694,0,0,0,0,0,0,1500,1500,1500,1500,1500,1500
1748733137.1022894,0.19,0.24,0.12,0.002181661564992912,-0.001090830782496456,0.002181661564992912,0.005983565045641949,0.562141031686694,0.6748011598323266,0,0,0,0,0,0,1500,1500,1500,1500,1500,1500
1748733137.2016394,0.19,0.24,0.12,0.002181661564992912,-0.001090830782496456,0.002181661564992912,0.005983565045641949,0.562141031686694,0.6748011598323266,0,0,0,0,0,0,1500,1500,1500,1500,1500,1500
1748733137.3032286,-0.28,-0.39,-0.25,-0.00545415391248228,0.002181661564992912,0.0,0.006185832217895018,0.5619565557199004,0.674858753182033,0,0,0,0,0,0,1500,1500,1500,1500,1500,1500
1748733137.4026253,0.08,-0.18,-0.09,-0.002181661564992912,-0.001090830782496456,-0.004363323129985824,0.005966496192987802,0.5625285617945386,0.6746884366584444,0,0,0,0,0,0,1500,1500,1500,1500,1500,1500
1748733137.502024,0.08,-0.18,-0.09,-0.002181661564992912,-0.001090830782496456,-0.004363323129985824,0.005966496192987802,0.5625285617945386,0.6746884366584444,0,0,0,0,0,0,1500,1500,1500,1500,1500,1500
1748733137.5839,0.09,-0.03,-0.03,-0.004363323129985824,0.003272492347489368,-0.002181661564992912,0.005966496192987802,0.5625285617945386,0.6746884366584444,0,0,0,0,0,0,1500,1500,1500,1500,1500,1500
1748733137.684707,0.09,-0.03,-0.03,-0.004363323129985824,0.003272492347489368,-0.002181661564992912,0.005966496192987802,0.5625285617945386,0.6746884366584444,0,0,0,0,0,0,1500,1500,1500,1500,1500,1500
1748733137.7864158,-0.02,-0.03,-0.04,-0.004363323129985824,0.00545415391248228,-0.003272492347489368,0.005966496192987802,0.5625285617945386,0.6746884366584444,0,0,0,0,0,0,1500,1500,1500,1500,1500,1500
1748733137.8844795,0.02,-0.06,-0.04,0.0,0.00545415391248228,0.0,0.005966496192987802,0.5625285617945386,0.6746884366584444,0,0,0,0,0,0,1500,1500,1500,1500,1500,1500
1748733137.985682,0.02,-0.06,-0.04,0.0,0.00545415391248228,0.0,0.005966496192987802,0.5625285617945386,0.6746884366584444,0,0,0,0,0,0,1500,1500,1500,1500,1500,1500
1748733138.068463,0.0,-0.12,-0.03,-0.004363323129985824,0.001090830782496456,0.0,0.006012726045973939,0.5626594243435156,0.674725789283527,0,0,0,0,0,0,1500,1500,1500,1500,1500,1500
1748733138.1677911,0.15,0.04,-0.09,0.001090830782496456,-0.001090830782496456,-0.00545415391248228,0.006050672473643024,0.5626722936205473,0.6748851791242721,0,0,0,0,0,0,1500,1500,1500,1500,1500,1500
1748733138.2689257,0.15,0.04,-0.09,0.001090830782496456,-0.001090830782496456,-0.00545415391248228,0.006050672473643024,0.5626722936205473,0.6748851791242721,0,0,0,0,0,0,1500,1500,1500,1500,1500,1500
1748733138.352118,0.03,0.0,-0.03,-0.002181661564992912,0.00545415391248228,-0.001090830782496456,0.006278454278356994,0.5627322811565942,0.6750758456957616,0,0,0,0,0,0,1500,1500,1500,1500,1500,1500
1748733138.4518633,0.03,0.0,-0.03,-0.002181661564992912,0.00545415391248228,-0.001090830782496456,0.006278454278356994,0.5627322811565942,0.6750758456957616,0,0,0,0,0,0,1500,1500,1500,1500,1500,1500
1748733138.5510983,-0.1,0.03,-0.03,0.001090830782496456,0.0,0.002181661564992912,0.006278454278356994,0.5627322811565942,0.6750758456957616,0,0,0,0,0,0,1500,1500,1500,1500,1500,1500
1748733138.6471636,0.11,0.42,0.29,-0.001090830782496456,0.004363323129985824,0.001090830782496456,0.006004430954625182,0.5625414300096494,0.674847816157191,0,0,0,0,0,0,1500,1500,1500,1500,1500,1500
1748733138.7511451,0.11,0.42,0.29,-0.001090830782496456,0.004363323129985824,0.001090830782496456,0.006004430954625182,0.5625414300096494,0.674847816157191,0,0,0,0,0,0,1500,1500,1500,1500,1500,1500
1748733138.8346236,0.12,-0.27,-0.02,-0.007635815477475192,-0.002181661564992912,0.0,0.005996119612792395,0.5624234444533076,0.6749698461180077,0,0,0,0,0,0,1500,1500,1500,1500,1500,1500
1748733138.934612,0.12,-0.27,-0.02,-0.007635815477475192,-0.002181661564992912,0.0,0.005996119612792395,0.5624234444533076,0.6749698461180077,0,0,0,0,0,0,1500,1500,1500,1500,1500,1500
1748733139.0346553,0.13,-0.11,0.09,-0.004363323129985824,0.002181661564992912,0.003272492347489368,0.0060886188838867985,0.5626851630020319,0.6750445766986267,0,0,0,0,0,0,1500,1500,1500,1500,1500,1500
1748733139.1182542,0.03,-0.09,-0.04,0.001090830782496456,0.003272492347489368,0.0,0.0060886188838867985,0.5626851630020319,0.6750445766986267,0,0,0,0,0,0,1500,1500,1500,1500,1500,1500
1748733139.218121,0.03,-0.09,-0.04,0.001090830782496456,0.003272492347489368,0.0,0.0060886188838867985,0.5626851630020319,0.6750445766986267,0,0,0,0,0,0,1500,1500,1500,1500,1500,1500
1748733139.3176942,0.04,-0.14,-0.6,-0.002181661564992912,-0.013089969389957472,0.009817477042468103,0.005873726111667291,0.562587213869306,0.6748181953590746,0,0,0,0,0,0,1500,1500,1500,1500,1500,1500
1748733139.4210467,0.04,-0.14,-0.6,-0.002181661564992912,-0.013089969389957472,0.009817477042468103,0.005873726111667291,0.562587213869306,0.6748181953590746,0,0,0,0,0,0,1500,1500,1500,1500,1500,1500
1748733139.519257,0.26,0.06,0.07,0.002181661564992912,-0.001090830782496456,-0.004363323129985824,0.005919958974374746,0.5627180812587311,0.6748555503407393,0,0,0,0,0,0,1500,1500,1500,1500,1500,1500
1748733139.6025257,-0.06,0.11,0.07,0.002181661564992912,-0.003272492347489368,0.00545415391248228,0.005919958974374746,0.5627180812587311,0.6748555503407393,0,0,0,0,0,0,1500,1500,1500,1500,1500,1500
1748733139.7030632,-0.06,0.11,0.07,0.002181661564992912,-0.003272492347489368,0.00545415391248228,0.005919958974374746,0.5627180812587311,0.6748555503407393,0,0,0,0,0,0,1500,1500,1500,1500,1500,1500
1748733139.8016474,0.0,-0.31,-0.22,0.020725784867432664,-0.006544984694978736,-0.01090830782496456,0.005953628140149311,0.56256649734585,0.6747241813637902,0,0,0,0,0,0,1500,1500,1500,1500,1500,1500
1748733139.902383,0.0,-0.31,-0.22,0.020725784867432664,-0.006544984694978736,-0.01090830782496456,0.005953628140149311,0.56256649734585,0.6747241813637902,0,0,0,0,0,0,1500,1500,1500,1500,1500,1500
1748733140.000869,0.52,-0.22,0.07,0.018544123302439753,0.002181661564992912,-0.013089969389957472,0.005983046752805701,0.5627645573280589,0.6744443807759198,0,0,0,0,0,0,1500,1500,1500,1500,1500,1500
1748733140.0849543,0.04,0.44,-0.09,0.004363323129985824,0.009817477042468103,0.0,0.005797509772901733,0.5628818634901354,0.6747038748286647,0,0,0,0,0,0,1500,1500,1500,1500,1500,1500
1748733140.1844826,0.04,0.44,-0.09,0.004363323129985824,0.009817477042468103,0.0,0.005797509772901733,0.5628818634901354,0.6747038748286647,0,0,0,0,0,0,1500,1500,1500,1500,1500,1500
1748733140.2851472,0.19,0.63,0.03,0.0,0.001090830782496456,0.013089969389957472,0.006510039961770891,0.5630662620850951,0.6750583566551287,0,0,0,0,0,0,1500,1500,1500,1500,1500,1500
1748733140.368586,0.19,0.63,0.03,0.0,0.001090830782496456,0.013089969389957472,0.006510039961770891,0.5630662620850951,0.6750583566551287,0,0,0,0,0,0,1500,1500,1500,1500,1500,1500
1748733140.468253,0.04,0.04,0.09,0.001090830782496456,-0.001090830782496456,-0.008726646259971648,0.00656919086167896,0.5631591567113752,0.6750600591171988,0,0,0,0,0,0,1500,1500,1500,1500,1500,1500
1748733140.552348,0.04,0.04,0.09,0.001090830782496456,-0.001090830782496456,-0.008726646259971648,0.00656919086167896,0.5631591567113752,0.6750600591171988,0,0,0,0,0,0,1500,1500,1500,1500,1500,1500
1748733140.6514132,-0.11,0.03,0.01,0.003272492347489368,-0.00545415391248228,-0.008726646259971648,0.006607193538948922,0.56317201242456,0.6752194963647032,0,0,0,0,0,0,1500,1500,1500,1500,1500,1500
1748733140.7505136,0.13,-0.06,-0.09,-0.001090830782496456,-0.002181661564992912,-0.002181661564992912,0.006560885529992419,0.5630411251700295,0.6751820295097642,0,0,0,0,0,0,1500,1500,1500,1500,1500,1500
1748733140.8351815,0.13,-0.06,-0.09,-0.001090830782496456,-0.002181661564992912,-0.002181661564992912,0.006560885529992419,0.5630411251700295,0.6751820295097642,0,0,0,0,0,0,1500,1500,1500,1500,1500,1500
1748733140.9347095,-0.01,0.02,0.0,-0.002181661564992912,0.003272492347489368,0.001090830782496456,0.006560885529992419,0.5630411251700295,0.6751820295097642,0,0,0,0,0,0,1500,1500,1500,1500,1500,1500
1748733141.034373,-0.01,0.02,0.0,-0.002181661564992912,0.003272492347489368,0.001090830782496456,0.006560885529992419,0.5630411251700295,0.6751820295097642,0,0,0,0,0,0,1500,1500,1500,1500,1500,1500
1748733141.136108,0.06,-0.03,-0.02,0.002181661564992912,0.0,-0.001090830782496456,0.006560885529992419,0.5630411251700295,0.6751820295097642,0,0,0,0,0,0,1500,1500,1500,1500,1500,1500
1748733141.235756,0.03,-0.02,-0.01,0.001090830782496456,0.003272492347489368,-0.001090830782496456,0.006560885529992419,0.5630411251700295,0.6751820295097642,0,0,0,0,0,0,1500,1500,1500,1500,1500,1500
1748733141.3186264,0.03,-0.02,-0.01,0.001090830782496456,0.003272492347489368,-0.001090830782496456,0.006560885529992419,0.5630411251700295,0.6751820295097642,0,0,0,0,0,0,1500,1500,1500,1500,1500,1500
1748733141.4201744,0.01,0.01,-0.05,0.0,0.002181661564992912,-0.001090830782496456,0.006560885529992419,0.5630411251700295,0.6751820295097642,0,0,0,0,0,0,1500,1500,1500,1500,1500,1500
1748733141.5189543,0.01,0.01,-0.05,0.0,0.002181661564992912,-0.001090830782496456,0.006560885529992419,0.5630411251700295,0.6751820295097642,0,0,0,0,0,0,1500,1500,1500,1500,1500,1500
1748733141.6017861,0.02,0.02,-0.05,-0.001090830782496456,0.001090830782496456,0.001090830782496456,0.006560885529992419,0.5630411251700295,0.6751820295097642,0,0,0,0,0,0,1500,1500,1500,1500,1500,1500
1748733141.7013745,0.02,-0.02,-0.03,0.0,0.00545415391248228,0.003272492347489368,0.006560885529992419,0.5630411251700295,0.6751820295097642,0,0,0,0,0,0,1500,1500,1500,1500,1500,1500
1748733141.8021965,0.02,-0.02,-0.03,0.0,0.00545415391248228,0.003272492347489368,0.006560885529992419,0.5630411251700295,0.6751820295097642,0,0,0,0,0,0,1500,1500,1500,1500,1500,1500
1748733141.9019747,0.03,-0.02,-0.02,0.0,-0.002181661564992912,0.001090830782496456,0.006560885529992419,0.5630411251700295,0.6751820295097642,0,0,0,0,0,0,1500,1500,1500,1500,1500,1500
1748733142.0008392,0.0,-0.11,0.11,-0.004363323129985824,-0.002181661564992912,0.004363323129985824,0.006560885529992419,0.5630411251700295,0.6751820295097642,0,0,0,0,0,0,1500,1500,1500,1500,1500,1500
1748733142.0845346,0.0,-0.11,0.11,-0.004363323129985824,-0.002181661564992912,0.004363323129985824,0.006560885529992419,0.5630411251700295,0.6751820295097642,0,0,0,0,0,0,1500,1500,1500,1500,1500,1500
1748733142.1847804,0.12,0.07,-0.37,-0.00545415391248228,-0.001090830782496456,-0.004363323129985824,0.006417306689857638,0.5631249252491806,0.6751881299737017,0,0,0,0,0,0,1500,1500,1500,1500,1500,1500
1748733142.2860553,0.12,0.07,-0.37,-0.00545415391248228,-0.001090830782496456,-0.004363323129985824,0.006417306689857638,0.5631249252491806,0.6751881299737017,0,0,0,0,0,0,1500,1500,1500,1500,1500,1500
1748733142.3854296,0.05,0.1,-0.02,0.001090830782496456,-0.002181661564992912,0.002181661564992912,0.006417306689857638,0.5631249252491806,0.6751881299737017,0,0,0,0,0,0,1500,1500,1500,1500,1500,1500
1748733142.481921,-0.26,-0.22,0.08,-0.00545415391248228,0.004363323129985824,0.009817477042468103,0.006417306689857638,0.5631249252491806,0.6751881299737017,0,0,0,0,0,0,1500,1500,1500,1500,1500,1500
1748733142.5687358,-0.26,-0.22,0.08,-0.00545415391248228,0.004363323129985824,0.009817477042468103,0.006417306689857638,0.5631249252491806,0.6751881299737017,0,0,0,0,0,0,1500,1500,1500,1500,1500,1500
1748733142.6687899,0.12,-0.05,-0.05,-0.001090830782496456,0.0,0.002181661564992912,0.006417306689857638,0.5631249252491806,0.6751881299737017,0,0,0,0,0,0,1500,1500,1500,1500,1500,1500
1748733142.7692044,0.12,-0.05,-0.05,-0.001090830782496456,0.0,0.002181661564992912,0.006417306689857638,0.5631249252491806,0.6751881299737017,0,0,0,0,0,0,1500,1500,1500,1500,1500,1500
1748733142.851841,0.04,0.02,-0.02,-0.002181661564992912,0.00545415391248228,-0.002181661564992912,0.006417306689857638,0.5631249252491806,0.6751881299737017,0,0,0,0,0,0,1500,1500,1500,1500,1500,1500
1748733142.9513583,0.04,0.02,-0.02,-0.002181661564992912,0.00545415391248228,-0.002181661564992912,0.006417306689857638,0.5631249252491806,0.6751881299737017,0,0,0,0,0,0,1500,1500,1500,1500,1500,1500
1748733143.0509284,-0.21,-0.29,-0.17,0.0,0.003272492347489368,-0.008726646259971648,0.006417306689857638,0.5631249252491806,0.6751881299737017,0,0,0,0,0,0,1500,1500,1500,1500,1500,1500
1748733143.1516685,0.12,0.03,0.08,0.0,0.003272492347489368,-0.001090830782496456,0.00656919086167896,0.5631591567113752,0.6750600591171988,0,0,0,0,0,0,1500,1500,1500,1500,1500,1500
1748733143.251498,0.12,0.03,0.08,0.0,0.003272492347489368,-0.001090830782496456,0.00656919086167896,0.5631591567113752,0.6750600591171988,0,0,0,0,0,0,1500,1500,1500,1500,1500,1500
1748733143.33482,0.01,0.0,-0.07,-0.002181661564992912,0.003272492347489368,-0.001090830782496456,0.006737910488882216,0.5631262028580315,0.6752491601610031,0,0,0,0,0,0,1500,1500,1500,1500,1500,1500
1748733143.4358616,0.01,0.0,-0.07,-0.002181661564992912,0.003272492347489368,-0.001090830782496456,0.006737910488882216,0.5631262028580315,0.6752491601610031,0,0,0,0,0,0,1500,1500,1500,1500,1500,1500
1748733143.5347574,-0.06,0.01,-0.08,0.001090830782496456,0.002181661564992912,-0.004363323129985824,0.006784234291762224,0.563257097143439,0.6752866510663307,0,0,0,0,0,0,1500,1500,1500,1500,1500,1500
1748733143.619578,-0.36,0.01,-0.29,0.004363323129985824,0.0,-0.001090830782496456,0.006830565229632189,0.5633880022493634,0.6753241580414137,0,0,0,0,0,0,1500,1500,1500,1500,1500,1500
1748733143.7182946,-0.36,0.01,-0.29,0.004363323129985824,0.0,-0.001090830782496456,0.006830565229632189,0.5633880022493634,0.6753241580414137,0,0,0,0,0,0,1500,1500,1500,1500,1500,1500
1748733143.8182452,-0.03,0.27,-0.1,0.004363323129985824,0.001090830782496456,0.004363323129985824,0.006455438258675448,0.5628173510741701,0.6751428972889293,0,0,0,0,0,0,1500,1500,1500,1500,1500,1500
1748733143.9181137,-0.03,0.27,-0.1,0.004363323129985824,0.001090830782496456,0.004363323129985824,0.006455438258675448,0.5628173510741701,0.6751428972889293,0,0,0,0,0,0,1500,1500,1500,1500,1500,1500
1748733144.017422,0.1,-0.12,-0.02,0.006544984694978736,0.004363323129985824,-0.001090830782496456,0.006312078988621021,0.5625807223105216,0.6749444324765883,0,0,0,0,0,0,1500,1500,1500,1500,1500,1500
1748733144.1002593,-0.63,0.16,0.12,-0.00545415391248228,-0.007635815477475192,0.008726646259971648,0.00563810307207233,0.5620888680112691,0.6745453345184602,0,0,0,0,0,0,1500,1500,1500,1500,1500,1500
1748733144.2004292,-0.63,0.16,0.12,-0.00545415391248228,-0.007635815477475192,0.008726646259971648,0.00563810307207233,0.5620888680112691,0.6745453345184602,0,0,0,0,0,0,1500,1500,1500,1500,1500,1500
1748733144.3007658,0.27,-0.23,0.06,0.00545415391248228,0.001090830782496456,-0.004363323129985824,0.00563810307207233,0.5620888680112691,0.6745453345184602,0,0,0,0,0,0,1500,1500,1500,1500,1500,1500
1748733144.3993022,0.42,0.19,0.27,-0.00545415391248228,0.007635815477475192,0.011999138607461015,0.005767792764093292,0.5629869759886897,0.6744224293445837,0,0,0,0,0,0,1500,1500,1500,1500,1500,1500
1748733144.499939,0.42,0.19,0.27,-0.00545415391248228,0.007635815477475192,0.011999138607461015,0.005767792764093292,0.5629869759886897,0.6744224293445837,0,0,0,0,0,0,1500,1500,1500,1500,1500,1500
1748733144.583946,-0.12,0.31,-0.11,0.003272492347489368,0.002181661564992912,-0.002181661564992912,0.0059866603187707125,0.5630385700905833,0.6742360794074986,0,0,0,0,0,0,1500,1500,1500,1500,1500,1500
1748733144.6842868,-0.12,0.31,-0.11,0.003272492347489368,0.002181661564992912,-0.002181661564992912,0.0059866603187707125,0.5630385700905833,0.6742360794074986,0,0,0,0,0,0,1500,1500,1500,1500,1500,1500
1748733144.7846162,0.06,-0.01,-0.05,0.002181661564992912,-0.004363323129985824,-0.002181661564992912,0.005940456823363619,0.5629076674298243,0.6741987187396424,0,0,0,0,0,0,1500,1500,1500,1500,1500,1500
1748733144.8679483,0.06,-0.01,-0.05,0.002181661564992912,-0.004363323129985824,-0.002181661564992912,0.005940456823363619,0.5629076674298243,0.6741987187396424,0,0,0,0,0,0,1500,1500,1500,1500,1500,1500
1748733144.9674578,0.06,0.0,-0.01,-0.001090830782496456,-0.003272492347489368,0.001090830782496456,0.005940456823363619,0.5629076674298243,0.6741987187396424,0,0,0,0,0,0,1500,1500,1500,1500,1500,1500
1748733145.0685048,0.0,0.0,-0.04,0.0,-0.002181661564992912,0.0,0.005940456823363619,0.5629076674298243,0.6741987187396424,0,0,0,0,0,0,1500,1500,1500,1500,1500,1500
1748733145.1678772,0.0,0.0,-0.04,0.0,-0.002181661564992912,0.0,0.005940456823363619,0.5629076674298243,0.6741987187396424,0,0,0,0,0,0,1500,1500,1500,1500,1500,1500
1748733145.2686417,0.05,0.0,0.0,0.0,0.004363323129985824,-0.001090830782496456,0.005940456823363619,0.5629076674298243,0.6741987187396424,0,0,0,0,0,0,1500,1500,1500,1500,1500,1500
1748733145.352064,0.05,0.0,0.0,0.0,0.004363323129985824,-0.001090830782496456,0.005940456823363619,0.5629076674298243,0.6741987187396424,0,0,0,0,0,0,1500,1500,1500,1500,1500,1500
1748733145.4517245,0.01,0.03,-0.05,0.001090830782496456,0.001090830782496456,0.001090830782496456,0.005940456823363619,0.5629076674298243,0.6741987187396424,0,0,0,0,0,0,1500,1500,1500,1500,1500,1500
1748733145.5512292,0.02,-0.02,0.0,0.0,-0.003272492347489368,0.0,0.005940456823363619,0.5629076674298243,0.6741987187396424,0,0,0,0,0,0,1500,1500,1500,1500,1500,1500
1748733145.6512387,0.02,-0.02,0.0,0.0,-0.003272492347489368,0.0,0.005940456823363619,0.5629076674298243,0.6741987187396424,0,0,0,0,0,0,1500,1500,1500,1500,1500,1500
1748733145.7511404,0.04,-0.03,-0.01,0.0,-0.002181661564992912,0.003272492347489368,0.005940456823363619,0.5629076674298243,0.6741987187396424,0,0,0,0,0,0,1500,1500,1500,1500,1500,1500
1748733145.834307,0.04,-0.03,-0.01,0.0,-0.002181661564992912,0.003272492347489368,0.005940456823363619,0.5629076674298243,0.6741987187396424,0,0,0,0,0,0,1500,1500,1500,1500,1500,1500
1748733145.9345376,-0.07,-0.12,0.12,0.008726646259971648,0.011999138607461015,-0.001090830782496456,0.005932218595266215,0.5627896458104538,0.674320745305708,0,0,0,0,0,0,1500,1500,1500,1500,1500,1500
1748733146.034609,0.15,0.06,-0.06,0.0,-0.004363323129985824,0.00545415391248228,0.005898533530940433,0.562941207012514,0.6744520877629268,0,0,0,0,0,0,1500,1500,1500,1500,1500,1500
1748733146.1343958,0.15,0.06,-0.06,0.0,-0.004363323129985824,0.00545415391248228,0.005898533530940433,0.562941207012514,0.6744520877629268,0,0,0,0,0,0,1500,1500,1500,1500,1500,1500
1748733146.235588,0.06,-0.04,-0.03,0.0,-0.004363323129985824,-0.00545415391248228,0.005983046752805701,0.5627645573280589,0.6744443807759198,0,0,0,0,0,0,1500,1500,1500,1500,1500,1500
1748733146.3180332,0.01,-0.01,-0.05,-0.002181661564992912,0.0,0.0,0.005983046752805701,0.5627645573280589,0.6744443807759198,0,0,0,0,0,0,1500,1500,1500,1500,1500,1500
1748733146.419186,0.01,-0.01,-0.05,-0.002181661564992912,0.0,0.0,0.005983046752805701,0.5627645573280589,0.6744443807759198,0,0,0,0,0,0,1500,1500,1500,1500,1500,1500
1748733146.5187397,0.05,0.02,-0.06,0.001090830782496456,-0.002181661564992912,0.0,0.005983046752805701,0.5627645573280589,0.6744443807759198,0,0,0,0,0,0,1500,1500,1500,1500,1500,1500
1748733146.6008942,0.05,0.02,-0.06,0.001090830782496456,-0.002181661564992912,0.0,0.005983046752805701,0.5627645573280589,0.6744443807759198,0,0,0,0,0,0,1500,1500,1500,1500,1500,1500
1748733146.700673,0.24,0.06,-0.12,0.004363323129985824,0.006544984694978736,0.0,0.005983046752805701,0.5627645573280589,0.6744443807759198,0,0,0,0,0,0,1500,1500,1500,1500,1500,1500
1748733146.8005524,-0.05,0.19,-0.03,0.008726646259971648,-0.001090830782496456,-0.004363323129985824,0.00596191057290637,0.5626845023536216,0.6746021512657588,0,0,0,0,0,0,1500,1500,1500,1500,1500,1500
1748733146.9020038,-0.05,0.19,-0.03,0.008726646259971648,-0.001090830782496456,-0.004363323129985824,0.00596191057290637,0.5626845023536216,0.6746021512657588,0,0,0,0,0,0,1500,1500,1500,1500,1500,1500
1748733147.0019138,0.01,0.11,0.01,0.007635815477475192,-0.002181661564992912,-0.004363323129985824,0.006139172293557129,0.5624492497411561,0.6744647001390204,0,0,0,0,0,0,1500,1500,1500,1500,1500,1500
1748733147.0859358,0.01,0.11,0.01,0.007635815477475192,-0.002181661564992912,-0.004363323129985824,0.006139172293557129,0.5624492497411561,0.6744647001390204,0,0,0,0,0,0,1500,1500,1500,1500,1500,1500
1748733147.1840026,-0.12,0.11,0.25,-0.006544984694978736,0.004363323129985824,0.004363323129985824,0.006316100452125442,0.562534357322714,0.674531684514152,0,0,0,0,0,0,1500,1500,1500,1500,1500,1500
1748733147.2802367,-0.31,0.11,-0.47000000000000003,0.009817477042468103,0.003272492347489368,-0.003272492347489368,0.006316100452125442,0.562534357322714,0.674531684514152,0,0,0,0,0,0,1500,1500,1500,1500,1500,1500
1748733147.3687646,-0.31,0.11,-0.47000000000000003,0.009817477042468103,0.003272492347489368,-0.003272492347489368,0.006316100452125442,0.562534357322714,0.674531684514152,0,0,0,0,0,0,1500,1500,1500,1500,1500,1500
1748733147.4675648,-0.08,0.05,-0.14,0.018544123302439753,0.0,0.004363323129985824,0.006547584745913033,0.5628684022639762,0.6745141268193567,0,0,0,0,0,0,1500,1500,1500,1500,1500,1500
1748733147.567355,-0.08,0.05,-0.14,0.018544123302439753,0.0,0.004363323129985824,0.006547584745913033,0.5628684022639762,0.6745141268193567,0,0,0,0,0,0,1500,1500,1500,1500,1500,1500
1748733147.6668553,-0.1,0.08,-0.06,0.006544984694978736,-0.001090830782496456,-0.002181661564992912,0.00627358643171612,0.5626774994973966,0.6742860645528229,0,0,0,0,0,0,1500,1500,1500,1500,1500,1500
1748733147.7680275,0.02,0.05,-0.06,0.002181661564992912,0.001090830782496456,-0.002181661564992912,0.00627358643171612,0.5626774994973966,0.6742860645528229,0,0,0,0,0,0,1500,1500,1500,1500,1500,1500
1748733147.851192,0.02,0.05,-0.06,0.002181661564992912,0.001090830782496456,-0.002181661564992912,0.00627358643171612,0.5626774994973966,0.6742860645528229,0,0,0,0,0,0,1500,1500,1500,1500,1500,1500
1748733147.950137,0.0,0.04,-0.04,0.0,-0.002181661564992912,-0.002181661564992912,0.006404304797247112,0.562631757072831,0.6743157127248746,0,0,0,0,0,0,1500,1500,1500,1500,1500,1500
1748733148.0498161,0.0,0.04,-0.04,0.0,-0.002181661564992912,-0.002181661564992912,0.006404304797247112,0.562631757072831,0.6743157127248746,0,0,0,0,0,0,1500,1500,1500,1500,1500,1500
1748733148.135524,0.0,0.03,-0.05,0.001090830782496456,-0.002181661564992912,-0.001090830782496456,0.00627358643171612,0.5626774994973966,0.6742860645528229,0,0,0,0,0,0,1500,1500,1500,1500,1500,1500
1748733148.2343614,0.0,0.03,-0.05,0.001090830782496456,-0.002181661564992912,-0.001090830782496456,0.00627358643171612,0.5626774994973966,0.6742860645528229,0,0,0,0,0,0,1500,1500,1500,1500,1500,1500
1748733148.3347592,0.03,-0.02,-0.02,0.0,-0.001090830782496456,-0.001090830782496456,0.006404304797247112,0.562631757072831,0.6743157127248746,0,0,0,0,0,0,1500,1500,1500,1500,1500,1500
1748733148.435013,0.02,0.01,-0.03,0.0,-0.001090830782496456,0.0,0.006404304797247112,0.562631757072831,0.6743157127248746,0,0,0,0,0,0,1500,1500,1500,1500,1500,1500
1748733148.5357578,0.02,0.01,-0.03,0.0,-0.001090830782496456,0.0,0.006404304797247112,0.562631757072831,0.6743157127248746,0,0,0,0,0,0,1500,1500,1500,1500,1500,1500
1748733148.6365445,0.0,0.04,-0.05,-0.001090830782496456,0.004363323129985824,0.001090830782496456,0.006404304797247112,0.562631757072831,0.6743157127248746,0,0,0,0,0,0,1500,1500,1500,1500,1500,1500
1748733148.7347472,0.03,-0.03,-0.02,0.0,0.003272492347489368,0.0,0.006404304797247112,0.562631757072831,0.6743157127248746,0,0,0,0,0,0,1500,1500,1500,1500,1500,1500
1748733148.834795,0.03,-0.03,-0.02,0.0,0.003272492347489368,0.0,0.006404304797247112,0.562631757072831,0.6743157127248746,0,0,0,0,0,0,1500,1500,1500,1500,1500,1500
1748733148.9348989,0.02,0.0,-0.04,-0.001090830782496456,-0.002181661564992912,0.0,0.006404304797247112,0.562631757072831,0.6743157127248746,0,0,0,0,0,0,1500,1500,1500,1500,1500,1500
1748733149.0351093,0.02,0.0,-0.04,-0.001090830782496456,-0.002181661564992912,0.0,0.006404304797247112,0.562631757072831,0.6743157127248746,0,0,0,0,0,0,1500,1500,1500,1500,1500,1500
1748733149.118145,0.03,0.01,-0.05,0.001090830782496456,-0.004363323129985824,-0.001090830782496456,0.006404304797247112,0.562631757072831,0.6743157127248746,0,0,0,0,0,0,1500,1500,1500,1500,1500,1500
1748733149.218365,0.01,0.02,-0.04,0.0,0.002181661564992912,0.001090830782496456,0.006404304797247112,0.562631757072831,0.6743157127248746,0,0,0,0,0,0,1500,1500,1500,1500,1500,1500
1748733149.3175867,0.01,0.02,-0.04,0.0,0.002181661564992912,0.001090830782496456,0.006404304797247112,0.562631757072831,0.6743157127248746,0,0,0,0,0,0,1500,1500,1500,1500,1500,1500
1748733149.4180157,0.03,0.0,-0.03,0.002181661564992912,0.002181661564992912,0.001090830782496456,0.006404304797247112,0.562631757072831,0.6743157127248746,0,0,0,0,0,0,1500,1500,1500,1500,1500,1500
1748733149.51739,0.01,0.01,0.0,0.0,0.003272492347489368,0.001090830782496456,0.006404304797247112,0.562631757072831,0.6743157127248746,0,0,0,0,0,0,1500,1500,1500,1500,1500,1500
1748733149.6013277,0.01,0.01,0.0,0.0,0.003272492347489368,0.001090830782496456,0.006404304797247112,0.562631757072831,0.6743157127248746,0,0,0,0,0,0,1500,1500,1500,1500,1500,1500
1748733149.7005517,0.02,-0.03,-0.07,0.0,0.002181661564992912,0.0,0.006404304797247112,0.562631757072831,0.6743157127248746,0,0,0,0,0,0,1500,1500,1500,1500,1500,1500
1748733149.8012407,0.02,-0.03,-0.07,0.0,0.002181661564992912,0.0,0.006404304797247112,0.562631757072831,0.6743157127248746,0,0,0,0,0,0,1500,1500,1500,1500,1500,1500
1748733149.9004593,0.02,0.0,-0.06,-0.002181661564992912,-0.003272492347489368,-0.001090830782496456,0.006404304797247112,0.562631757072831,0.6743157127248746,0,0,0,0,0,0,1500,1500,1500,1500,1500,1500
1748733150.001201,-0.01,0.04,-0.03,0.0,0.001090830782496456,-0.001090830782496456,0.006404304797247112,0.562631757072831,0.6743157127248746,0,0,0,0,0,0,1500,1500,1500,1500,1500,1500
1748733150.0837696,-0.01,0.04,-0.03,0.0,0.001090830782496456,-0.001090830782496456,0.006404304797247112,0.562631757072831,0.6743157127248746,0,0,0,0,0,0,1500,1500,1500,1500,1500,1500
1748733150.1850252,-0.37,0.08,0.26,0.004363323129985824,0.001090830782496456,-0.006544984694978736,0.006404304797247112,0.562631757072831,0.6743157127248746,0,0,0,0,0,0,1500,1500,1500,1500,1500,1500
1748733150.2848408,-0.37,0.08,0.26,0.004363323129985824,0.001090830782496456,-0.006544984694978736,0.006404304797247112,0.562631757072831,0.6743157127248746,0,0,0,0,0,0,1500,1500,1500,1500,1500,1500
1748733150.3679104,0.07,0.42,0.13,0.004363323129985824,0.001090830782496456,-0.015271630954950384,0.006358081817281736,0.5625008791914666,0.6742783508084594,0,0,0,0,0,0,1500,1500,1500,1500,1500,1500
1748733150.4692755,0.07,0.42,0.13,0.004363323129985824,0.001090830782496456,-0.015271630954950384,0.006358081817281736,0.5625008791914666,0.6742783508084594,0,0,0,0,0,0,1500,1500,1500,1500,1500,1500
1748733150.5672865,0.19,0.42,0.56,-0.001090830782496456,0.004363323129985824,0.008726646259971648,0.006269364607524869,0.5625131570665197,0.6739954044151372,0,0,0,0,0,0,1500,1500,1500,1500,1500,1500
1748733150.6670277,-0.17,0.07,-0.15,0.011999138607461015,0.0,-0.004363323129985824,0.0067838806462539696,0.5622122179689215,0.6742359248031883,0,0,0,0,0,0,1500,1500,1500,1500,1500,1500
1748733150.7672899,-0.17,0.07,-0.15,0.011999138607461015,0.0,-0.004363323129985824,0.0067838806462539696,0.5622122179689215,0.6742359248031883,0,0,0,0,0,0,1500,1500,1500,1500,1500,1500
1748733150.8501468,0.02,0.0,0.15,-0.001090830782496456,-0.004363323129985824,0.009817477042468103,0.00722215569218889,0.5622059128699879,0.6743621960790463,0,0,0,0,0,0,1500,1500,1500,1500,1500,1500
1748733150.9511256,0.02,0.0,0.15,-0.001090830782496456,-0.004363323129985824,0.009817477042468103,0.00722215569218889,0.5622059128699879,0.6743621960790463,0,0,0,0,0,0,1500,1500,1500,1500,1500,1500
1748733151.0513935,0.45,0.16,-0.76,-0.002181661564992912,0.001090830782496456,0.00545415391248228,0.007083152771947246,0.5621335557272473,0.6744544844589437,0,0,0,0,0,0,1500,1500,1500,1500,1500,1500
1748733151.1516833,0.31,0.72,0.5,-0.002181661564992912,-0.003272492347489368,0.003272492347489368,0.007137745699208265,0.5623825003374492,0.6743699641845242,0,0,0,0,0,0,1500,1500,1500,1500,1500,1500
1748733151.2501447,0.31,0.72,0.5,-0.002181661564992912,-0.003272492347489368,0.003272492347489368,0.007137745699208265,0.5623825003374492,0.6743699641845242,0,0,0,0,0,0,1500,1500,1500,1500,1500,1500
1748733151.333897,0.33,0.14,-0.04,0.003272492347489368,-0.013089969389957472,-0.002181661564992912,0.0072561369391643035,0.5619446079176735,0.6747296075192152,0,0,0,0,0,0,1500,1500,1500,1500,1500,1500
1748733151.4291217,-0.12,-0.09,-0.3,0.018544123302439753,0.004363323129985824,0.00545415391248228,0.006931621356694916,0.5617789415768456,0.6743781049695758,0,0,0,0,0,0,1500,1500,1500,1500,1500,1500
1748733151.5352867,-0.12,-0.09,-0.3,0.018544123302439753,0.004363323129985824,0.00545415391248228,0.006931621356694916,0.5617789415768456,0.6743781049695758,0,0,0,0,0,0,1500,1500,1500,1500,1500,1500
1748733151.6336508,0.03,-0.05,-0.12,0.007635815477475192,0.00545415391248228,0.002181661564992912,0.007201268881458044,0.5618055815519166,0.6743153789238134,0,0,0,0,0,0,1500,1500,1500,1500,1500,1500
1748733151.7343233,0.03,-0.05,-0.12,0.007635815477475192,0.00545415391248228,0.002181661564992912,0.007201268881458044,0.5618055815519166,0.6743153789238134,0,0,0,0,0,0,1500,1500,1500,1500,1500,1500
1748733151.8338666,0.0,0.01,0.28,0.003272492347489368,-0.003272492347489368,0.001090830782496456,0.007247526138914413,0.5619364197189773,0.6743527490045109,0,0,0,0,0,0,1500,1500,1500,1500,1500,1500
1748733151.9340694,0.29,0.26,-0.27,0.00545415391248228,-0.004363323129985824,-0.015271630954950384,0.0074078919624204495,0.5614652731726866,0.6744591124099227,0,0,0,0,0,0,1500,1500,1500,1500,1500,1500
1748733152.0342307,0.29,0.26,-0.27,0.00545415391248228,-0.004363323129985824,-0.015271630954950384,0.0074078919624204495,0.5614652731726866,0.6744591124099227,0,0,0,0,0,0,1500,1500,1500,1500,1500,1500
1748733152.1165836,-0.53,0.09,-0.61,0.0,-0.004363323129985824,0.013089969389957472,0.0076100846703660305,0.5611710358817278,0.6750152719456668,0,0,0,0,0,0,1500,1500,1500,1500,1500,1500
1748733152.2180932,-0.53,0.09,-0.61,0.0,-0.004363323129985824,0.013089969389957472,0.0076100846703660305,0.5611710358817278,0.6750152719456668,0,0,0,0,0,0,1500,1500,1500,1500,1500,1500
1748733152.31786,0.31,-0.13,0.08,0.003272492347489368,-0.006544984694978736,-0.001090830782496456,0.007715348981948525,0.5608810059578856,0.6749117920220716,0,0,0,0,0,0,1500,1500,1500,1500,1500,1500
1748733152.4172645,-0.37,0.43,-0.26,0.0,-0.007635815477475192,0.002181661564992912,0.007887922794658461,0.5606921101514167,0.6751867175979444,0,0,0,0,0,0,1500,1500,1500,1500,1500,1500
1748733152.5172515,-0.37,0.43,-0.26,0.0,-0.007635815477475192,0.002181661564992912,0.007887922794658461,0.5606921101514167,0.6751867175979444,0,0,0,0,0,0,1500,1500,1500,1500,1500,1500
1748733152.601117,0.8200000000000001,1.11,-1.17,-0.008726646259971648,-0.011999138607461015,0.013089969389957472,0.008056267776733423,0.5606590666857205,0.6753754581098848,0,0,0,0,0,0,1500,1500,1500,1500,1500,1500
1748733152.7003794,0.8200000000000001,1.11,-1.17,-0.008726646259971648,-0.011999138607461015,0.013089969389957472,0.008056267776733423,0.5606590666857205,0.6753754581098848,0,0,0,0,0,0,1500,1500,1500,1500,1500,1500
1748733152.8007538,0.66,0.07,-0.06,-0.002181661564992912,0.003272492347489368,0.02945243112740431,0.008477051343357925,0.5604164522200977,0.6757450186726758,0,0,0,0,0,0,1500,1500,1500,1500,1500,1500
1748733152.8833692,-0.13,0.03,-0.51,0.019634954084936207,-0.031634092692397225,-0.017453292519943295,0.008203367128622381,0.5602258876590852,0.6755172523812466,0,0,0,0,0,0,1500,1500,1500,1500,1500,1500
1748733152.9838681,-0.13,0.03,-0.51,0.019634954084936207,-0.031634092692397225,-0.017453292519943295,0.008203367128622381,0.5602258876590852,0.6755172523812466,0,0,0,0,0,0,1500,1500,1500,1500,1500,1500
1748733153.0851345,0.75,0.36,0.1,-0.001090830782496456,0.004363323129985824,0.022907446432425576,0.008548459815612535,0.5599579958893179,0.6755683084314533,0,0,0,0,0,0,1500,1500,1500,1500,1500,1500
1748733153.1839018,0.08,-0.06,-0.04,-0.002181661564992912,0.0,0.006544984694978736,0.00844309821135491,0.5597343738715854,0.6755292898805834,0,0,0,0,0,0,1500,1500,1500,1500,1500,1500
1748733153.2840374,0.08,-0.06,-0.04,-0.002181661564992912,0.0,0.006544984694978736,0.00844309821135491,0.5597343738715854,0.6755292898805834,0,0,0,0,0,0,1500,1500,1500,1500,1500,1500
1748733153.3676097,-0.32,-0.2,-0.36,0.001090830782496456,0.009817477042468103,0.008726646259971648,0.008417986102818605,0.5600037230306409,0.6755388413524829,0,0,0,0,0,0,1500,1500,1500,1500,1500,1500
1748733153.467175,-0.32,-0.2,-0.36,0.001090830782496456,0.009817477042468103,0.008726646259971648,0.008417986102818605,0.5600037230306409,0.6755388413524829,0,0,0,0,0,0,1500,1500,1500,1500,1500,1500
1748733153.567208,-0.17,0.78,-0.11,-0.009817477042468103,0.014180800172453928,0.016362461737446838,0.0083589831770571,0.5599107839912658,0.6755371749850588,0,0,0,0,0,0,1500,1500,1500,1500,1500,1500
1748733153.6619012,0.44,-0.02,-0.56,-0.00545415391248228,-0.01090830782496456,0.01090830782496456,0.008405362882073449,0.5597217393539697,0.6753701353438198,0,0,0,0,0,0,1500,1500,1500,1500,1500,1500
1748733153.767008,0.44,-0.02,-0.56,-0.00545415391248228,-0.01090830782496456,0.01090830782496456,0.008405362882073449,0.5597217393539697,0.6753701353438198,0,0,0,0,0,0,1500,1500,1500,1500,1500,1500
1748733153.8506258,-0.39,0.11,0.0,-0.006544984694978736,0.008726646259971648,0.017453292519943295,0.009019933494726191,0.5598002561049599,0.6755626798504271,0,0,0,0,0,0,1500,1500,1500,1500,1500,1500
1748733153.9507353,-0.39,0.11,0.0,-0.006544984694978736,0.008726646259971648,0.017453292519943295,0.009019933494726191,0.5598002561049599,0.6755626798504271,0,0,0,0,0,0,1500,1500,1500,1500,1500,1500
1748733154.0513031,-0.66,-0.18,-0.66,0.002181661564992912,0.018544123302439753,-0.002181661564992912,0.009019933494726191,0.5598002561049599,0.6755626798504271,0,0,0,0,0,0,1500,1500,1500,1500,1500,1500
1748733154.1501381,-0.07,0.45,0.49,-0.004363323129985824,-0.011999138607461015,0.001090830782496456,0.009053654967000033,0.5596490202857332,0.6754312844185077,0,0,0,0,0,0,1500,1500,1500,1500,1500,1500
1748733154.2509773,-0.07,0.45,0.49,-0.004363323129985824,-0.011999138607461015,0.001090830782496456,0.009053654967000033,0.5596490202857332,0.6754312844185077,0,0,0,0,0,0,1500,1500,1500,1500,1500,1500
1748733154.3338428,0.4,0.0,-0.02,0.007635815477475192,-0.004363323129985824,-0.00545415391248228,0.009293569124183144,0.5599907434242125,0.6757904648569976,0,0,0,0,0,0,1500,1500,1500,1500,1500,1500
1748733154.433659,0.4,0.0,-0.02,0.007635815477475192,-0.004363323129985824,-0.00545415391248228,0.009293569124183144,0.5599907434242125,0.6757904648569976,0,0,0,0,0,0,1500,1500,1500,1500,1500,1500
1748733154.5335617,0.23,-0.15,-0.02,0.007635815477475192,-0.008726646259971648,-0.011999138607461015,0.009121354120684556,0.5601797583819048,0.6755157342363424,0,0,0,0,0,0,1500,1500,1500,1500,1500,1500
1748733154.6171842,0.23,-0.15,-0.02,0.007635815477475192,-0.008726646259971648,-0.011999138607461015,0.009121354120684556,0.5601797583819048,0.6755157342363424,0,0,0,0,0,0,1500,1500,1500,1500,1500,1500
1748733154.719434,0.0,0.01,-0.03,0.002181661564992912,-0.001090830782496456,-0.001090830782496456,0.008990870376356428,0.5602254742926195,0.6754862424309972,0,0,0,0,0,0,1500,1500,1500,1500,1500,1500
1748733154.8175623,-0.01,0.01,-0.07,0.001090830782496456,-0.002181661564992912,-0.001090830782496456,0.00899946578359845,0.5603435871267286,0.6753644798379185,0,0,0,0,0,0,1500,1500,1500,1500,1500,1500
1748733154.9179397,-0.01,0.01,-0.07,0.001090830782496456,-0.002181661564992912,-0.001090830782496456,0.00899946578359845,0.5603435871267286,0.6753644798379185,0,0,0,0,0,0,1500,1500,1500,1500,1500,1500
1748733155.0180557,0.0,0.0,-0.07,0.0,-0.003272492347489368,0.0,0.008881587205291122,0.5603514944642457,0.6752992960146387,0,0,0,0,0,0,1500,1500,1500,1500,1500,1500
1748733155.1040647,0.0,0.0,-0.07,0.0,-0.003272492347489368,0.0,0.008881587205291122,0.5603514944642457,0.6752992960146387,0,0,0,0,0,0,1500,1500,1500,1500,1500,1500
1748733155.20069,0.01,-0.01,-0.03,0.0,-0.001090830782496456,-0.003272492347489368,0.008881587205291122,0.5603514944642457,0.6752992960146387,0,0,0,0,0,0,1500,1500,1500,1500,1500,1500
1748733155.3018188,-0.02,-0.03,-0.01,-0.003272492347489368,-0.001090830782496456,-0.001090830782496456,0.008751089509609225,0.5603972065046999,0.6752697877132857,0,0,0,0,0,0,1500,1500,1500,1500,1500,1500
1748733155.401759,-0.02,-0.03,-0.01,-0.003272492347489368,-0.001090830782496456,-0.001090830782496456,0.008751089509609225,0.5603972065046999,0.6752697877132857,0,0,0,0,0,0,1500,1500,1500,1500,1500,1500
1748733155.502349,-0.01,0.0,-0.06,-0.001090830782496456,0.003272492347489368,0.003272492347489368,0.008797466151892901,0.5605279376877033,0.6753072021032106,0,0,0,0,0,0,1500,1500,1500,1500,1500,1500
1748733155.58383,0.01,0.01,-0.09,-0.001090830782496456,-0.003272492347489368,-0.001090830782496456,0.008797466151892901,0.5605279376877033,0.6753072021032106,0,0,0,0,0,0,1500,1500,1500,1500,1500,1500
1748733155.6848865,0.01,0.01,-0.09,-0.001090830782496456,-0.003272492347489368,-0.001090830782496456,0.008797466151892901,0.5605279376877033,0.6753072021032106,0,0,0,0,0,0,1500,1500,1500,1500,1500,1500
1748733155.7838047,0.0,0.01,-0.06,0.002181661564992912,0.001090830782496456,0.001090830782496456,0.008797466151892901,0.5605279376877033,0.6753072021032106,0,0,0,0,0,0,1500,1500,1500,1500,1500,1500
1748733155.8663578,0.0,0.01,-0.06,0.002181661564992912,0.001090830782496456,0.001090830782496456,0.008797466151892901,0.5605279376877033,0.6753072021032106,0,0,0,0,0,0,1500,1500,1500,1500,1500,1500
1748733155.9671602,0.0,-0.05,-0.01,0.002181661564992912,-0.002181661564992912,0.001090830782496456,0.008797466151892901,0.5605279376877033,0.6753072021032106,0,0,0,0,0,0,1500,1500,1500,1500,1500,1500
1748733156.0624263,0.02,-0.04,-0.05,0.002181661564992912,0.003272492347489368,0.002181661564992912,0.008797466151892901,0.5605279376877033,0.6753072021032106,0,0,0,0,0,0,1500,1500,1500,1500,1500,1500
1748733156.1512635,0.02,-0.04,-0.05,0.002181661564992912,0.003272492347489368,0.002181661564992912,0.008797466151892901,0.5605279376877033,0.6753072021032106,0,0,0,0,0,0,1500,1500,1500,1500,1500,1500
1748733156.25133,0.0,0.0,-0.06,-0.004363323129985824,0.001090830782496456,0.0,0.008797466151892901,0.5605279376877033,0.6753072021032106,0,0,0,0,0,0,1500,1500,1500,1500,1500,1500
1748733156.3339932,0.0,0.0,-0.06,-0.004363323129985824,0.001090830782496456,0.0,0.008797466151892901,0.5605279376877033,0.6753072021032106,0,0,0,0,0,0,1500,1500,1500,1500,1500,1500
1748733156.4338229,0.0,0.02,-0.05,0.001090830782496456,-0.001090830782496456,0.002181661564992912,0.008797466151892901,0.5605279376877033,0.6753072021032106,0,0,0,0,0,0,1500,1500,1500,1500,1500,1500
1748733156.532373,0.0,0.02,-0.05,0.001090830782496456,-0.001090830782496456,0.002181661564992912,0.008797466151892901,0.5605279376877033,0.6753072021032106,0,0,0,0,0,0,1500,1500,1500,1500,1500,1500
1748733156.618818,0.0,0.01,-0.03,0.003272492347489368,-0.002181661564992912,-0.001090830782496456,0.008797466151892901,0.5605279376877033,0.6753072021032106,0,0,0,0,0,0,1500,1500,1500,1500,1500,1500
1748733156.7177079,0.01,-0.04,-0.02,0.002181661564992912,0.002181661564992912,0.0,0.008797466151892901,0.5605279376877033,0.6753072021032106,0,0,0,0,0,0,1500,1500,1500,1500,1500,1500
1748733156.8023708,0.01,-0.04,-0.02,0.002181661564992912,0.002181661564992912,0.0,0.008797466151892901,0.5605279376877033,0.6753072021032106,0,0,0,0,0,0,1500,1500,1500,1500,1500,1500
1748733156.900791,0.0,-0.04,-0.04,0.001090830782496456,0.001090830782496456,-0.001090830782496456,0.008797466151892901,0.5605279376877033,0.6753072021032106,0,0,0,0,0,0,1500,1500,1500,1500,1500,1500
1748733157.0019536,0.0,-0.04,-0.04,0.001090830782496456,0.001090830782496456,-0.001090830782496456,0.008797466151892901,0.5605279376877033,0.6753072021032106,0,0,0,0,0,0,1500,1500,1500,1500,1500,1500
1748733157.0837526,-0.01,0.0,-0.07,0.001090830782496456,-0.001090830782496456,0.002181661564992912,0.008797466151892901,0.5605279376877033,0.6753072021032106,0,0,0,0,0,0,1500,1500,1500,1500,1500,1500
1748733157.1836562,-0.01,0.0,-0.07,0.001090830782496456,-0.001090830782496456,0.002181661564992912,0.008797466151892901,0.5605279376877033,0.6753072021032106,0,0,0,0,0,0,1500,1500,1500,1500,1500,1500
1748733157.2837949,0.0,0.01,-0.07,0.001090830782496456,0.001090830782496456,0.0,0.008797466151892901,0.5605279376877033,0.6753072021032106,0,0,0,0,0,0,1500,1500,1500,1500,1500,1500
1748733157.3666716,0.0,-0.04,-0.04,0.0,-0.001090830782496456,-0.002181661564992912,0.008797466151892901,0.5605279376877033,0.6753072021032106,0,0,0,0,0,0,1500,1500,1500,1500,1500,1500
1748733157.4664562,0.0,-0.04,-0.04,0.0,-0.001090830782496456,-0.002181661564992912,0.008797466151892901,0.5605279376877033,0.6753072021032106,0,0,0,0,0,0,1500,1500,1500,1500,1500,1500
1748733157.5649805,0.0,-0.07,-0.04,-0.003272492347489368,0.0,0.002181661564992912,0.008797466151892901,0.5605279376877033,0.6753072021032106,0,0,0,0,0,0,1500,1500,1500,1500,1500,1500
1748733157.6515694,0.0,-0.07,-0.04,-0.003272492347489368,0.0,0.002181661564992912,0.008797466151892901,0.5605279376877033,0.6753072021032106,0,0,0,0,0,0,1500,1500,1500,1500,1500,1500
1748733157.7502127,0.0,-0.02,-0.03,-0.003272492347489368,0.002181661564992912,0.0,0.008797466151892901,0.5605279376877033,0.6753072021032106,0,0,0,0,0,0,1500,1500,1500,1500,1500,1500
1748733157.8349345,0.0,0.02,-0.03,0.0,0.0,0.0,0.008797466151892901,0.5605279376877033,0.6753072021032106,0,0,0,0,0,0,1500,1500,1500,1500,1500,1500
1748733157.933574,0.0,0.02,-0.03,0.0,0.0,0.0,0.008797466151892901,0.5605279376877033,0.6753072021032106,0,0,0,0,0,0,1500,1500,1500,1500,1500,1500
1748733158.0335934,0.01,-0.04,-0.04,0.001090830782496456,-0.001090830782496456,0.001090830782496456,0.008797466151892901,0.5605279376877033,0.6753072021032106,0,0,0,0,0,0,1500,1500,1500,1500,1500,1500
1748733158.116964,0.01,-0.04,-0.04,0.001090830782496456,-0.001090830782496456,0.001090830782496456,0.008797466151892901,0.5605279376877033,0.6753072021032106,0,0,0,0,0,0,1500,1500,1500,1500,1500,1500
1748733158.216424,0.0,-0.03,-0.03,0.0,0.00545415391248228,0.001090830782496456,0.008797466151892901,0.5605279376877033,0.6753072021032106,0,0,0,0,0,0,1500,1500,1500,1500,1500,1500
1748733158.312308,0.02,0.0,-0.06,-0.003272492347489368,0.002181661564992912,0.001090830782496456,0.008797466151892901,0.5605279376877033,0.6753072021032106,0,0,0,0,0,0,1500,1500,1500,1500,1500,1500
1748733158.4007735,0.02,0.0,-0.06,-0.003272492347489368,0.002181661564992912,0.001090830782496456,0.008797466151892901,0.5605279376877033,0.6753072021032106,0,0,0,0,0,0,1500,1500,1500,1500,1500,1500
1748733158.5011055,0.0,0.02,-0.05,0.0,0.002181661564992912,-0.001090830782496456,0.008797466151892901,0.5605279376877033,0.6753072021032106,0,0,0,0,0,0,1500,1500,1500,1500,1500,1500
1748733158.5836158,0.0,0.02,-0.05,0.0,0.002181661564992912,-0.001090830782496456,0.008797466151892901,0.5605279376877033,0.6753072021032106,0,0,0,0,0,0,1500,1500,1500,1500,1500,1500
1748733158.6836638,0.0,0.0,-0.06,0.002181661564992912,0.0,-0.001090830782496456,0.008797466151892901,0.5605279376877033,0.6753072021032106,0,0,0,0,0,0,1500,1500,1500,1500,1500,1500
1748733158.7837186,0.0,0.0,-0.06,0.002181661564992912,0.0,-0.001090830782496456,0.008797466151892901,0.5605279376877033,0.6753072021032106,0,0,0,0,0,0,1500,1500,1500,1500,1500,1500
1748733158.8672988,0.0,-0.01,-0.04,-0.003272492347489368,-0.002181661564992912,0.0,0.008797466151892901,0.5605279376877033,0.6753072021032106,0,0,0,0,0,0,1500,1500,1500,1500,1500,1500
1748733158.9672973,-0.01,0.0,-0.07,0.002181661564992912,0.003272492347489368,-0.002181661564992912,0.008797466151892901,0.5605279376877033,0.6753072021032106,0,0,0,0,0,0,1500,1500,1500,1500,1500,1500
1748733159.0677896,-0.01,0.0,-0.07,0.002181661564992912,0.003272492347489368,-0.002181661564992912,0.008797466151892901,0.5605279376877033,0.6753072021032106,0,0,0,0,0,0,1500,1500,1500,1500,1500,1500
1748733159.1663556,0.01,0.0,-0.07,-0.001090830782496456,0.002181661564992912,0.0,0.008797466151892901,0.5605279376877033,0.6753072021032106,0,0,0,0,0,0,1500,1500,1500,1500,1500,1500
1748733159.266648,0.01,0.0,-0.07,-0.001090830782496456,0.002181661564992912,0.0,0.008797466151892901,0.5605279376877033,0.6753072021032106,0,0,0,0,0,0,1500,1500,1500,1500,1500,1500
1748733159.3513165,0.0,0.0,-0.04,-0.00545415391248228,-0.003272492347489368,-0.001090830782496456,0.008797466151892901,0.5605279376877033,0.6753072021032106,0,0,0,0,0,0,1500,1500,1500,1500,1500,1500
1748733159.4513907,0.01,-0.02,-0.04,-0.001090830782496456,0.004363323129985824,-0.002181661564992912,0.008797466151892901,0.5605279376877033,0.6753072021032106,0,0,0,0,0,0,1500,1500,1500,1500,1500,1500
1748733159.5517423,0.01,-0.02,-0.04,-0.001090830782496456,0.004363323129985824,-0.002181661564992912,0.008797466151892901,0.5605279376877033,0.6753072021032106,0,0,0,0,0,0,1500,1500,1500,1500,1500,1500
1748733159.650224,0.0,-0.03,-0.06,0.0,0.004363323129985824,0.001090830782496456,0.008797466151892901,0.5605279376877033,0.6753072021032106,0,0,0,0,0,0,1500,1500,1500,1500,1500,1500
1748733159.7518723,0.0,-0.03,-0.06,0.0,0.004363323129985824,0.001090830782496456,0.008797466151892901,0.5605279376877033,0.6753072021032106,0,0,0,0,0,0,1500,1500,1500,1500,1500,1500
1748733159.834972,0.0,0.01,-0.05,0.001090830782496456,0.0,0.004363323129985824,0.008797466151892901,0.5605279376877033,0.6753072021032106,0,0,0,0,0,0,1500,1500,1500,1500,1500,1500
1748733159.9339638,0.0,-0.01,-0.08,0.002181661564992912,0.002181661564992912,-0.001090830782496456,0.008797466151892901,0.5605279376877033,0.6753072021032106,0,0,0,0,0,0,1500,1500,1500,1500,1500,1500
1748733160.033683,0.0,-0.01,-0.08,0.002181661564992912,0.002181661564992912,-0.001090830782496456,0.008797466151892901,0.5605279376877033,0.6753072021032106,0,0,0,0,0,0,1500,1500,1500,1500,1500,1500
1748733160.1174204,0.01,-0.03,0.0,0.002181661564992912,-0.002181661564992912,-0.001090830782496456,0.008797466151892901,0.5605279376877033,0.6753072021032106,0,0,0,0,0,0,1500,1500,1500,1500,1500,1500
1748733160.2178159,0.01,-0.03,0.0,0.002181661564992912,-0.002181661564992912,-0.001090830782496456,0.008797466151892901,0.5605279376877033,0.6753072021032106,0,0,0,0,0,0,1500,1500,1500,1500,1500,1500
1748733160.3176715,0.02,-0.03,-0.01,0.0,0.0,0.001090830782496456,0.008797466151892901,0.5605279376877033,0.6753072021032106,0,0,0,0,0,0,1500,1500,1500,1500,1500,1500
1748733160.4171643,0.0,0.0,-0.09,0.001090830782496456,0.003272492347489368,0.0,0.008797466151892901,0.5605279376877033,0.6753072021032106,0,0,0,0,0,0,1500,1500,1500,1500,1500,1500
1748733160.5170648,0.0,0.0,-0.09,0.001090830782496456,0.003272492347489368,0.0,0.008797466151892901,0.5605279376877033,0.6753072021032106,0,0,0,0,0,0,1500,1500,1500,1500,1500,1500
1748733160.6012094,0.0,0.02,-0.06,0.0,-0.001090830782496456,-0.001090830782496456,0.008797466151892901,0.5605279376877033,0.6753072021032106,0,0,0,0,0,0,1500,1500,1500,1500,1500,1500
1748733160.7020497,0.0,0.02,-0.06,0.0,-0.001090830782496456,-0.001090830782496456,0.008797466151892901,0.5605279376877033,0.6753072021032106,0,0,0,0,0,0,1500,1500,1500,1500,1500,1500
1748733160.8011563,0.0,0.0,-0.02,-0.001090830782496456,0.002181661564992912,0.001090830782496456,0.008797466151892901,0.5605279376877033,0.6753072021032106,0,0,0,0,0,0,1500,1500,1500,1500,1500,1500
1748733160.901806,-0.01,-0.04,-0.01,0.002181661564992912,-0.001090830782496456,0.0,0.008797466151892901,0.5605279376877033,0.6753072021032106,0,0,0,0,0,0,1500,1500,1500,1500,1500,1500
1748733161.0021987,-0.01,-0.04,-0.01,0.002181661564992912,-0.001090830782496456,0.0,0.008797466151892901,0.5605279376877033,0.6753072021032106,0,0,0,0,0,0,1500,1500,1500,1500,1500,1500
1748733161.0837853,0.0,0.0,-0.04,-0.001090830782496456,-0.001090830782496456,0.001090830782496456,0.008797466151892901,0.5605279376877033,0.6753072021032106,0,0,0,0,0,0,1500,1500,1500,1500,1500,1500
1748733161.1838715,0.0,0.0,-0.04,-0.001090830782496456,-0.001090830782496456,0.001090830782496456,0.008797466151892901,0.5605279376877033,0.6753072021032106,0,0,0,0,0,0,1500,1500,1500,1500,1500,1500
1748733161.2837903,0.0,0.02,-0.07,0.002181661564992912,-0.001090830782496456,0.001090830782496456,0.008797466151892901,0.5605279376877033,0.6753072021032106,0,0,0,0,0,0,1500,1500,1500,1500,1500,1500
1748733161.3667588,0.0,0.01,-0.05,0.003272492347489368,0.003272492347489368,-0.003272492347489368,0.008797466151892901,0.5605279376877033,0.6753072021032106,0,0,0,0,0,0,1500,1500,1500,1500,1500,1500
1748733161.467065,0.0,0.01,-0.05,0.003272492347489368,0.003272492347489368,-0.003272492347489368,0.008797466151892901,0.5605279376877033,0.6753072021032106,0,0,0,0,0,0,1500,1500,1500,1500,1500,1500
1748733161.568933,0.0,-0.02,-0.04,-0.003272492347489368,0.0,-0.001090830782496456,0.008797466151892901,0.5605279376877033,0.6753072021032106,0,0,0,0,0,0,1500,1500,1500,1500,1500,1500
1748733161.6684144,0.0,-0.02,-0.04,-0.003272492347489368,0.0,-0.001090830782496456,0.008797466151892901,0.5605279376877033,0.6753072021032106,0,0,0,0,0,0,1500,1500,1500,1500,1500,1500
1748733161.7675173,0.0,-0.06,-0.06,-0.001090830782496456,-0.001090830782496456,-0.002181661564992912,0.008797466151892901,0.5605279376877033,0.6753072021032106,0,0,0,0,0,0,1500,1500,1500,1500,1500,1500
1748733161.850649,0.0,0.0,-0.05,-0.002181661564992912,0.0,-0.002181661564992912,0.008797466151892901,0.5605279376877033,0.6753072021032106,0,0,0,0,0,0,1500,1500,1500,1500,1500,1500
1748733161.9511878,0.0,0.0,-0.05,-0.002181661564992912,0.0,-0.002181661564992912,0.008797466151892901,0.5605279376877033,0.6753072021032106,0,0,0,0,0,0,1500,1500,1500,1500,1500,1500
1748733162.0501068,0.02,-0.03,-0.07,0.003272492347489368,0.004363323129985824,-0.003272492347489368,0.008797466151892901,0.5605279376877033,0.6753072021032106,0,0,0,0,0,0,1500,1500,1500,1500,1500,1500
1748733162.1338234,0.02,-0.03,-0.07,0.003272492347489368,0.004363323129985824,-0.003272492347489368,0.008797466151892901,0.5605279376877033,0.6753072021032106,0,0,0,0,0,0,1500,1500,1500,1500,1500,1500
