time,ay,ax,az,gy,gx,gz,roll,pitch,yaw,cmd_fx,cmd_fy,cmd_fz,cmd_tx,cmd_ty,cmd_tz,pwm_1,pwm_2,pwm_3,pwm_4,pwm_5,pwm_6
1747554433.2503104,0.0,0.0,0.0,0.0,0.0,0.0,0.0,0.0,0.0,0,0,0,0,0,0,1500,1500,1500,1500,1500,1500
1747554433.3379703,-0.13,0.09,0.07,0.013089969389957472,0.039269908169872414,-0.019634954084936207,2.256368940880975,-0.13673553080915565,1.4584603741166604,0,0,0,0,0,0,1500,1500,1500,1500,1500,1500
1747554433.4384882,-0.13,0.09,0.07,0.013089969389957472,0.039269908169872414,-0.019634954084936207,2.256368940880975,-0.13673553080915565,1.4584603741166604,0,0,0,0,0,0,1500,1500,1500,1500,1500,1500
1747554433.538252,-0.08,0.11,0.1,0.009817477042468103,0.04145156973486533,-0.022907446432425576,2.255144930179902,-0.13731361584229806,1.466049131999122,0,0,0,0,0,0,1500,1500,1500,1500,1500,1500
1747554433.6211255,-0.08,0.11,0.1,0.009817477042468103,0.04145156973486533,-0.022907446432425576,2.255144930179902,-0.13731361584229806,1.466049131999122,0,0,0,0,0,0,1500,1500,1500,1500,1500,1500
1747554433.7197125,-0.09,0.05,0.08,0.00545415391248228,0.04145156973486533,-0.017453292519943295,2.252873474388514,-0.1381610239075968,1.4729259138179784,0,0,0,0,0,0,1500,1500,1500,1500,1500,1500
1747554433.8210657,-0.08,0.06,0.08,0.003272492347489368,0.039269908169872414,-0.018544123302439753,2.2519336930785543,-0.13989348972389026,1.4792747869370948,0,0,0,0,0,0,1500,1500,1500,1500,1500,1500
1747554433.9203703,-0.08,0.06,0.08,0.003272492347489368,0.039269908169872414,-0.018544123302439753,2.2519336930785543,-0.13989348972389026,1.4792747869370948,0,0,0,0,0,0,1500,1500,1500,1500,1500,1500
1747554434.020082,-0.1,0.06,0.12,0.0,0.039269908169872414,-0.017453292519943295,2.2509595944435996,-0.14162895215541965,1.4860206718634739,0,0,0,0,0,0,1500,1500,1500,1500,1500,1500
1747554434.1042497,-0.1,0.06,0.12,0.0,0.039269908169872414,-0.017453292519943295,2.2509595944435996,-0.14162895215541965,1.4860206718634739,0,0,0,0,0,0,1500,1500,1500,1500,1500,1500
1747554434.204251,-0.12,0.06,0.01,-0.007635815477475192,0.03381575425739013,-0.014180800172453928,2.2501920265672397,-0.1434133986728548,1.4918110074436584,0,0,0,0,0,0,1500,1500,1500,1500,1500,1500
1747554434.3042145,-0.1,0.11,0.12,-0.002181661564992912,0.030543261909900768,-0.011999138607461015,2.249254324531925,-0.14526282089026807,1.4973198843186553,0,0,0,0,0,0,1500,1500,1500,1500,1500,1500
1747554434.4043531,-0.1,0.11,0.12,-0.002181661564992912,0.030543261909900768,-0.011999138607461015,2.249254324531925,-0.14526282089026807,1.4973198843186553,0,0,0,0,0,0,1500,1500,1500,1500,1500,1500
1747554434.5048883,-0.17,0.06,0.12,-0.003272492347489368,0.038179077387375956,-0.016362461737446838,2.2484408405512784,-0.14697041409913825,1.5031550655464259,0,0,0,0,0,0,1500,1500,1500,1500,1500,1500
1747554434.5881555,-0.18,0.09,0.04,-0.003272492347489368,0.030543261909900768,-0.009817477042468103,2.2473830815473184,-0.1484335231581537,1.5082521262153983,0,0,0,0,0,0,1500,1500,1500,1500,1500,1500
1747554434.6864188,-0.18,0.09,0.04,-0.003272492347489368,0.030543261909900768,-0.009817477042468103,2.2473830815473184,-0.1484335231581537,1.5082521262153983,0,0,0,0,0,0,1500,1500,1500,1500,1500,1500
1747554434.7742045,-0.13,0.09,0.08,0.0,0.030543261909900768,-0.011999138607461015,2.2453498527285283,-0.14852005256176812,1.5131196917075744,0,0,0,0,0,0,1500,1500,1500,1500,1500,1500
1747554434.8694375,-0.13,0.09,0.08,0.0,0.030543261909900768,-0.011999138607461015,2.2453498527285283,-0.14852005256176812,1.5131196917075744,0,0,0,0,0,0,1500,1500,1500,1500,1500,1500
1747554434.969172,-0.17,0.05,0.01,-0.002181661564992912,0.0272707695624114,-0.008726646259971648,2.243740251324605,-0.1486646524307095,1.5178290303018858,0,0,0,0,0,0,1500,1500,1500,1500,1500,1500
1747554435.0696564,-0.17,0.05,0.01,-0.002181661564992912,0.0272707695624114,-0.008726646259971648,2.243740251324605,-0.1486646524307095,1.5178290303018858,0,0,0,0,0,0,1500,1500,1500,1500,1500,1500
1747554435.1693442,-0.18,0.08,0.05,0.001090830782496456,0.022907446432425576,-0.006544984694978736,2.242155167377043,-0.14921615560351797,1.5216618751547228,0,0,0,0,0,0,1500,1500,1500,1500,1500,1500
1747554435.2724302,-0.17,0.05,0.1,0.0,0.0272707695624114,-0.00545415391248228,2.2406555125169008,-0.14967546255384892,1.5250356369711586,0,0,0,0,0,0,1500,1500,1500,1500,1500,1500
1747554435.3724544,-0.17,0.05,0.1,0.0,0.0272707695624114,-0.00545415391248228,2.2406555125169008,-0.14967546255384892,1.5250356369711586,0,0,0,0,0,0,1500,1500,1500,1500,1500,1500
1747554435.472222,-0.15,0.09,0.07,0.0,0.025089107997418487,-0.004363323129985824,2.2390243265782632,-0.15024648363108167,1.528353447705886,0,0,0,0,0,0,1500,1500,1500,1500,1500,1500
1747554435.556245,-0.17,0.05,0.05,-0.002181661564992912,0.016362461737446838,-0.003272492347489368,2.2376496728391944,-0.15050410389462124,1.5314246785242072,0,0,0,0,0,0,1500,1500,1500,1500,1500,1500
1747554435.6542172,-0.17,0.05,0.05,-0.002181661564992912,0.016362461737446838,-0.003272492347489368,2.2376496728391944,-0.15050410389462124,1.5314246785242072,0,0,0,0,0,0,1500,1500,1500,1500,1500,1500
1747554435.7540956,-0.19,0.05,0.03,0.003272492347489368,0.019634954084936207,0.0,2.2364352472545446,-0.15058701293304663,1.534089363390031,0,0,0,0,0,0,1500,1500,1500,1500,1500,1500
1747554435.8373098,-0.19,0.05,0.03,0.003272492347489368,0.019634954084936207,0.0,2.2364352472545446,-0.15058701293304663,1.534089363390031,0,0,0,0,0,0,1500,1500,1500,1500,1500,1500
1747554435.9369326,-0.19,0.09,0.02,0.002181661564992912,0.018544123302439753,0.0,2.2352676125678514,-0.15071682698029884,1.5369970104039246,0,0,0,0,0,0,1500,1500,1500,1500,1500,1500
1747554436.0286384,-0.14,0.03,0.07,0.002181661564992912,0.019634954084936207,0.0,2.2342189586194867,-0.15091217082180122,1.5396711456179273,0,0,0,0,0,0,1500,1500,1500,1500,1500,1500
1747554436.1194909,-0.14,0.03,0.07,0.002181661564992912,0.019634954084936207,0.0,2.2342189586194867,-0.15091217082180122,1.5396711456179273,0,0,0,0,0,0,1500,1500,1500,1500,1500,1500
1747554436.220196,-0.18,0.05,-0.01,0.0,0.016362461737446838,-0.001090830782496456,2.2332469872144465,-0.15086347938915134,1.5417901929476283,0,0,0,0,0,0,1500,1500,1500,1500,1500,1500
1747554436.3191526,-0.18,0.05,-0.01,0.0,0.016362461737446838,-0.001090830782496456,2.2332469872144465,-0.15086347938915134,1.5417901929476283,0,0,0,0,0,0,1500,1500,1500,1500,1500,1500
1747554436.4197733,-0.14,0.05,0.05,0.004363323129985824,0.017453292519943295,0.0,2.232441653340984,-0.15108744337072164,1.5439996792381596,0,0,0,0,0,0,1500,1500,1500,1500,1500,1500
1747554436.5148003,-0.18,0.02,0.03,0.002181661564992912,0.020725784867432664,0.0,2.231729047642856,-0.1511459565186652,1.5460352043451064,0,0,0,0,0,0,1500,1500,1500,1500,1500,1500
1747554436.603463,-0.18,0.02,0.03,0.002181661564992912,0.020725784867432664,0.0,2.231729047642856,-0.1511459565186652,1.5460352043451064,0,0,0,0,0,0,1500,1500,1500,1500,1500,1500
1747554436.7029028,-0.16,0.05,-0.01,0.001090830782496456,0.013089969389957472,0.0,2.2310863959000824,-0.15093695754470057,1.5477522273667652,0,0,0,0,0,0,1500,1500,1500,1500,1500,1500
1747554436.8035579,-0.16,0.05,-0.01,0.001090830782496456,0.013089969389957472,0.0,2.2310863959000824,-0.15093695754470057,1.5477522273667652,0,0,0,0,0,0,1500,1500,1500,1500,1500,1500
1747554436.8863313,-0.16,0.01,0.01,0.002181661564992912,0.015271630954950384,0.0,2.23065040165469,-0.1507634599818802,1.5493827510941935,0,0,0,0,0,0,1500,1500,1500,1500,1500,1500
1747554436.9853084,-0.16,0.02,0.01,0.002181661564992912,0.014180800172453928,0.0,2.230384757584175,-0.15143746739054603,1.5508281610126167,0,0,0,0,0,0,1500,1500,1500,1500,1500,1500
1747554437.0863352,-0.16,0.02,0.01,0.002181661564992912,0.014180800172453928,0.0,2.230384757584175,-0.15143746739054603,1.5508281610126167,0,0,0,0,0,0,1500,1500,1500,1500,1500,1500
1747554437.186206,-0.15,0.01,0.04,0.0,0.00545415391248228,-0.001090830782496456,2.2301752969960837,-0.151662219751976,1.5510004267740527,0,0,0,0,0,0,1500,1500,1500,1500,1500,1500
1747554437.2867172,-0.15,0.01,0.04,0.0,0.00545415391248228,-0.001090830782496456,2.2301752969960837,-0.151662219751976,1.5510004267740527,0,0,0,0,0,0,1500,1500,1500,1500,1500,1500
1747554437.3699298,-0.17,0.03,-0.04,-0.002181661564992912,0.006544984694978736,-0.002181661564992912,2.2301658560516615,-0.15189807483094245,1.551324805488068,0,0,0,0,0,0,1500,1500,1500,1500,1500,1500
1747554437.4664154,-0.11,0.06,0.02,-0.002181661564992912,0.01090830782496456,-0.002181661564992912,2.2302611626411686,-0.15202159085620826,1.5515630049803943,0,0,0,0,0,0,1500,1500,1500,1500,1500,1500
1747554437.569135,-0.11,0.06,0.02,-0.002181661564992912,0.01090830782496456,-0.002181661564992912,2.2302611626411686,-0.15202159085620826,1.5515630049803943,0,0,0,0,0,0,1500,1500,1500,1500,1500,1500
1747554437.670318,-0.14,0.01,0.03,0.0,0.006544984694978736,0.001090830782496456,2.230156401772065,-0.15213393842553707,1.5516492719081032,0,0,0,0,0,0,1500,1500,1500,1500,1500,1500
1747554437.7712622,-0.14,0.01,0.03,0.0,0.006544984694978736,0.001090830782496456,2.230156401772065,-0.15213393842553707,1.5516492719081032,0,0,0,0,0,0,1500,1500,1500,1500,1500,1500
1747554437.85428,-0.13,0.04,0.02,-0.004363323129985824,0.004363323129985824,0.0,2.2301608951174345,-0.15229024835722385,1.5517369884714,0,0,0,0,0,0,1500,1500,1500,1500,1500,1500
1747554437.948105,-0.09,0.03,0.07,-0.003272492347489368,0.004363323129985824,-0.001090830782496456,2.2301608951174345,-0.15229024835722385,1.5517369884714,0,0,0,0,0,0,1500,1500,1500,1500,1500,1500
1747554438.05407,-0.09,0.03,0.07,-0.003272492347489368,0.004363323129985824,-0.001090830782496456,2.2301608951174345,-0.15229024835722385,1.5517369884714,0,0,0,0,0,0,1500,1500,1500,1500,1500,1500
1747554438.1538832,-0.15,0.03,-0.04,0.0,-0.003272492347489368,0.0,2.2301608951174345,-0.15229024835722385,1.5517369884714,0,0,0,0,0,0,1500,1500,1500,1500,1500,1500
1747554438.2536242,-0.15,0.03,-0.04,0.0,-0.003272492347489368,0.0,2.2301608951174345,-0.15229024835722385,1.5517369884714,0,0,0,0,0,0,1500,1500,1500,1500,1500,1500
1747554438.35314,-0.16,0.05,0.0,-0.002181661564992912,0.001090830782496456,0.0,2.2301608951174345,-0.15229024835722385,1.5517369884714,0,0,0,0,0,0,1500,1500,1500,1500,1500,1500
1747554438.45335,-0.09,0.06,0.06,-0.001090830782496456,0.001090830782496456,0.0,2.2301608951174345,-0.15229024835722385,1.5517369884714,0,0,0,0,0,0,1500,1500,1500,1500,1500,1500
1747554438.552898,-0.09,0.06,0.06,-0.001090830782496456,0.001090830782496456,0.0,2.2301608951174345,-0.15229024835722385,1.5517369884714,0,0,0,0,0,0,1500,1500,1500,1500,1500,1500
1747554438.636244,-0.17,0.05,0.0,0.002181661564992912,0.003272492347489368,0.001090830782496456,2.2301608951174345,-0.15229024835722385,1.5517369884714,0,0,0,0,0,0,1500,1500,1500,1500,1500,1500
1747554438.7361584,-0.17,0.05,0.0,0.002181661564992912,0.003272492347489368,0.001090830782496456,2.2301608951174345,-0.15229024835722385,1.5517369884714,0,0,0,0,0,0,1500,1500,1500,1500,1500,1500
1747554438.8375313,-0.11,0.06,0.02,0.001090830782496456,0.002181661564992912,-0.001090830782496456,2.2301608951174345,-0.15229024835722385,1.5517369884714,0,0,0,0,0,0,1500,1500,1500,1500,1500,1500
1747554438.9389186,-0.15,0.06,0.1,-0.001090830782496456,0.001090830782496456,0.0,2.2301608951174345,-0.15229024835722385,1.5517369884714,0,0,0,0,0,0,1500,1500,1500,1500,1500,1500
1747554439.0380828,-0.15,0.06,0.1,-0.001090830782496456,0.001090830782496456,0.0,2.2301608951174345,-0.15229024835722385,1.5517369884714,0,0,0,0,0,0,1500,1500,1500,1500,1500,1500
1747554439.120419,-0.15,0.09,0.02,-0.002181661564992912,-0.004363323129985824,0.002181661564992912,2.2301608951174345,-0.15229024835722385,1.5517369884714,0,0,0,0,0,0,1500,1500,1500,1500,1500,1500
1747554439.2201443,-0.15,0.09,0.02,-0.002181661564992912,-0.004363323129985824,0.002181661564992912,2.2301608951174345,-0.15229024835722385,1.5517369884714,0,0,0,0,0,0,1500,1500,1500,1500,1500,1500
1747554439.323059,-0.1,0.1,0.15,0.0,0.0,0.003272492347489368,2.2301608951174345,-0.15229024835722385,1.5517369884714,0,0,0,0,0,0,1500,1500,1500,1500,1500,1500
1747554439.4207273,-0.1,0.1,0.15,0.0,0.0,0.003272492347489368,2.2301608951174345,-0.15229024835722385,1.5517369884714,0,0,0,0,0,0,1500,1500,1500,1500,1500,1500
1747554439.5198772,-0.1,0.1,0.15,0.0,0.0,0.003272492347489368,2.2301608951174345,-0.15229024835722385,1.5517369884714,0,0,0,0,0,0,1500,1500,1500,1500,1500,1500
1747554439.6040013,-0.1,0.1,0.15,0.0,0.0,0.003272492347489368,2.2301608951174345,-0.15229024835722385,1.5517369884714,0,0,0,0,0,0,1500,1500,1500,1500,1500,1500
1747554439.7039797,-0.1,0.1,0.15,0.0,0.0,0.003272492347489368,2.2301608951174345,-0.15229024835722385,1.5517369884714,0,0,0,0,0,0,1500,1500,1500,1500,1500,1500
1747554439.8034718,-0.1,0.1,0.15,0.0,0.0,0.003272492347489368,2.2301608951174345,-0.15229024835722385,1.5517369884714,0,0,0,0,0,0,1500,1500,1500,1500,1500,1500
1747554439.886331,-0.1,0.1,0.15,0.0,0.0,0.003272492347489368,2.2301608951174345,-0.15229024835722385,1.5517369884714,0,0,0,0,0,0,1500,1500,1500,1500,1500,1500
1747554439.9848325,-0.1,0.1,0.15,0.0,0.0,0.003272492347489368,2.2301608951174345,-0.15229024835722385,1.5517369884714,0,0,0,0,0,0,1500,1500,1500,1500,1500,1500
1747554440.086272,-0.1,0.1,0.15,0.0,0.0,0.003272492347489368,2.2301608951174345,-0.15229024835722385,1.5517369884714,0,0,0,0,0,0,1500,1500,1500,1500,1500,1500
1747554440.1856987,-0.1,0.1,0.15,0.0,0.0,0.003272492347489368,2.2301608951174345,-0.15229024835722385,1.5517369884714,0,0,0,0,0,0,1500,1500,1500,1500,1500,1500
1747554440.2857523,-0.1,0.1,0.15,0.0,0.0,0.003272492347489368,2.2301608951174345,-0.15229024835722385,1.5517369884714,0,0,0,0,0,0,1500,1500,1500,1500,1500,1500
1747554440.3692498,-0.1,0.1,0.15,0.0,0.0,0.003272492347489368,2.2301608951174345,-0.15229024835722385,1.5517369884714,0,0,0,0,0,0,1500,1500,1500,1500,1500,1500
1747554440.469245,-0.1,0.1,0.15,0.0,0.0,0.003272492347489368,2.2301608951174345,-0.15229024835722385,1.5517369884714,0,0,0,0,0,0,1500,1500,1500,1500,1500,1500
1747554440.5692966,-0.1,0.1,0.15,0.0,0.0,0.003272492347489368,2.2301608951174345,-0.15229024835722385,1.5517369884714,0,0,0,0,0,0,1500,1500,1500,1500,1500,1500
1747554440.652436,-0.1,0.1,0.15,0.0,0.0,0.003272492347489368,2.2301608951174345,-0.15229024835722385,1.5517369884714,0,0,0,0,0,0,1500,1500,1500,1500,1500,1500
1747554440.7522469,-0.1,0.1,0.15,0.0,0.0,0.003272492347489368,2.2301608951174345,-0.15229024835722385,1.5517369884714,0,0,0,0,0,0,1500,1500,1500,1500,1500,1500
1747554440.8532176,-0.1,0.1,0.15,0.0,0.0,0.003272492347489368,2.2301608951174345,-0.15229024835722385,1.5517369884714,0,0,0,0,0,0,1500,1500,1500,1500,1500,1500
1747554440.923075,-0.1,0.1,0.15,0.0,0.0,0.003272492347489368,2.2301608951174345,-0.15229024835722385,1.5517369884714,0,0,0,0,0,0,1500,1500,1500,1500,1500,1500
1747554440.9525082,-0.1,0.1,0.15,0.0,0.0,0.003272492347489368,2.2301608951174345,-0.15229024835722385,1.5517369884714,0,0,0,0,0,0,1500,1500,1500,1500,1500,1500
1747554441.0199544,-0.01,-0.22,0.17,0.003272492347489368,0.001090830782496456,0.0,2.24593200587557,-0.1300361566747425,-0.17170995023180805,0,0,0,0,0,0,1500,1500,1500,1500,1500,1500
1747554441.0516355,-0.01,-0.22,0.17,0.003272492347489368,0.001090830782496456,0.0,2.24593200587557,-0.1300361566747425,-0.17170995023180805,0,0,0,0,0,0,1500,1500,1500,1500,1500,1500
1747554441.1019905,-0.01,-0.22,0.17,0.003272492347489368,0.001090830782496456,0.0,2.24593200587557,-0.1300361566747425,-0.17170995023180805,0,0,0,0,0,0,1500,1500,1500,1500,1500,1500
1747554441.1359036,-0.01,-0.22,0.17,0.003272492347489368,0.001090830782496456,0.0,2.24593200587557,-0.1300361566747425,-0.17170995023180805,0,0,0,0,0,0,1500,1500,1500,1500,1500,1500
1747554441.2033267,-0.03,-0.17,0.08,0.003272492347489368,0.001090830782496456,0.0,2.246070275534522,-0.13003877906814418,-0.17172270648823282,0,0,0,0,0,0,1500,1500,1500,1500,1500,1500
1747554441.2357495,-0.03,-0.17,0.08,0.003272492347489368,0.001090830782496456,0.0,2.246070275534522,-0.13003877906814418,-0.17172270648823282,0,0,0,0,0,0,1500,1500,1500,1500,1500,1500
1747554441.3017163,-0.03,-0.17,0.08,0.003272492347489368,0.001090830782496456,0.0,2.246070275534522,-0.13003877906814418,-0.17172270648823282,0,0,0,0,0,0,1500,1500,1500,1500,1500,1500
1747554441.3361464,0.0,-0.19,0.21,-0.004363323129985824,0.0,-0.001090830782496456,2.246070275534522,-0.13003877906814418,-0.17172270648823282,0,0,0,0,0,0,1500,1500,1500,1500,1500,1500
1747554441.3860762,0.0,-0.19,0.21,-0.004363323129985824,0.0,-0.001090830782496456,2.246070275534522,-0.13003877906814418,-0.17172270648823282,0,0,0,0,0,0,1500,1500,1500,1500,1500,1500
1747554441.4362407,0.0,-0.19,0.21,-0.004363323129985824,0.0,-0.001090830782496456,2.246070275534522,-0.13003877906814418,-0.17172270648823282,0,0,0,0,0,0,1500,1500,1500,1500,1500,1500
1747554441.485646,0.0,-0.03,-0.01,-0.001090830782496456,0.001090830782496456,-0.002181661564992912,2.246070275534522,-0.13003877906814418,-0.17172270648823282,0,0,0,0,0,0,1500,1500,1500,1500,1500,1500
1747554441.5355754,0.0,-0.03,-0.01,-0.001090830782496456,0.001090830782496456,-0.002181661564992912,2.246070275534522,-0.13003877906814418,-0.17172270648823282,0,0,0,0,0,0,1500,1500,1500,1500,1500,1500
1747554441.5848894,0.0,-0.03,-0.01,-0.001090830782496456,0.001090830782496456,-0.002181661564992912,2.246070275534522,-0.13003877906814418,-0.17172270648823282,0,0,0,0,0,0,1500,1500,1500,1500,1500,1500
1747554441.6194913,0.0,-0.03,-0.01,-0.001090830782496456,0.001090830782496456,-0.002181661564992912,2.246070275534522,-0.13003877906814418,-0.17172270648823282,0,0,0,0,0,0,1500,1500,1500,1500,1500,1500
1747554441.6854508,0.05,0.0,0.06,0.001090830782496456,0.001090830782496456,-0.004363323129985824,2.246070275534522,-0.13003877906814418,-0.17172270648823282,0,0,0,0,0,0,1500,1500,1500,1500,1500,1500
1747554441.7185366,0.05,0.0,0.06,0.001090830782496456,0.001090830782496456,-0.004363323129985824,2.246070275534522,-0.13003877906814418,-0.17172270648823282,0,0,0,0,0,0,1500,1500,1500,1500,1500,1500
1747554441.785134,0.01,-0.02,0.05,0.002181661564992912,0.001090830782496456,-0.004363323129985824,2.246070275534522,-0.13003877906814418,-0.17172270648823282,0,0,0,0,0,0,1500,1500,1500,1500,1500,1500
1747554441.8191168,0.01,-0.02,0.05,0.002181661564992912,0.001090830782496456,-0.004363323129985824,2.246070275534522,-0.13003877906814418,-0.17172270648823282,0,0,0,0,0,0,1500,1500,1500,1500,1500,1500
1747554441.8697095,0.01,-0.02,0.05,0.002181661564992912,0.001090830782496456,-0.004363323129985824,2.246070275534522,-0.13003877906814418,-0.17172270648823282,0,0,0,0,0,0,1500,1500,1500,1500,1500,1500
1747554441.902208,0.01,-0.02,0.05,0.002181661564992912,0.001090830782496456,-0.004363323129985824,2.246070275534522,-0.13003877906814418,-0.17172270648823282,0,0,0,0,0,0,1500,1500,1500,1500,1500,1500
1747554441.9692256,0.02,0.0,0.0,-0.001090830782496456,-0.004363323129985824,-0.001090830782496456,2.246070275534522,-0.13003877906814418,-0.17172270648823282,0,0,0,0,0,0,1500,1500,1500,1500,1500,1500
1747554442.0017102,0.02,0.0,0.0,-0.001090830782496456,-0.004363323129985824,-0.001090830782496456,2.246070275534522,-0.13003877906814418,-0.17172270648823282,0,0,0,0,0,0,1500,1500,1500,1500,1500,1500
1747554442.0691056,0.02,0.0,0.0,-0.001090830782496456,-0.004363323129985824,-0.001090830782496456,2.246070275534522,-0.13003877906814418,-0.17172270648823282,0,0,0,0,0,0,1500,1500,1500,1500,1500,1500
1747554442.0863402,0.02,0.0,0.0,-0.001090830782496456,-0.004363323129985824,-0.001090830782496456,2.246070275534522,-0.13003877906814418,-0.17172270648823282,0,0,0,0,0,0,1500,1500,1500,1500,1500,1500
1747554442.1520226,0.06,0.0,0.07,0.0,0.002181661564992912,0.0,2.246070275534522,-0.13003877906814418,-0.17172270648823282,0,0,0,0,0,0,1500,1500,1500,1500,1500,1500
1747554442.18558,0.06,0.0,0.07,0.0,0.002181661564992912,0.0,2.246070275534522,-0.13003877906814418,-0.17172270648823282,0,0,0,0,0,0,1500,1500,1500,1500,1500,1500
1747554442.2522082,0.06,0.0,0.07,0.0,0.002181661564992912,0.0,2.246070275534522,-0.13003877906814418,-0.17172270648823282,0,0,0,0,0,0,1500,1500,1500,1500,1500,1500
1747554442.2862055,0.01,-0.02,0.01,-0.002181661564992912,0.00545415391248228,-0.001090830782496456,2.246070275534522,-0.13003877906814418,-0.17172270648823282,0,0,0,0,0,0,1500,1500,1500,1500,1500,1500
1747554442.353246,0.01,-0.02,0.01,-0.002181661564992912,0.00545415391248228,-0.001090830782496456,2.246070275534522,-0.13003877906814418,-0.17172270648823282,0,0,0,0,0,0,1500,1500,1500,1500,1500,1500
1747554442.3687773,0.01,-0.02,0.01,-0.002181661564992912,0.00545415391248228,-0.001090830782496456,2.246070275534522,-0.13003877906814418,-0.17172270648823282,0,0,0,0,0,0,1500,1500,1500,1500,1500,1500
1747554442.4521995,0.03,0.03,0.04,-0.001090830782496456,0.004363323129985824,0.0,2.246070275534522,-0.13003877906814418,-0.17172270648823282,0,0,0,0,0,0,1500,1500,1500,1500,1500,1500
1747554442.469323,0.03,0.03,0.04,-0.001090830782496456,0.004363323129985824,0.0,2.246070275534522,-0.13003877906814418,-0.17172270648823282,0,0,0,0,0,0,1500,1500,1500,1500,1500,1500
1747554442.5520518,0.03,0.03,0.04,-0.001090830782496456,0.004363323129985824,0.0,2.246070275534522,-0.13003877906814418,-0.17172270648823282,0,0,0,0,0,0,1500,1500,1500,1500,1500,1500
1747554442.5690672,0.03,0.03,0.04,-0.001090830782496456,0.004363323129985824,0.0,2.246070275534522,-0.13003877906814418,-0.17172270648823282,0,0,0,0,0,0,1500,1500,1500,1500,1500,1500
1747554442.63556,0.03,0.02,0.08,-0.001090830782496456,0.0,-0.002181661564992912,2.246070275534522,-0.13003877906814418,-0.17172270648823282,0,0,0,0,0,0,1500,1500,1500,1500,1500,1500
1747554442.6692908,0.03,0.02,0.08,-0.001090830782496456,0.0,-0.002181661564992912,2.246070275534522,-0.13003877906814418,-0.17172270648823282,0,0,0,0,0,0,1500,1500,1500,1500,1500,1500
1747554442.735558,0.03,0.02,0.08,-0.001090830782496456,0.0,-0.002181661564992912,2.246070275534522,-0.13003877906814418,-0.17172270648823282,0,0,0,0,0,0,1500,1500,1500,1500,1500,1500
1747554442.7687182,0.04,0.05,0.06,0.001090830782496456,0.001090830782496456,-0.003272492347489368,2.246070275534522,-0.13003877906814418,-0.17172270648823282,0,0,0,0,0,0,1500,1500,1500,1500,1500,1500
1747554442.8468018,0.04,0.05,0.06,0.001090830782496456,0.001090830782496456,-0.003272492347489368,2.246070275534522,-0.13003877906814418,-0.17172270648823282,0,0,0,0,0,0,1500,1500,1500,1500,1500,1500
1747554442.85474,0.04,0.05,0.06,0.001090830782496456,0.001090830782496456,-0.003272492347489368,2.246070275534522,-0.13003877906814418,-0.17172270648823282,0,0,0,0,0,0,1500,1500,1500,1500,1500,1500
1747554442.9366684,0.03,0.0,0.12,0.001090830782496456,0.00545415391248228,-0.00545415391248228,2.246070275534522,-0.13003877906814418,-0.17172270648823282,0,0,0,0,0,0,1500,1500,1500,1500,1500,1500
1747554442.952163,0.03,0.0,0.12,0.001090830782496456,0.00545415391248228,-0.00545415391248228,2.246070275534522,-0.13003877906814418,-0.17172270648823282,0,0,0,0,0,0,1500,1500,1500,1500,1500,1500
1747554443.036417,0.03,0.0,0.12,0.001090830782496456,0.00545415391248228,-0.00545415391248228,2.246070275534522,-0.13003877906814418,-0.17172270648823282,0,0,0,0,0,0,1500,1500,1500,1500,1500,1500
1747554443.0497646,0.05,0.05,0.06,0.0,0.002181661564992912,0.001090830782496456,2.246070275534522,-0.13003877906814418,-0.17172270648823282,0,0,0,0,0,0,1500,1500,1500,1500,1500,1500
1747554443.1193538,0.05,0.05,0.06,0.0,0.002181661564992912,0.001090830782496456,2.246070275534522,-0.13003877906814418,-0.17172270648823282,-3,0,0,0,0,0,1540,1460,1500,1460,1460,1460
1747554443.1364431,0.05,0.05,0.06,0.0,0.002181661564992912,0.001090830782496456,2.246070275534522,-0.13003877906814418,-0.17172270648823282,-3,0,0,0,0,0,1580,1420,1500,1420,1426,1426
1747554443.220126,0.05,0.06,0.13,0.002181661564992912,0.0,0.003272492347489368,2.246070275534522,-0.13003877906814418,-0.17172270648823282,-3,0,0,0,0,0,1594,1393,1500,1402,1426,1426
1747554443.235675,0.05,0.06,0.13,0.002181661564992912,0.0,0.003272492347489368,2.246070275534522,-0.13003877906814418,-0.17172270648823282,-3,0,0,0,0,0,1594,1393,1500,1402,1426,1426
1747554443.320067,0.05,0.06,0.13,0.002181661564992912,0.0,0.003272492347489368,2.246070275534522,-0.13003877906814418,-0.17172270648823282,-3,0,0,0,0,0,1594,1393,1500,1402,1426,1426
1747554443.3210793,0.05,0.06,0.13,0.002181661564992912,0.0,0.003272492347489368,2.246070275534522,-0.13003877906814418,-0.17172270648823282,-9,0,0,0,0,0,1634,1353,1500,1362,1386,1386
1747554443.4194188,0.07,0.0,0.22,-0.016362461737446838,-0.003272492347489368,0.011999138607461015,2.24598318236505,-0.13070372387945053,-0.17195102315665337,-3,0,0,0,0,0,1594,1393,1500,1402,1426,1426
1747554443.4194188,0.07,0.0,0.22,-0.016362461737446838,-0.003272492347489368,0.011999138607461015,2.24598318236505,-0.13070372387945053,-0.17195102315665337,-9,0,0,0,0,0,1634,1353,1500,1362,1386,1386
1747554443.5196123,0.07,0.0,0.22,-0.016362461737446838,-0.003272492347489368,0.011999138607461015,2.24598318236505,-0.13070372387945053,-0.17195102315665337,-3,0,0,0,0,0,1594,1393,1500,1402,1426,1426
1747554443.5196123,0.07,0.0,0.22,-0.016362461737446838,-0.003272492347489368,0.011999138607461015,2.24598318236505,-0.13070372387945053,-0.17195102315665337,-9,0,0,0,0,0,1634,1353,1500,1362,1386,1386
1747554443.6022267,0.34,-0.45,0.0,-0.07853981633974483,-0.06217735460229799,0.2748893571891069,2.23692716622333,-0.14567418342964047,-0.18836692407991645,-3,0,0,0,0,0,1594,1393,1500,1402,1426,1426
1747554443.6034505,0.34,-0.45,0.0,-0.07853981633974483,-0.06217735460229799,0.2748893571891069,2.23692716622333,-0.14567418342964047,-0.18836692407991645,-9,0,0,0,0,0,1634,1353,1500,1362,1386,1386
1747554443.702367,0.2,-0.04,0.03,-0.022907446432425576,-0.13199052468207118,0.5203262832508095,2.239778545135546,-0.18449827963169832,-0.23767606480482367,-3,0,0,0,0,0,1594,1393,1500,1402,1426,1426
1747554443.7035913,0.2,-0.04,0.03,-0.022907446432425576,-0.13199052468207118,0.5203262832508095,2.239778545135546,-0.18449827963169832,-0.23767606480482367,-9,0,0,0,0,0,1634,1353,1500,1362,1386,1386
1747554443.8022385,0.2,-0.04,0.03,-0.022907446432425576,-0.13199052468207118,0.5203262832508095,2.239778545135546,-0.18449827963169832,-0.23767606480482367,-3,0,0,0,0,0,1594,1393,1500,1402,1426,1426
1747554443.8032577,0.2,-0.04,0.03,-0.022907446432425576,-0.13199052468207118,0.5203262832508095,2.239778545135546,-0.18449827963169832,-0.23767606480482367,-9,0,0,0,0,0,1634,1353,1500,1362,1386,1386
1747554443.8864245,0.34,-0.16,0.17,-0.05999569303730508,-0.18653206380689397,0.6872233929727672,2.250586685404925,-0.24239612308958744,-0.31696024508622195,-3,0,0,0,0,0,1594,1393,1500,1402,1426,1426
1747554443.887689,0.34,-0.16,0.17,-0.05999569303730508,-0.18653206380689397,0.6872233929727672,2.250586685404925,-0.24239612308958744,-0.31696024508622195,-9,0,0,0,0,0,1634,1353,1500,1362,1386,1386
1747554443.9851599,0.34,-0.16,0.17,-0.05999569303730508,-0.18653206380689397,0.6872233929727672,2.250586685404925,-0.24239612308958744,-0.31696024508622195,-3,0,0,0,0,0,1594,1393,1500,1402,1426,1426
1747554443.9866722,0.34,-0.16,0.17,-0.05999569303730508,-0.18653206380689397,0.6872233929727672,2.250586685404925,-0.24239612308958744,-0.31696024508622195,-9,0,0,0,0,0,1634,1353,1500,1362,1386,1386
1747554444.0860507,0.16,-0.22,0.17,-0.05781403147231216,-0.2378011105842274,0.8323038870447959,2.2681683707033864,-0.30778414413225397,-0.41474351110570745,-3,0,0,0,0,0,1594,1393,1500,1402,1426,1426
1747554444.087459,0.16,-0.22,0.17,-0.05781403147231216,-0.2378011105842274,0.8323038870447959,2.2681683707033864,-0.30778414413225397,-0.41474351110570745,-9,0,0,0,0,0,1634,1353,1500,1362,1386,1386
1747554444.186091,0.28,-0.03,0.04,-0.0545415391248228,-0.2901609881440573,0.9250245035569946,2.3024523227170373,-0.38473118823198726,-0.5421386297926858,-3,0,0,0,0,0,1594,1393,1500,1402,1426,1426
1747554444.186091,0.28,-0.03,0.04,-0.0545415391248228,-0.2901609881440573,0.9250245035569946,2.3024523227170373,-0.38473118823198726,-0.5421386297926858,-9,0,0,0,0,0,1634,1353,1500,1362,1386,1386
1747554444.286376,0.28,-0.03,0.04,-0.0545415391248228,-0.2901609881440573,0.9250245035569946,2.3024523227170373,-0.38473118823198726,-0.5421386297926858,-3,0,0,0,0,0,1594,1393,1500,1402,1426,1426
1747554444.2874055,0.28,-0.03,0.04,-0.0545415391248228,-0.2901609881440573,0.9250245035569946,2.3024523227170373,-0.38473118823198726,-0.5421386297926858,-9,0,0,0,0,0,1634,1353,1500,1362,1386,1386
1747554444.369537,0.3,0.04,0.07,-0.07308566242726255,-0.3043417883165112,1.014472627721704,2.353445455710283,-0.462882546924003,-0.6919744514609282,-3,0,0,0,0,0,1594,1393,1500,1402,1426,1426
1747554444.3700392,0.3,0.04,0.07,-0.07308566242726255,-0.3043417883165112,1.014472627721704,2.353445455710283,-0.462882546924003,-0.6919744514609282,-9,0,0,0,0,0,1634,1353,1500,1362,1386,1386
1747554444.46947,0.29,0.02,0.3,-0.13199052468207118,-0.284706834231575,1.1104657365813921,2.4149988073259143,-0.5396285264935317,-0.853603188912224,-3,0,0,0,0,0,1594,1393,1500,1402,1426,1426
1747554444.46947,0.29,0.02,0.3,-0.13199052468207118,-0.284706834231575,1.1104657365813921,2.4149988073259143,-0.5396285264935317,-0.853603188912224,-9,0,0,0,0,0,1634,1353,1500,1362,1386,1386
1747554444.5696738,0.29,0.02,0.3,-0.13199052468207118,-0.284706834231575,1.1104657365813921,2.4149988073259143,-0.5396285264935317,-0.853603188912224,-3,0,0,0,0,0,1594,1393,1500,1402,1426,1426
1747554444.5696738,0.29,0.02,0.3,-0.13199052468207118,-0.284706834231575,1.1104657365813921,2.4149988073259143,-0.5396285264935317,-0.853603188912224,-9,0,0,0,0,0,1634,1353,1500,1362,1386,1386
1747554444.6692767,0.45,0.0,0.27,-0.2007128639793479,-0.2716168648416175,1.162825614141222,2.494159809933579,-0.6210783371713329,-1.0488257930928564,-3,0,0,0,0,0,1594,1393,1500,1402,1426,1426
1747554444.670779,0.45,0.0,0.27,-0.2007128639793479,-0.2716168648416175,1.162825614141222,2.494159809933579,-0.6210783371713329,-1.0488257930928564,-9,0,0,0,0,0,1634,1353,1500,1362,1386,1386
1747554444.7695763,0.45,0.0,0.27,-0.2007128639793479,-0.2716168648416175,1.162825614141222,2.494159809933579,-0.6210783371713329,-1.0488257930928564,-3,0,0,0,0,0,1594,1393,1500,1402,1426,1426
1747554444.7695763,0.45,0.0,0.27,-0.2007128639793479,-0.2716168648416175,1.162825614141222,2.494159809933579,-0.6210783371713329,-1.0488257930928564,-9,0,0,0,0,0,1634,1353,1500,1362,1386,1386
1747554444.8526285,0.61,0.02,0.28,-0.2628902185816459,-0.25743606466916363,1.2086405070060733,2.5919544520785047,-0.6945758606496365,-1.2684195638189328,-3,0,0,0,0,0,1594,1393,1500,1402,1426,1426
1747554444.8536327,0.61,0.02,0.28,-0.2628902185816459,-0.25743606466916363,1.2086405070060733,2.5919544520785047,-0.6945758606496365,-1.2684195638189328,-9,0,0,0,0,0,1634,1353,1500,1362,1386,1386
1747554444.9530976,0.53,-0.13,0.44,-0.2628902185816459,-0.25743606466916363,1.2086405070060733,2.701708663113674,-0.7457936059704757,-1.500646797578633,-3,0,0,0,0,0,1594,1393,1500,1402,1426,1426
1747554444.9530976,0.53,-0.13,0.44,-0.2628902185816459,-0.25743606466916363,1.2086405070060733,2.701708663113674,-0.7457936059704757,-1.500646797578633,-9,0,0,0,0,0,1634,1353,1500,1362,1386,1386
1747554445.0528169,0.53,-0.13,0.44,-0.2628902185816459,-0.25743606466916363,1.2086405070060733,2.701708663113674,-0.7457936059704757,-1.500646797578633,-3,0,0,0,0,0,1594,1393,1500,1402,1426,1426
1747554445.0538135,0.53,-0.13,0.44,-0.2628902185816459,-0.25743606466916363,1.2086405070060733,2.701708663113674,-0.7457936059704757,-1.500646797578633,-9,0,0,0,0,0,1634,1353,1500,1362,1386,1386
1747554445.1361353,0.6900000000000001,-0.24,0.49,-0.3948807432637171,-0.29670597283903605,1.2293662918735058,2.830536836258154,-0.7765943768194392,-1.7677571765477023,-3,0,0,0,0,0,1594,1393,1500,1402,1426,1426
1747554445.1361353,0.6900000000000001,-0.24,0.49,-0.3948807432637171,-0.29670597283903605,1.2293662918735058,2.830536836258154,-0.7765943768194392,-1.7677571765477023,-9,0,0,0,0,0,1634,1353,1500,1362,1386,1386
1747554445.236678,0.6900000000000001,-0.24,0.49,-0.3948807432637171,-0.29670597283903605,1.2293662918735058,2.830536836258154,-0.7765943768194392,-1.7677571765477023,-3,0,0,0,0,0,1594,1393,1500,1402,1426,1426
1747554445.2377527,0.6900000000000001,-0.24,0.49,-0.3948807432637171,-0.29670597283903605,1.2293662918735058,2.830536836258154,-0.7765943768194392,-1.7677571765477023,-9,0,0,0,0,0,1634,1353,1500,1362,1386,1386
1747554445.3361619,0.74,-0.26,0.53,-0.4428772976935611,-0.32179508083645453,1.2326387842209952,2.952768188342135,-0.7823291234496482,-2.0280676631759182,-3,0,0,0,0,0,1594,1393,1500,1402,1426,1426
1747554445.337396,0.74,-0.26,0.53,-0.4428772976935611,-0.32179508083645453,1.2326387842209952,2.952768188342135,-0.7823291234496482,-2.0280676631759182,-9,0,0,0,0,0,1634,1353,1500,1362,1386,1386
1747554445.4366858,0.74,-0.39,0.47000000000000003,-0.4919646829059016,-0.33597588100890846,1.22500296874352,3.074206767599279,-0.7653939455075454,-2.3025725744259873,-3,0,0,0,0,0,1594,1393,1500,1402,1426,1426
1747554445.4366858,0.74,-0.39,0.47000000000000003,-0.4919646829059016,-0.33597588100890846,1.22500296874352,3.074206767599279,-0.7653939455075454,-2.3025725744259873,-9,0,0,0,0,0,1634,1353,1500,1362,1386,1386
1747554445.5366468,0.74,-0.39,0.47000000000000003,-0.4919646829059016,-0.33597588100890846,1.22500296874352,3.074206767599279,-0.7653939455075454,-2.3025725744259873,-3,0,0,0,0,0,1594,1393,1500,1402,1426,1426
1747554445.5378265,0.74,-0.39,0.47000000000000003,-0.4919646829059016,-0.33597588100890846,1.22500296874352,3.074206767599279,-0.7653939455075454,-2.3025725744259873,-9,0,0,0,0,0,1634,1353,1500,1362,1386,1386
1747554445.6194775,0.8200000000000001,-0.4,0.61,-0.5355979142057599,-0.33815754257390135,1.2119129993535627,-3.1064502487707415,-0.729718226704078,-2.5656377079882824,-3,0,0,0,0,0,1594,1393,1500,1402,1426,1426
1747554445.6209817,0.8200000000000001,-0.4,0.61,-0.5355979142057599,-0.33815754257390135,1.2119129993535627,-3.1064502487707415,-0.729718226704078,-2.5656377079882824,-9,0,0,0,0,0,1634,1353,1500,1362,1386,1386
1747554445.7186913,0.8200000000000001,-0.4,0.61,-0.5355979142057599,-0.33815754257390135,1.2119129993535627,-3.1064502487707415,-0.729718226704078,-2.5656377079882824,-3,0,0,0,0,0,1594,1393,1500,1402,1426,1426
1747554445.7200415,0.8200000000000001,-0.4,0.61,-0.5355979142057599,-0.33815754257390135,1.2119129993535627,-3.1064502487707415,-0.729718226704078,-2.5656377079882824,-9,0,0,0,0,0,1634,1353,1500,1362,1386,1386
1747554445.8201306,0.72,-0.44,0.48,-0.56941366846315,-0.32506757318394386,1.1879147221386406,-3.020846880012865,-0.6849838738765712,-2.815263096891321,-3,0,0,0,0,0,1594,1393,1500,1402,1426,1426
1747554445.8224056,0.72,-0.44,0.48,-0.56941366846315,-0.32506757318394386,1.1879147221386406,-3.020846880012865,-0.6849838738765712,-2.815263096891321,-9,0,0,0,0,0,1634,1353,1500,1362,1386,1386
1747554445.9202101,0.51,-0.51,0.42,-0.5999569303730508,-0.33052172709642613,1.1824605682261582,-2.9605146597906593,-0.6324718023598104,-3.033461849835059,-3,0,0,0,0,0,1594,1393,1500,1402,1426,1426
1747554445.9212065,0.51,-0.51,0.42,-0.5999569303730508,-0.33052172709642613,1.1824605682261582,-2.9605146597906593,-0.6324718023598104,-3.033461849835059,-9,0,0,0,0,0,1634,1353,1500,1362,1386,1386
1747554446.0209947,0.51,-0.51,0.42,-0.5999569303730508,-0.33052172709642613,1.1824605682261582,-2.9605146597906593,-0.6324718023598104,-3.033461849835059,0,0,0,0,0,0,1594,1393,1500,1402,1426,1426
1747554446.0209947,0.51,-0.51,0.42,-0.5999569303730508,-0.33052172709642613,1.1824605682261582,-2.9605146597906593,-0.6324718023598104,-3.033461849835059,0,0,0,0,0,0,1554,1433,1500,1442,1466,1466
1747554446.1038647,0.68,-0.63,0.27,-0.6032294227205401,-0.33488505022641196,1.1660981064887115,-2.9215444522142624,-0.563012658293541,3.0360538065421885,0,0,0,0,0,0,1514,1473,1500,1482,1500,1500
1747554446.1038647,0.68,-0.63,0.27,-0.6032294227205401,-0.33488505022641196,1.1660981064887115,-2.9215444522142624,-0.563012658293541,3.0360538065421885,0,0,0,0,0,0,1500,1500,1500,1500,1500,1500
1747554446.204489,0.5,-0.42,0.27,-0.6010477611555473,-0.3272492347489368,1.1682797680537043,-2.902217066644263,-0.4930662524519107,2.8489101056197454,0,0,0,0,0,0,1500,1500,1500,1500,1500,1500
1747554446.2056282,0.5,-0.42,0.27,-0.6010477611555473,-0.3272492347489368,1.1682797680537043,-2.902217066644263,-0.4930662524519107,2.8489101056197454,0,0,0,0,0,0,1500,1500,1500,1500,1500,1500
1747554446.3023775,0.5,-0.42,0.27,-0.6010477611555473,-0.3272492347489368,1.1682797680537043,-2.902217066644263,-0.4930662524519107,2.8489101056197454,0,0,0,0,0,0,1500,1500,1500,1500,1500,1500
1747554446.3038707,0.5,-0.42,0.27,-0.6010477611555473,-0.3272492347489368,1.1682797680537043,-2.902217066644263,-0.4930662524519107,2.8489101056197454,0,0,0,0,0,0,1500,1500,1500,1500,1500,1500
1747554446.3860245,0.6,-0.53,0.11,-0.6185010536754906,-0.33161255787892263,0.6959500392327389,-2.928470582455807,-0.41966973729413865,2.705024274621758,0,0,0,0,0,0,1500,1500,1500,1500,1500,1500
1747554446.3870273,0.6,-0.53,0.11,-0.6185010536754906,-0.33161255787892263,0.6959500392327389,-2.928470582455807,-0.41966973729413865,2.705024274621758,0,0,0,0,0,0,1500,1500,1500,1500,1500,1500
1747554446.485522,0.6,-0.53,0.11,-0.6185010536754906,-0.33161255787892263,0.6959500392327389,-2.928470582455807,-0.41966973729413865,2.705024274621758,0,0,0,0,0,0,1500,1500,1500,1500,1500,1500
1747554446.4868891,0.6,-0.53,0.11,-0.6185010536754906,-0.33161255787892263,0.6959500392327389,-2.928470582455807,-0.41966973729413865,2.705024274621758,0,0,0,0,0,0,1500,1500,1500,1500,1500,1500
1747554446.585302,0.5700000000000001,-0.47000000000000003,0.05,-0.5748678223756323,-0.35124751196385884,0.4439681284760576,-2.9723799520123335,-0.3700311450823906,2.6184294283776466,0,0,0,0,0,0,1500,1500,1500,1500,1500,1500
1747554446.5864937,0.5700000000000001,-0.47000000000000003,0.05,-0.5748678223756323,-0.35124751196385884,0.4439681284760576,-2.9723799520123335,-0.3700311450823906,2.6184294283776466,0,0,0,0,0,0,1500,1500,1500,1500,1500,1500
1747554446.6865718,0.55,-0.35000000000000003,0.06,-0.5530512067257032,-0.35997415822383044,0.28361600344907856,-3.023100343404342,-0.32812634284318587,2.5663033741469095,0,0,0,0,0,0,1500,1500,1500,1500,1500,1500
1747554446.6875687,0.55,-0.35000000000000003,0.06,-0.5530512067257032,-0.35997415822383044,0.28361600344907856,-3.023100343404342,-0.32812634284318587,2.5663033741469095,0,0,0,0,0,0,1500,1500,1500,1500,1500,1500
1747554446.7863283,0.55,-0.35000000000000003,0.06,-0.5530512067257032,-0.35997415822383044,0.28361600344907856,-3.023100343404342,-0.32812634284318587,2.5663033741469095,3,0,0,0,0,0,1460,1540,1500,1540,1540,1540
1747554446.7863283,0.55,-0.35000000000000003,0.06,-0.5530512067257032,-0.35997415822383044,0.28361600344907856,-3.023100343404342,-0.32812634284318587,2.5663033741469095,9,0,0,0,0,0,1420,1580,1500,1580,1580,1580
1747554446.8682857,0.64,-0.36,-0.04,-0.5159629601208237,-0.3490658503988659,0.14726215563702155,-3.0839940533553927,-0.28758444684361534,2.533592372276304,3,0,0,0,0,0,1393,1594,1500,1587,1566,1566
1747554446.8695405,0.64,-0.36,-0.04,-0.5159629601208237,-0.3490658503988659,0.14726215563702155,-3.0839940533553927,-0.28758444684361534,2.533592372276304,9,0,0,0,0,0,1353,1634,1500,1627,1606,1606
1747554446.96958,0.64,-0.36,-0.04,-0.5159629601208237,-0.3490658503988659,0.14726215563702155,-3.0839940533553927,-0.28758444684361534,2.533592372276304,3,0,0,0,0,0,1393,1594,1500,1587,1566,1566
1747554446.96958,0.64,-0.36,-0.04,-0.5159629601208237,-0.3490658503988659,0.14726215563702155,-3.0839940533553927,-0.28758444684361534,2.533592372276304,9,0,0,0,0,0,1353,1634,1500,1627,1606,1606
1747554447.069423,0.63,-0.26,-0.07,-0.5061454830783556,-0.33488505022641196,0.03599741582238305,3.1341407919484654,-0.2523712392146314,2.518179221225002,3,0,0,0,0,0,1393,1594,1500,1587,1566,1566
1747554447.069423,0.63,-0.26,-0.07,-0.5061454830783556,-0.33488505022641196,0.03599741582238305,3.1341407919484654,-0.2523712392146314,2.518179221225002,9,0,0,0,0,0,1353,1634,1500,1627,1606,1606
1747554447.15245,0.51,-0.21,0.11,-0.4243331743911214,-0.32179508083645453,-0.2083486794568231,3.0622253868083247,-0.2056789240642608,2.5265991481697374,3,0,0,0,0,0,1393,1594,1500,1587,1566,1566
1747554447.153618,0.51,-0.21,0.11,-0.4243331743911214,-0.32179508083645453,-0.2083486794568231,3.0622253868083247,-0.2056789240642608,2.5265991481697374,9,0,0,0,0,0,1353,1634,1500,1627,1606,1606
1747554447.2526925,0.51,-0.21,0.11,-0.4243331743911214,-0.32179508083645453,-0.2083486794568231,3.0622253868083247,-0.2056789240642608,2.5265991481697374,3,0,0,0,0,0,1393,1594,1500,1587,1566,1566
1747554447.2537599,0.51,-0.21,0.11,-0.4243331743911214,-0.32179508083645453,-0.2083486794568231,3.0622253868083247,-0.2056789240642608,2.5265991481697374,9,0,0,0,0,0,1353,1634,1500,1627,1606,1606
1747554447.3529546,1.01,0.08,-0.05,-0.46469391334349025,-0.2454369260617026,-0.7472190860100724,2.985651983701818,-0.16441738701760325,2.592135418496483,3,0,0,0,0,0,1393,1594,1500,1587,1566,1566
1747554447.3539536,1.01,0.08,-0.05,-0.46469391334349025,-0.2454369260617026,-0.7472190860100724,2.985651983701818,-0.16441738701760325,2.592135418496483,9,0,0,0,0,0,1353,1634,1500,1627,1606,1606
1747554447.453081,0.92,0.06,-0.03,-0.4046982203061852,-0.17016960206944712,-1.0264717663291651,2.898980113136343,-0.131037961545221,2.724369844541332,3,0,0,0,0,0,1393,1594,1500,1587,1566,1566
1747554447.4540985,0.92,0.06,-0.03,-0.4046982203061852,-0.17016960206944712,-1.0264717663291651,2.898980113136343,-0.131037961545221,2.724369844541332,9,0,0,0,0,0,1353,1634,1500,1627,1606,1606
1747554447.5517225,0.92,0.06,-0.03,-0.4046982203061852,-0.17016960206944712,-1.0264717663291651,2.898980113136343,-0.131037961545221,2.724369844541332,3,0,0,0,0,0,1393,1594,1500,1587,1566,1566
1747554447.5527804,0.92,0.06,-0.03,-0.4046982203061852,-0.17016960206944712,-1.0264717663291651,2.898980113136343,-0.131037961545221,2.724369844541332,9,0,0,0,0,0,1353,1634,1500,1627,1606,1606
1747554447.6354063,0.84,0.11,-0.1,-0.2203478180642841,-0.11780972450961724,-1.1813697374436618,2.8363884115484175,-0.08744217822341391,2.87510944924452,3,0,0,0,0,0,1393,1594,1500,1587,1566,1566
1747554447.6364284,0.84,0.11,-0.1,-0.2203478180642841,-0.11780972450961724,-1.1813697374436618,2.8363884115484175,-0.08744217822341391,2.87510944924452,9,0,0,0,0,0,1353,1634,1500,1627,1606,1606
1747554447.7361472,0.84,0.11,-0.1,-0.2203478180642841,-0.11780972450961724,-1.1813697374436618,2.8363884115484175,-0.08744217822341391,2.87510944924452,3,0,0,0,0,0,1393,1594,1500,1587,1566,1566
1747554447.7372994,0.84,0.11,-0.1,-0.2203478180642841,-0.11780972450961724,-1.1813697374436618,2.8363884115484175,-0.08744217822341391,2.87510944924452,9,0,0,0,0,0,1353,1634,1500,1627,1606,1606
1747554447.836294,0.8200000000000001,0.16,-0.04,-0.10253809355466686,-0.0916297857297023,-1.2566370614359172,2.799697303754206,-0.03232034447284246,3.049262819637587,3,0,0,0,0,0,1393,1594,1500,1587,1566,1566
1747554447.836294,0.8200000000000001,0.16,-0.04,-0.10253809355466686,-0.0916297857297023,-1.2566370614359172,2.799697303754206,-0.03232034447284246,3.049262819637587,9,0,0,0,0,0,1353,1634,1500,1627,1606,1606
1747554447.9364054,0.81,0.48,-0.22,-0.08508480103472356,-0.05126904677733343,-1.2828170002158321,2.780775297255342,0.029198824222518485,-3.0516972573145025,0,0,0,0,0,0,1393,1594,1500,1587,1566,1566
1747554447.9364054,0.81,0.48,-0.22,-0.08508480103472356,-0.05126904677733343,-1.2828170002158321,2.780775297255342,0.029198824222518485,-3.0516972573145025,0,0,0,0,0,0,1433,1554,1500,1547,1526,1526
1747554448.0359087,0.81,0.48,-0.22,-0.08508480103472356,-0.05126904677733343,-1.2828170002158321,2.780775297255342,0.029198824222518485,-3.0516972573145025,0,0,0,0,0,0,1473,1514,1500,1507,1500,1500
1747554448.0369408,0.81,0.48,-0.22,-0.08508480103472356,-0.05126904677733343,-1.2828170002158321,2.780775297255342,0.029198824222518485,-3.0516972573145025,0,0,0,0,0,0,1500,1500,1500,1500,1500,1500
1747554448.1181457,0.44,0.27,0.06,-0.028361600344907856,0.050178215994836975,-1.1977321991811087,2.7761563309309123,0.08311983722519643,-2.8821411365506733,0,0,0,0,0,0,1500,1500,1500,1500,1500,1500
1747554448.119143,0.44,0.27,0.06,-0.028361600344907856,0.050178215994836975,-1.1977321991811087,2.7761563309309123,0.08311983722519643,-2.8821411365506733,0,0,0,0,0,0,1500,1500,1500,1500,1500,1500
1747554448.218514,0.44,0.27,0.06,-0.028361600344907856,0.050178215994836975,-1.1977321991811087,2.7761563309309123,0.08311983722519643,-2.8821411365506733,0,0,0,0,0,0,1500,1500,1500,1500,1500,1500
1747554448.2195597,0.44,0.27,0.06,-0.028361600344907856,0.050178215994836975,-1.1977321991811087,2.7761563309309123,0.08311983722519643,-2.8821411365506733,0,0,0,0,0,0,1500,1500,1500,1500,1500,1500
1747554448.318618,-0.04,-0.03,0.33,0.10581058590215622,0.13308135546456762,-0.9010262263420726,2.7940946950684906,0.1226580112778133,-2.716149837959086,0,0,0,0,0,0,1500,1500,1500,1500,1500,1500
1747554448.3198872,-0.04,-0.03,0.33,0.10581058590215622,0.13308135546456762,-0.9010262263420726,2.7940946950684906,0.1226580112778133,-2.716149837959086,0,0,0,0,0,0,1500,1500,1500,1500,1500,1500
1747554448.402264,0.54,0.23,0.0,0.2007128639793479,0.1810779098944117,-0.5792311455056182,2.8329629222398136,0.12954626576283865,-2.603259498632734,0,0,0,0,0,0,1500,1500,1500,1500,1500,1500
1747554448.4183948,0.54,0.23,0.0,0.2007128639793479,0.1810779098944117,-0.5792311455056182,2.8329629222398136,0.12954626576283865,-2.603259498632734,0,0,0,0,0,0,1500,1500,1500,1500,1500,1500
1747554448.501903,0.54,0.23,0.0,0.2007128639793479,0.1810779098944117,-0.5792311455056182,2.8329629222398136,0.12954626576283865,-2.603259498632734,-3,0,0,0,0,0,1540,1460,1500,1460,1460,1460
1747554448.5193355,0.54,0.23,0.0,0.2007128639793479,0.1810779098944117,-0.5792311455056182,2.8329629222398136,0.12954626576283865,-2.603259498632734,-3,0,0,0,0,0,1580,1420,1500,1420,1426,1426
1747554448.6025445,0.43,0.29,-0.1,0.20398535632683726,0.23125612588924865,-0.4134248665661568,2.868376665629372,0.11227101428999554,-2.5269588788463695,-3,0,0,0,0,0,1594,1393,1500,1402,1426,1426
1747554448.6035435,0.43,0.29,-0.1,0.20398535632683726,0.23125612588924865,-0.4134248665661568,2.868376665629372,0.11227101428999554,-2.5269588788463695,-9,0,0,0,0,0,1634,1353,1500,1362,1386,1386
1747554448.6987286,0.54,0.01,-0.29,0.17780541754692233,0.24107360293171676,-0.29670597283903605,2.8996266153031782,0.08166555711559761,-2.4643797628229738,-3,0,0,0,0,0,1594,1393,1500,1402,1426,1426
1747554448.699723,0.54,0.01,-0.29,0.17780541754692233,0.24107360293171676,-0.29670597283903605,2.8996266153031782,0.08166555711559761,-2.4643797628229738,-9,0,0,0,0,0,1634,1353,1500,1362,1386,1386
1747554448.802164,0.54,0.01,-0.29,0.17780541754692233,0.24107360293171676,-0.29670597283903605,2.8996266153031782,0.08166555711559761,-2.4643797628229738,-3,0,0,0,0,0,1594,1393,1500,1402,1426,1426
1747554448.80328,0.54,0.01,-0.29,0.17780541754692233,0.24107360293171676,-0.29670597283903605,2.8996266153031782,0.08166555711559761,-2.4643797628229738,-9,0,0,0,0,0,1634,1353,1500,1362,1386,1386
1747554448.8859375,0.58,0.2,-0.06,0.09708393964218458,0.12871803233458182,0.016362461737446838,2.9269316335322615,0.05318955112979449,-2.4346050496055365,-3,0,0,0,0,0,1594,1393,1500,1402,1426,1426
1747554448.8870356,0.58,0.2,-0.06,0.09708393964218458,0.12871803233458182,0.016362461737446838,2.9269316335322615,0.05318955112979449,-2.4346050496055365,-9,0,0,0,0,0,1634,1353,1500,1362,1386,1386
1747554448.9853823,0.58,0.2,-0.06,0.09708393964218458,0.12871803233458182,0.016362461737446838,2.9269316335322615,0.05318955112979449,-2.4346050496055365,-3,0,0,0,0,0,1594,1393,1500,1402,1426,1426
1747554448.9866056,0.58,0.2,-0.06,0.09708393964218458,0.12871803233458182,0.016362461737446838,2.9269316335322615,0.05318955112979449,-2.4346050496055365,-9,0,0,0,0,0,1634,1353,1500,1362,1386,1386
1747554449.0856588,0.15,-0.05,0.0,0.06872233929727672,0.003272492347489368,0.32070425005395803,2.940630259387788,0.029151433263198235,-2.458020273539701,0,0,0,0,0,0,1594,1393,1500,1402,1426,1426
1747554449.0866964,0.15,-0.05,0.0,0.06872233929727672,0.003272492347489368,0.32070425005395803,2.940630259387788,0.029151433263198235,-2.458020273539701,0,0,0,0,0,0,1554,1433,1500,1442,1466,1466
1747554449.1859465,0.37,0.28,-0.1,0.007635815477475192,-0.10035643198967395,0.5214171140333059,2.9452381725027275,0.013274016375030775,-2.5251758364971133,0,0,0,0,0,0,1514,1473,1500,1482,1500,1500
1747554449.1859465,0.37,0.28,-0.1,0.007635815477475192,-0.10035643198967395,0.5214171140333059,2.9452381725027275,0.013274016375030775,-2.5251758364971133,0,0,0,0,0,0,1500,1500,1500,1500,1500,1500
1747554449.2867146,0.37,0.28,-0.1,0.007635815477475192,-0.10035643198967395,0.5214171140333059,2.9452381725027275,0.013274016375030775,-2.5251758364971133,0,0,0,0,0,0,1500,1500,1500,1500,1500,1500
1747554449.2877102,0.37,0.28,-0.1,0.007635815477475192,-0.10035643198967395,0.5214171140333059,2.9452381725027275,0.013274016375030775,-2.5251758364971133,0,0,0,0,0,0,1500,1500,1500,1500,1500,1500
1747554449.3682108,0.63,0.45,0.29,-0.07526732399225546,-0.1559888018969932,0.5770494839406252,2.9378555860630873,0.00999632734709967,-2.6211158730976494,0,0,0,0,0,0,1500,1500,1500,1500,1500,1500
1747554449.3697002,0.63,0.45,0.29,-0.07526732399225546,-0.1559888018969932,0.5770494839406252,2.9378555860630873,0.00999632734709967,-2.6211158730976494,0,0,0,0,0,0,1500,1500,1500,1500,1500,1500
1747554449.4687564,0.63,0.45,0.29,-0.07526732399225546,-0.1559888018969932,0.5770494839406252,2.9378555860630873,0.00999632734709967,-2.6211158730976494,0,0,0,0,0,0,1500,1500,1500,1500,1500,1500
1747554449.4699776,0.63,0.45,0.29,-0.07526732399225546,-0.1559888018969932,0.5770494839406252,2.9378555860630873,0.00999632734709967,-2.6211158730976494,0,0,0,0,0,0,1500,1500,1500,1500,1500,1500
1747554449.5692043,0.58,0.05,-0.08,-0.10362892433716332,-0.18216874067690814,0.3959715740462135,2.917626709061501,0.007952848463412335,-2.6964467637279914,0,0,0,0,-0.000172,0,1500,1500,1500,1500,1500,1500
1747554449.6512923,0.55,0.01,-0.12,-0.1308996938995747,-0.20398535632683726,0.31525009614147576,2.8975664211411774,0.007661633644587346,-2.7559086683122787,0,0,0,0.001789,-0.550792,0,1500,1500,1500,1500,1460,1460
1747554449.7508616,0.55,0.01,-0.12,-0.1308996938995747,-0.20398535632683726,0.31525009614147576,2.8975664211411774,0.007661633644587346,-2.7559086683122787,0,0,0,0,-0.56,0,1500,1500,1500,1500,1420,1420
1747554449.8510187,0.48,0.05,-0.12,-0.1461713248545251,-0.22689280275926285,0.2617993877991494,2.8767723263488074,0.011650214879415935,-2.804059299694232,0,0,0,0,-0.56,0,1500,1500,1500,1500,1419,1419
1747554449.9496975,0.34,0.08,-0.31,-0.1461713248545251,-0.22689280275926285,0.2617993877991494,2.84385425037048,0.021121470452211178,-2.849776497394685,0,0,0,0,-0.56,0,1500,1500,1500,1500,1419,1419
1747554450.0518126,0.34,0.08,-0.31,-0.1461713248545251,-0.22689280275926285,0.2617993877991494,2.84385425037048,0.021121470452211178,-2.849776497394685,0,0,0,0,-0.56,0,1500,1500,1500,1500,1419,1419
1747554450.1351283,0.64,-0.08,-0.19,-0.8693921336496754,-0.20725784867432664,0.18980455615438332,2.749915720849846,0.031052841206803374,-2.889035119173982,0,0,0,0,-0.56,0,1500,1500,1500,1500,1419,1419
1747554450.235207,0.64,-0.08,-0.19,-0.8693921336496754,-0.20725784867432664,0.18980455615438332,2.749915720849846,0.031052841206803374,-2.889035119173982,0,0,0,0,-0.56,0,1500,1500,1500,1500,1419,1419
1747554450.3354826,0.71,-0.18,-0.33,-1.1671889372712079,-0.18435040224190105,0.16253378659197193,2.5900080704609847,0.04327337823685768,-2.927217263398929,0,0,0,0,-0.56,0,1500,1500,1500,1500,1419,1419
1747554450.4353046,0.8200000000000001,-0.25,-0.25,-1.3209960776032081,-0.13962634015954636,0.1538071403320003,2.3924601928473255,0.048735925071034206,-2.961801500784731,0,0,0,0,-0.56,0,1500,1500,1500,1500,1419,1419
1747554450.5346317,0.8200000000000001,-0.25,-0.25,-1.3209960776032081,-0.13962634015954636,0.1538071403320003,2.3924601928473255,0.048735925071034206,-2.961801500784731,0,0,0,0,-0.56,0,1500,1500,1500,1500,1419,1419
1747554450.618145,0.81,-0.4,-0.17,-1.2424562612634633,-0.0719948316447661,0.1712604328519436,2.191380405894092,0.04051170634963043,-2.989780677602867,0,0,0,0,-0.56,0,1500,1500,1500,1500,1419,1419
1747554450.718534,0.81,-0.4,-0.17,-1.2424562612634633,-0.0719948316447661,0.1712604328519436,2.191380405894092,0.04051170634963043,-2.989780677602867,0,0,0,0,-0.56,0,1500,1500,1500,1500,1419,1419
1747554450.8187425,0.84,-0.41000000000000003,-0.33,-1.114829059711378,-0.0272707695624114,0.22471114119426994,2.020518719326626,0.018760313815386547,-3.010417009418603,0,0,0,0,-0.56,0,1500,1500,1500,1500,1419,1419
1747554450.9022381,0.84,-0.41000000000000003,-0.33,-1.114829059711378,-0.0272707695624114,0.22471114119426994,2.020518719326626,0.018760313815386547,-3.010417009418603,0,0,0,0,-0.56,0,1500,1500,1500,1500,1419,1419
1747554451.0016618,0.86,-0.34,-0.44,-0.9697485656393493,-0.004363323129985824,0.28361600344907856,1.8597305429259137,-0.017783588234255143,-3.0260873542478133,0,0,0,0,-0.56,0,1500,1500,1500,1500,1419,1419
1747554451.102353,0.62,-0.29,-0.42,-0.8759371183446542,0.00545415391248228,0.3097959422289935,-1.6459993632189678,-0.1434208437326638,3.10922361860823,0,0,0,0,-0.56,0,1500,1500,1500,1500,1419,1419
1747554451.201257,0.62,-0.29,-0.42,-0.8759371183446542,0.00545415391248228,0.3097959422289935,-1.6459993632189678,-0.1434208437326638,3.10922361860823,0,0,0,0,-0.56,0,1500,1500,1500,1500,1419,1419
1747554451.3013253,0.51,-0.25,-0.5700000000000001,-0.7941248096574199,-0.001090830782496456,0.28688849579656794,1.5989075756872826,-0.10702473713123223,-3.039572463399529,0,0,0,0,-0.56,0,1500,1500,1500,1500,1419,1419
1747554451.3845003,0.43,-0.24,-0.53,-0.7646723785300157,-0.003272492347489368,0.23452861823673804,1.4791987763671695,-0.14726522188384142,-3.0385363010687585,0,0,0,0,-0.56,0,1500,1500,1500,1500,1419,1419
1747554451.4851835,0.43,-0.24,-0.53,-0.7646723785300157,-0.003272492347489368,0.23452861823673804,1.4791987763671695,-0.14726522188384142,-3.0385363010687585,0,0,0,0,-0.56,0,1500,1500,1500,1500,1419,1419
1747554451.5850515,0.21,-0.09,-0.5700000000000001,-0.7090400086226963,0.0,0.17998707911191522,1.3734684963975068,-0.1772232452421003,-3.0347260563144713,0,0,0,0,-0.56,0,1500,1500,1500,1500,1419,1419
1747554451.6681552,0.21,-0.09,-0.5700000000000001,-0.7090400086226963,0.0,0.17998707911191522,1.3734684963975068,-0.1772232452421003,-3.0347260563144713,0,0,0,0,-0.56,0,1500,1500,1500,1500,1419,1419
1747554451.768081,0.09,-0.01,-0.51,-0.6883142237552637,-0.001090830782496456,0.12980886311707826,1.2655928359423871,-0.2006143942251395,-3.0289094342098264,0,0,0,0,-0.56,0,1500,1500,1500,1500,1419,1419
1747554451.8510091,0.0,0.0,-0.54,-0.6795875774952921,-0.003272492347489368,0.0916297857297023,1.1646371961384279,-0.21726479932922418,-3.0240883479999225,0,0,0,0,-0.56,0,1500,1500,1500,1500,1419,1419
1747554451.951253,0.0,0.0,-0.54,-0.6795875774952921,-0.003272492347489368,0.0916297857297023,1.1646371961384279,-0.21726479932922418,-3.0240883479999225,0,0,0,0,-0.56,0,1500,1500,1500,1500,1419,1419
1747554452.051927,-0.37,0.0,-0.45,-0.6839509006252779,0.0,0.05672320068981571,1.071769230908404,-0.22543998950255287,-3.020827087396193,0,0,0,0,-0.56,0,1500,1500,1500,1500,1419,1419
1747554452.134529,-0.37,0.0,-0.45,-0.6839509006252779,0.0,0.05672320068981571,1.071769230908404,-0.22543998950255287,-3.020827087396193,0,0,0,0,-0.56,0,1500,1500,1500,1500,1419,1419
1747554452.234774,-0.44,-0.16,-0.34,-0.7221299780126539,0.015271630954950384,0.04363323129985824,0.9712635418690349,-0.22508003283701758,-3.0180549877568064,0,0,0,0,-0.56,0,1500,1500,1500,1500,1419,1419
1747554452.3351386,-0.44,-0.07,-0.4,-0.7243116395776468,0.039269908169872414,0.039269908169872414,0.8683623288169267,-0.22059768214495915,-3.011952365557996,0,0,0,0,-0.56,0,1500,1500,1500,1500,1419,1419
1747554452.4172795,-0.44,-0.07,-0.4,-0.7243116395776468,0.039269908169872414,0.039269908169872414,0.8683623288169267,-0.22059768214495915,-3.011952365557996,0,0,0,0,-0.56,0,1500,1500,1500,1500,1419,1419
1747554452.5184503,-0.66,-0.18,-0.26,-0.6784967467127956,0.0818123086872342,0.0545415391248228,0.7594821226880665,-0.2113288171688114,-2.9997697946001955,0,0,0,0,-0.56,0,1500,1500,1500,1500,1419,1419
1747554452.6009686,-0.66,-0.18,-0.26,-0.6784967467127956,0.0818123086872342,0.0545415391248228,0.7594821226880665,-0.2113288171688114,-2.9997697946001955,0,0,0,0,-0.56,0,1500,1500,1500,1500,1419,1419
1747554452.7011259,-0.81,-0.15,-0.31,-0.6086835766330224,0.1407171709420428,0.07526732399225546,0.6636512771729913,-0.1953734809749013,-2.9810568951663328,0,0,0,0,-0.56,0,1500,1500,1500,1500,1419,1419
1747554452.8011742,-0.84,-0.13,-0.35000000000000003,-0.5585053606381855,0.1636246173744684,0.10471975511965978,0.5699441542661603,-0.16744550001415193,-2.956047113555339,0,0,0,0,-0.56,0,1500,1500,1500,1500,1419,1419
1747554452.8847384,-0.84,-0.13,-0.35000000000000003,-0.5585053606381855,0.1636246173744684,0.10471975511965978,0.5699441542661603,-0.16744550001415193,-2.956047113555339,0,0,0,0,-0.177142,0,1500,1500,1500,1500,1450,1450
1747554452.985263,-0.89,-0.19,-0.32,-0.47778388273344774,0.18544123302439752,0.14508049407202864,0.4882375772732858,-0.12714901476358226,-2.9254927321771342,0,0,0,0,0,0,1500,1500,1500,1500,1490,1490
1747554453.085268,-0.89,-0.19,-0.32,-0.47778388273344774,0.18544123302439752,0.14508049407202864,0.4882375772732858,-0.12714901476358226,-2.9254927321771342,0,0,0,0,0,0,1500,1500,1500,1500,1500,1500
1747554453.1851888,-1.07,-0.34,-0.31,-0.20616701789183017,0.17998707911191522,0.15707963267948966,0.42428445154313976,-0.087519168912066,-2.8912863442973045,0,0,0,0,0,0,1500,1500,1500,1500,1500,1500
1747554453.285959,-0.68,-0.15,-0.39,0.24870941840919197,0.14835298641951802,0.16798794050445423,0.4281101286823829,-0.0481890585857038,-2.859639060171201,0,0,-3.475232,0,0,0,1500,1500,1500,1500,1540,1460
1747554453.3692393,-0.68,-0.15,-0.39,0.24870941840919197,0.14835298641951802,0.16798794050445423,0.4281101286823829,-0.0481890585857038,-2.859639060171201,0,0,-7.5,0,0,0,1500,1500,1538,1500,1580,1420
1747554453.468735,-0.67,-0.13,-0.4,0.5235987755982988,0.1189005552921137,0.16144295580947549,0.49052903677306775,-0.017625581359949592,-2.827420520165785,0,0,-7.5,0,0,0,1500,1500,1538,1500,1599,1390
1747554453.568746,-1.03,-0.02,-0.64,0.6708609312353204,0.09926560120717749,0.14944381720201447,0.5802148535806935,0.0005650669637029402,2.395481693128925,0,0,-7.5,0,0,0,1500,1500,1538,1500,1599,1390
1747554453.6529214,-1.03,-0.02,-0.64,0.6708609312353204,0.09926560120717749,0.14944381720201447,0.5802148535806935,0.0005650669637029402,2.395481693128925,0,0,-7.5,0,0,0,1500,1500,1538,1500,1599,1390
1747554453.7522862,-0.84,-0.22,-0.84,0.6915867161027531,0.07853981633974483,0.14835298641951802,0.6902592683995147,0.0021234543188224497,2.4047449241693215,0,0,-7.5,0,0,0,1500,1500,1538,1500,1599,1390
1747554453.8518968,-0.84,-0.22,-0.84,0.6915867161027531,0.07853981633974483,0.14835298641951802,0.6902592683995147,0.0021234543188224497,2.4047449241693215,0,0,-7.5,0,0,0,1500,1500,1538,1500,1599,1390
1747554453.9529257,-0.86,-0.19,-0.68,0.5846852994181004,0.04145156973486533,0.1407171709420428,0.8018903327206153,0.02068760284991254,2.427033694671582,0,0,-7.5,0,0,0,1500,1500,1538,1500,1599,1390
1747554454.0542336,-0.65,-0.18,-0.54,0.5050546522958591,0.02399827721492203,0.12435470920459599,0.8933811055281993,0.04096107349229328,2.4433744106136954,0,0,-7.5,0,0,0,1500,1500,1538,1500,1599,1390
1747554454.1531365,-0.65,-0.18,-0.54,0.5050546522958591,0.02399827721492203,0.12435470920459599,0.8933811055281993,0.04096107349229328,2.4433744106136954,0,0,-7.5,0,0,0,1500,1500,1538,1500,1599,1390
1747554454.2532756,-0.68,-0.18,-0.33,0.4232423436086249,0.002181661564992912,0.09817477042468103,0.9737267285366609,0.05583033157540284,2.4556967300572357,0,0,-7.5,0.040469,-0.523624,0,1500,1500,1500,1500,1571,1360
