time,ay,ax,az,gy,gx,gz,roll,pitch,yaw,cmd_fx,cmd_fy,cmd_fz,cmd_tx,cmd_ty,cmd_tz,pwm_1,pwm_2,pwm_3,pwm_4,pwm_5,pwm_6
1747543101.0264037,0.0,0.0,0.0,0.0,0.0,0.0,0.0,0.0,0.0,0,0,0,0,0,0,1500,1500,1500,1500,1500,1500
1747543101.1248174,-0.06,-0.25,0.19,0.002181661564992912,0.002181661564992912,-0.002181661564992912,2.098789953602084,-0.1592193542702704,-0.27600334794888753,0,0,0,0,0,0,1500,1500,1500,1500,1500,1500
1747543101.22537,-0.06,-0.25,0.19,0.002181661564992912,0.002181661564992912,-0.002181661564992912,2.098789953602084,-0.1592193542702704,-0.27600334794888753,0,0,0,0,0,0,1500,1500,1500,1500,1500,1500
1747543101.309837,-0.03,-0.27,0.08,0.0,0.0,0.001090830782496456,2.098789953602084,-0.1592193542702704,-0.27600334794888753,0,0,0,0,0,0,1500,1500,1500,1500,1500,1500
1747543101.408997,-0.03,-0.27,0.08,0.0,0.0,0.001090830782496456,2.098789953602084,-0.1592193542702704,-0.27600334794888753,0,0,0,0,0,0,1500,1500,1500,1500,1500,1500
1747543101.509115,-0.04,-0.26,0.15,-0.00545415391248228,-0.001090830782496456,-0.003272492347489368,2.098789953602084,-0.1592193542702704,-0.27600334794888753,0,0,0,0,0,0,1500,1500,1500,1500,1500,1500
1747543101.6098092,0.01,0.01,-0.05,0.0,-0.00545415391248228,-0.001090830782496456,2.098789953602084,-0.1592193542702704,-0.27600334794888753,0,0,0,0,0,0,1500,1500,1500,1500,1500,1500
1747543101.709472,0.01,0.01,-0.05,0.0,-0.00545415391248228,-0.001090830782496456,2.098789953602084,-0.1592193542702704,-0.27600334794888753,0,0,0,0,0,0,1500,1500,1500,1500,1500,1500
1747543101.7928863,0.0,-0.01,0.01,0.0,-0.001090830782496456,-0.001090830782496456,2.098789953602084,-0.1592193542702704,-0.27600334794888753,0,0,0,0,0,0,1500,1500,1500,1500,1500,1500
1747543101.8922951,-0.02,-0.02,-0.01,-0.001090830782496456,-0.002181661564992912,0.0,2.098789953602084,-0.1592193542702704,-0.27600334794888753,0,0,0,0,0,0,1500,1500,1500,1500,1500,1500
1747543101.9928966,-0.02,-0.02,-0.01,-0.001090830782496456,-0.002181661564992912,0.0,2.098789953602084,-0.1592193542702704,-0.27600334794888753,0,0,0,0,0,0,1500,1500,1500,1500,1500,1500
1747543102.0931706,0.0,-0.01,0.04,-0.003272492347489368,-0.001090830782496456,0.0,2.098789953602084,-0.1592193542702704,-0.27600334794888753,0,0,0,0,0,0,1500,1500,1500,1500,1500,1500
1747543102.192654,0.0,-0.01,0.04,-0.003272492347489368,-0.001090830782496456,0.0,2.098789953602084,-0.1592193542702704,-0.27600334794888753,0,0,0,0,0,0,1500,1500,1500,1500,1500,1500
1747543102.2764585,0.0,-0.03,-0.02,0.0,0.001090830782496456,-0.002181661564992912,2.098789953602084,-0.1592193542702704,-0.27600334794888753,0,0,0,0,0,0,1500,1500,1500,1500,1500,1500
1747543102.3758497,0.03,0.0,0.0,0.002181661564992912,0.003272492347489368,0.002181661564992912,2.098789953602084,-0.1592193542702704,-0.27600334794888753,0,0,0,0,0,0,1500,1500,1500,1500,1500,1500
1747543102.4745033,0.03,0.0,0.0,0.002181661564992912,0.003272492347489368,0.002181661564992912,2.098789953602084,-0.1592193542702704,-0.27600334794888753,0,0,0,0,0,0,1500,1500,1500,1500,1500,1500
1747543102.5765853,-0.01,0.0,-0.02,0.001090830782496456,0.0,0.001090830782496456,2.098789953602084,-0.1592193542702704,-0.27600334794888753,0,0,0,0,0,0,1500,1500,1500,1500,1500,1500
1747543102.6703289,0.0,0.0,0.0,0.001090830782496456,-0.002181661564992912,0.0,2.098789953602084,-0.1592193542702704,-0.27600334794888753,0,0,0,0,0,0,1500,1500,1500,1500,1500,1500
1747543102.7595458,0.0,0.0,0.0,0.001090830782496456,-0.002181661564992912,0.0,2.098789953602084,-0.1592193542702704,-0.27600334794888753,0,0,0,0,0,0,1500,1500,1500,1500,1500,1500
1747543102.8594368,-0.01,-0.01,-0.01,0.0,-0.001090830782496456,-0.002181661564992912,2.098789953602084,-0.1592193542702704,-0.27600334794888753,0,0,0,0,0,0,1500,1500,1500,1500,1500,1500
1747543102.9591506,-0.01,-0.01,-0.01,0.0,-0.001090830782496456,-0.002181661564992912,2.098789953602084,-0.1592193542702704,-0.27600334794888753,0,0,0,0,0,0,1500,1500,1500,1500,1500,1500
1747543103.041735,0.01,0.02,-0.03,0.002181661564992912,0.0,0.0,2.098789953602084,-0.1592193542702704,-0.27600334794888753,0,0,0,0,0,0,1500,1500,1500,1500,1500,1500
1747543103.1359873,-0.01,-0.02,0.04,-0.001090830782496456,0.003272492347489368,0.002181661564992912,2.098789953602084,-0.1592193542702704,-0.27600334794888753,0,0,0,0,0,0,1500,1500,1500,1500,1500,1500
1747543103.2417042,-0.01,-0.02,0.04,-0.001090830782496456,0.003272492347489368,0.002181661564992912,2.098789953602084,-0.1592193542702704,-0.27600334794888753,0,0,0,0,0,0,1500,1500,1500,1500,1500,1500
1747543103.3421206,0.01,0.0,-0.01,0.002181661564992912,0.001090830782496456,0.0,2.098789953602084,-0.1592193542702704,-0.27600334794888753,0,0,0,0,0,0,1500,1500,1500,1500,1500,1500
1747543103.4418323,0.01,0.0,-0.01,0.002181661564992912,0.001090830782496456,0.0,2.098789953602084,-0.1592193542702704,-0.27600334794888753,0,0,0,0,0,0,1500,1500,1500,1500,1500,1500
1747543103.5263557,-0.02,-0.03,-0.01,0.002181661564992912,0.002181661564992912,0.001090830782496456,2.098789953602084,-0.1592193542702704,-0.27600334794888753,0,0,0,0,0,0,1500,1500,1500,1500,1500,1500
1747543103.6252027,0.02,0.0,-0.04,0.004363323129985824,-0.003272492347489368,-0.002181661564992912,2.098789953602084,-0.1592193542702704,-0.27600334794888753,0,0,0,0,0,0,1500,1500,1500,1500,1500,1500
1747543103.7251353,0.02,0.0,-0.04,0.004363323129985824,-0.003272492347489368,-0.002181661564992912,2.098789953602084,-0.1592193542702704,-0.27600334794888753,0,0,0,0,0,0,1500,1500,1500,1500,1500,1500
1747543103.8261132,-0.03,-0.04,0.0,-0.001090830782496456,0.006544984694978736,0.0,2.098789953602084,-0.1592193542702704,-0.27600334794888753,0,0,0,0,0,0,1500,1500,1500,1500,1500,1500
1747543103.9250002,-0.03,-0.04,0.0,-0.001090830782496456,0.006544984694978736,0.0,2.098789953602084,-0.1592193542702704,-0.27600334794888753,0,0,0,0,0,0,1500,1500,1500,1500,1500,1500
1747543104.0089858,0.0,0.0,0.0,0.002181661564992912,-0.002181661564992912,-0.002181661564992912,2.098789953602084,-0.1592193542702704,-0.27600334794888753,0,0,0,0,0,0,1500,1500,1500,1500,1500,1500
1747543104.1090152,0.01,0.0,0.02,0.001090830782496456,0.004363323129985824,0.0,2.098789953602084,-0.1592193542702704,-0.27600334794888753,0,0,0,0,0,0,1500,1500,1500,1500,1500,1500
1747543104.208594,0.01,0.0,0.02,0.001090830782496456,0.004363323129985824,0.0,2.098789953602084,-0.1592193542702704,-0.27600334794888753,0,0,0,0,0,0,1500,1500,1500,1500,1500,1500
1747543104.2927501,0.01,0.0,-0.04,-0.00545415391248228,-0.001090830782496456,-0.001090830782496456,2.098789953602084,-0.1592193542702704,-0.27600334794888753,0,0,0,0,0,0,1500,1500,1500,1500,1500,1500
1747543104.3923705,0.01,0.0,-0.04,-0.00545415391248228,-0.001090830782496456,-0.001090830782496456,2.098789953602084,-0.1592193542702704,-0.27600334794888753,0,0,0,0,0,0,1500,1500,1500,1500,1500,1500
1747543104.4919126,0.0,0.0,0.03,0.003272492347489368,0.004363323129985824,0.002181661564992912,2.098789953602084,-0.1592193542702704,-0.27600334794888753,0,0,0,0,0,0,1500,1500,1500,1500,1500,1500
1747543104.592515,-0.03,-0.01,-0.01,0.001090830782496456,0.004363323129985824,-0.003272492347489368,2.098789953602084,-0.1592193542702704,-0.27600334794888753,0,0,0,0,0,0,1500,1500,1500,1500,1500,1500
1747543104.692737,-0.03,-0.01,-0.01,0.001090830782496456,0.004363323129985824,-0.003272492347489368,2.098789953602084,-0.1592193542702704,-0.27600334794888753,1,0,0,0,0,0,1460,1540,1464,1540,1540,1460
1747543104.775867,0.02,0.0,0.0,-0.002181661564992912,-0.001090830782496456,-0.002181661564992912,2.098789953602084,-0.1592193542702704,-0.27600334794888753,1,0,0,0,0,0,1442,1557,1464,1580,1580,1420
1747543104.8758907,-0.02,-0.05,0.03,-0.002181661564992912,-0.003272492347489368,-0.001090830782496456,2.098789953602084,-0.1592193542702704,-0.27600334794888753,1,0,0,0,0,0,1442,1557,1464,1620,1595,1404
1747543104.9755034,-0.02,-0.05,0.03,-0.002181661564992912,-0.003272492347489368,-0.001090830782496456,2.098789953602084,-0.1592193542702704,-0.27600334794888753,1,0,0,0,0,0,1442,1557,1464,1645,1595,1404
1747543105.0584242,0.0,-0.01,0.01,0.0,0.001090830782496456,-0.001090830782496456,2.098789953602084,-0.1592193542702704,-0.27600334794888753,1,0,0,0,0,0,1442,1557,1464,1645,1595,1404
1747543105.1591098,0.0,-0.01,0.01,0.0,0.001090830782496456,-0.001090830782496456,2.098789953602084,-0.1592193542702704,-0.27600334794888753,1,0,0,0,0,0,1442,1557,1464,1645,1595,1404
1747543105.2431052,-0.03,-0.05,0.03,0.0,0.001090830782496456,0.001090830782496456,2.098789953602084,-0.1592193542702704,-0.27600334794888753,1,0,0,0,0,0,1442,1557,1464,1645,1595,1404
1747543105.3419635,-0.03,-0.05,0.03,0.0,0.001090830782496456,0.001090830782496456,2.098789953602084,-0.1592193542702704,-0.27600334794888753,0,0,0,0,0,0,1482,1517,1500,1605,1555,1444
1747543105.4427848,0.0,0.0,-0.04,-0.003272492347489368,0.003272492347489368,0.0,2.098789953602084,-0.1592193542702704,-0.27600334794888753,0,0,0,0,0,0,1500,1500,1500,1565,1515,1484
1747543105.5265164,0.0,-0.01,0.0,-0.001090830782496456,0.002181661564992912,0.001090830782496456,2.098789953602084,-0.1592193542702704,-0.27600334794888753,0,0,0,0,0,0,1500,1500,1500,1525,1500,1500
1747543105.6256125,0.0,-0.01,0.0,-0.001090830782496456,0.002181661564992912,0.001090830782496456,2.098789953602084,-0.1592193542702704,-0.27600334794888753,0,0,0,0,0,0,1500,1500,1500,1500,1500,1500
1747543105.7257607,0.0,0.0,-0.05,0.003272492347489368,-0.001090830782496456,0.0,2.098789953602084,-0.1592193542702704,-0.27600334794888753,0,0,0,0,0,0,1500,1500,1500,1500,1500,1500
1747543105.8089693,0.0,0.0,-0.05,0.003272492347489368,-0.001090830782496456,0.0,2.098789953602084,-0.1592193542702704,-0.27600334794888753,0,0,0,0,0,0,1500,1500,1500,1500,1500,1500
1747543105.909421,-0.02,-0.03,0.01,-0.002181661564992912,0.001090830782496456,0.002181661564992912,2.098789953602084,-0.1592193542702704,-0.27600334794888753,0,0,0,0,0,0,1500,1500,1500,1500,1500,1500
1747543106.0085025,0.0,-0.02,-0.02,0.0,0.001090830782496456,-0.001090830782496456,2.098789953602084,-0.1592193542702704,-0.27600334794888753,0,0,0,0,0,0,1500,1500,1500,1500,1500,1500
1747543106.1086588,0.0,-0.02,-0.02,0.0,0.001090830782496456,-0.001090830782496456,2.098789953602084,-0.1592193542702704,-0.27600334794888753,0,0,0,0,0,0,1500,1500,1500,1500,1500,1500
1747543106.2092118,0.0,0.0,0.0,0.0,0.003272492347489368,0.001090830782496456,2.098789953602084,-0.1592193542702704,-0.27600334794888753,0,0,0,0,0,0,1500,1500,1500,1500,1500,1500
1747543106.2919521,0.0,-0.02,-0.06,0.003272492347489368,0.001090830782496456,0.0,2.098789953602084,-0.1592193542702704,-0.27600334794888753,0,0,0,0,0,0,1500,1500,1500,1500,1500,1500
1747543106.3925693,0.0,-0.02,-0.06,0.003272492347489368,0.001090830782496456,0.0,2.098789953602084,-0.1592193542702704,-0.27600334794888753,0,0,0,0,0,0,1500,1500,1500,1500,1500,1500
1747543106.491563,0.0,0.01,0.0,-0.001090830782496456,0.0,-0.002181661564992912,2.098789953602084,-0.1592193542702704,-0.27600334794888753,0,0,0,0,0,0,1500,1500,1500,1500,1500,1500
1747543106.5918465,0.0,0.01,0.0,-0.001090830782496456,0.0,-0.002181661564992912,2.098789953602084,-0.1592193542702704,-0.27600334794888753,0,0,0,0,0,0,1500,1500,1500,1500,1500,1500
1747543106.6932702,-0.03,-0.04,-0.02,0.001090830782496456,0.002181661564992912,-0.001090830782496456,2.098789953602084,-0.1592193542702704,-0.27600334794888753,0,0,0,0,0,0,1500,1500,1500,1500,1500,1500
1747543106.7750845,0.0,0.0,0.0,0.0,0.006544984694978736,-0.001090830782496456,2.098789953602084,-0.1592193542702704,-0.27600334794888753,0,0,0,0,0,0,1500,1500,1500,1500,1500,1500
1747543106.8760993,0.0,0.0,0.0,0.0,0.006544984694978736,-0.001090830782496456,2.098789953602084,-0.1592193542702704,-0.27600334794888753,0,0,0,0,0,0,1500,1500,1500,1500,1500,1500
1747543106.9751964,-0.04,-0.03,0.03,0.001090830782496456,0.0,0.0,2.098789953602084,-0.1592193542702704,-0.27600334794888753,0,0,0,0,0,0,1500,1500,1500,1500,1500,1500
1747543107.0750735,-0.04,-0.03,0.03,0.001090830782496456,0.0,0.0,2.098789953602084,-0.1592193542702704,-0.27600334794888753,0,0,0,0,0,0,1500,1500,1500,1500,1500,1500
1747543107.175553,0.03,0.02,0.0,0.002181661564992912,-0.004363323129985824,0.0,2.098789953602084,-0.1592193542702704,-0.27600334794888753,0,0,0,0,0,0,1500,1500,1500,1500,1500,1500
1747543107.25892,-0.02,-0.03,0.0,-0.001090830782496456,-0.004363323129985824,0.001090830782496456,2.1032089613364544,-0.16715736398965733,-0.29037130561417085,0,0,0,0,0,0,1500,1500,1500,1500,1500,1500
1747543107.3589358,-0.02,-0.03,0.0,-0.001090830782496456,-0.004363323129985824,0.001090830782496456,2.1032089613364544,-0.16715736398965733,-0.29037130561417085,0,0,0,0,0,0,1500,1500,1500,1500,1500,1500
1747543107.458503,0.0,0.0,0.0,0.002181661564992912,0.002181661564992912,-0.001090830782496456,2.098789953602084,-0.1592193542702704,-0.27600334794888753,0,0,0,0,0,0,1500,1500,1500,1500,1500,1500
1747543107.5417564,0.0,0.0,0.0,0.002181661564992912,0.002181661564992912,-0.001090830782496456,2.098789953602084,-0.1592193542702704,-0.27600334794888753,0,0,0,0,0,0,1500,1500,1500,1500,1500,1500
1747543107.6419284,-0.02,-0.03,0.0,0.0,-0.001090830782496456,0.0,2.098789953602084,-0.1592193542702704,-0.27600334794888753,0,0,0,0,0,0,1500,1500,1500,1500,1500,1500
1747543107.7423806,0.02,0.01,-0.04,-0.001090830782496456,0.0,0.0,2.098789953602084,-0.1592193542702704,-0.27600334794888753,0,0,0,0,0,0,1500,1500,1500,1500,1500,1500
1747543107.8420405,0.02,0.01,-0.04,-0.001090830782496456,0.0,0.0,2.098789953602084,-0.1592193542702704,-0.27600334794888753,0,0,0,0,0,0,1500,1500,1500,1500,1500,1500
1747543107.942837,-0.02,-0.02,0.0,0.0,0.001090830782496456,-0.001090830782496456,2.098789953602084,-0.1592193542702704,-0.27600334794888753,0,0,0,0,0,0,1500,1500,1500,1500,1500,1500
1747543108.0249147,-0.02,-0.02,0.0,0.0,0.001090830782496456,-0.001090830782496456,2.098789953602084,-0.1592193542702704,-0.27600334794888753,0,0,0,0,0,0,1500,1500,1500,1500,1500,1500
1747543108.1252928,-0.01,0.0,-0.03,0.001090830782496456,-0.004363323129985824,-0.001090830782496456,2.098789953602084,-0.1592193542702704,-0.27600334794888753,0,0,0,0,0,0,1500,1500,1500,1500,1500,1500
1747543108.2259145,-0.02,-0.04,0.03,0.0,0.001090830782496456,0.0,2.098789953602084,-0.1592193542702704,-0.27600334794888753,0,0,0,0,0,0,1500,1500,1500,1500,1500,1500
1747543108.325391,-0.02,-0.04,0.03,0.0,0.001090830782496456,0.0,2.098789953602084,-0.1592193542702704,-0.27600334794888753,0,0,0,0,0,0,1500,1500,1500,1500,1500,1500
1747543108.4254842,0.02,0.02,-0.01,0.001090830782496456,0.0,0.001090830782496456,2.098789953602084,-0.1592193542702704,-0.27600334794888753,0,0,0,0,0,0,1500,1500,1500,1500,1500,1500
1747543108.5101223,-0.01,-0.02,0.03,-0.002181661564992912,-0.002181661564992912,-0.002181661564992912,2.098789953602084,-0.1592193542702704,-0.27600334794888753,0,0,0,0,0,0,1500,1500,1500,1500,1500,1500
1747543108.6102457,-0.01,-0.02,0.03,-0.002181661564992912,-0.002181661564992912,-0.002181661564992912,2.098789953602084,-0.1592193542702704,-0.27600334794888753,0,0,0,0,0,0,1500,1500,1500,1500,1500,1500
1747543108.7092266,-0.01,-0.01,-0.02,0.0,-0.001090830782496456,0.002181661564992912,2.098789953602084,-0.1592193542702704,-0.27600334794888753,0,0,0,0,0,0,1500,1500,1500,1500,1500,1500
1747543108.7928514,-0.01,-0.01,-0.02,0.0,-0.001090830782496456,0.002181661564992912,2.098789953602084,-0.1592193542702704,-0.27600334794888753,0,0,0,0,0,0,1500,1500,1500,1500,1500,1500
1747543108.8933089,0.0,-0.01,0.0,0.002181661564992912,-0.004363323129985824,-0.001090830782496456,2.098789953602084,-0.1592193542702704,-0.27600334794888753,0,0,0,0,0,0,1500,1500,1500,1500,1500,1500
1747543108.9916863,-0.02,-0.03,-0.02,0.001090830782496456,-0.004363323129985824,0.0,2.098789953602084,-0.1592193542702704,-0.27600334794888753,0,0,0,0,0,0,1500,1500,1500,1500,1500,1500
1747543109.0914974,-0.02,-0.03,-0.02,0.001090830782496456,-0.004363323129985824,0.0,2.098789953602084,-0.1592193542702704,-0.27600334794888753,0,0,0,0,0,0,1500,1500,1500,1500,1500,1500
1747543109.1923141,0.01,-0.01,-0.01,-0.003272492347489368,0.001090830782496456,-0.001090830782496456,2.098789953602084,-0.1592193542702704,-0.27600334794888753,-1,0,0,0,0,0,1540,1460,1536,1460,1460,1540
1747543109.2766404,0.01,-0.01,-0.01,-0.003272492347489368,0.001090830782496456,-0.001090830782496456,2.098789953602084,-0.1592193542702704,-0.27600334794888753,-1,0,0,0,0,0,1557,1442,1536,1420,1420,1580
1747543109.3748257,-0.02,-0.03,0.0,0.0,0.003272492347489368,0.001090830782496456,2.098789953602084,-0.1592193542702704,-0.27600334794888753,-1,0,0,0,0,0,1557,1442,1536,1380,1404,1595
1747543109.4649074,0.15,-0.2,-0.02,-0.0272707695624114,-0.00545415391248228,0.03381575425739013,2.0984604522401176,-0.1594876062412949,-0.2761297710854072,-1,0,0,0,0,0,1557,1442,1536,1354,1404,1595
1747543109.5590787,0.15,-0.2,-0.02,-0.0272707695624114,-0.00545415391248228,0.03381575425739013,2.0984604522401176,-0.1594876062412949,-0.2761297710854072,-1,0,0,0,0,0,1557,1442,1536,1354,1404,1595
1747543109.6597996,0.19,-0.84,0.21,-0.08399397025222712,0.001090830782496456,0.20616701789183017,2.087274278702057,-0.17460443584924068,-0.284756504129055,-1,0,0,0,0,0,1557,1442,1536,1354,1404,1595
1747543109.7427406,0.19,-0.84,0.21,-0.08399397025222712,0.001090830782496456,0.20616701789183017,2.087274278702057,-0.17460443584924068,-0.284756504129055,-1,0,0,0,0,0,1557,1442,1536,1354,1404,1595
1747543109.8416812,-0.18,-0.41000000000000003,0.13,0.17780541754692233,-0.015271630954950384,0.4177881896961426,2.1062712991486867,-0.21662771227998406,-0.3105711182453958,-1,0,0,0,0,0,1557,1442,1536,1354,1404,1595
1747543109.9431589,0.1,-0.13,-0.14,0.22580197197676638,-0.07526732399225546,0.5508695451607103,2.146640230842204,-0.2739336501931501,-0.35382456854732897,-1,0,0,0,0,0,1557,1442,1536,1354,1404,1595
1747543110.026152,0.1,-0.13,-0.14,0.22580197197676638,-0.07526732399225546,0.5508695451607103,2.146640230842204,-0.2739336501931501,-0.35382456854732897,-1,0,0,0,0,0,1557,1442,1536,1354,1404,1595
1747543110.1252987,0.18,-0.16,-0.2,0.20725784867432664,-0.14180800172453928,0.65558930028037,2.2036424927072575,-0.3415152926951635,-0.4246281264214843,-1,0,0,0,0,0,1557,1442,1536,1354,1404,1595
1747543110.2237837,0.01,-0.08,-0.23,0.14835298641951802,-0.21380283336930536,0.7112216701876893,2.2672571452811505,-0.4081223583051514,-0.5198464297242974,-1,0,0,0,0,0,1557,1442,1536,1354,1404,1595
1747543110.3097892,0.01,-0.08,-0.23,0.14835298641951802,-0.21380283336930536,0.7112216701876893,2.2672571452811505,-0.4081223583051514,-0.5198464297242974,-1,0,0,0,0,0,1557,1442,1536,1354,1404,1595
1747543110.4089835,0.08,-0.13,-0.3,0.06544984694978735,-0.25743606466916363,0.7199483164476609,2.331606949055669,-0.46701510726345713,-0.6317752585789241,0,0,0,0,0,0,1517,1482,1500,1394,1444,1555
1747543110.5090594,0.08,-0.13,-0.3,0.06544984694978735,-0.25743606466916363,0.7199483164476609,2.331606949055669,-0.46701510726345713,-0.6317752585789241,0,0,0,0,0,0,1500,1500,1500,1434,1484,1515
1747543110.6087542,0.0,0.12,-0.28,0.02181661564992912,-0.28688849579656794,0.6752242543653062,2.394379743036261,-0.5140002168767412,-0.7548739820970394,0,-1.511811,0,0,0,0,1540,1540,1540,1474,1500,1500
1747543110.7088726,0.16,0.05,-0.23,0.12326387842209953,-0.2999784651865254,0.5181446216858165,2.462269181146966,-0.5373629182001773,-0.8623391313360769,0,-12.29445,0,0,0,-0.12963,1580,1580,1580,1500,1500,1500
1747543110.791963,0.16,0.05,-0.23,0.12326387842209953,-0.2999784651865254,0.5181446216858165,2.462269181146966,-0.5373629182001773,-0.8623391313360769,0,-12.29445,0,0,0,-0.076813,1620,1620,1615,1500,1500,1500
1747543110.8927798,0.25,-0.05,-0.02,-0.006544984694978736,-0.30652344988150415,0.3665191429188092,2.520132168771032,-0.5401425908630131,-0.957184710461456,0,-12.5,0,0,0,-0.025512,1645,1640,1615,1500,1500,1500
1747543110.9919553,0.25,-0.05,-0.02,-0.006544984694978736,-0.30652344988150415,0.3665191429188092,2.520132168771032,-0.5401425908630131,-0.957184710461456,0,-12.5,0,0,0,-0.025512,1645,1640,1615,1500,1500,1500
1747543111.0919447,1.2,-0.03,-0.07,-0.04036073895236887,-0.28907015736156083,0.24980024919168842,2.5520785363377603,-0.5299573294290981,-1.0272821563730263,0,-12.5,0,0,0,-0.025512,1645,1640,1615,1500,1500,1500
1747543111.192376,0.73,0.03,-0.03,0.10144726277217041,-0.3076142806640006,0.16035212502697901,2.5840457293990595,-0.5115017102188615,-1.0817360373381388,0,-12.5,0,0,0,-0.025512,1645,1640,1615,1500,1500,1500
1747543111.275301,0.73,0.03,-0.03,0.10144726277217041,-0.3076142806640006,0.16035212502697901,2.5840457293990595,-0.5115017102188615,-1.0817360373381388,0,-12.5,0,0,0,-0.025512,1645,1640,1615,1500,1500,1500
1747543111.3752291,0.21,-0.02,-0.03,0.17889624832941878,-0.3337942194439155,0.10581058590215622,2.631030361845558,-0.4827606181087493,-1.1302844538144359,0,-12.5,0,0,0,-0.025512,1645,1640,1615,1500,1500,1500
1747543111.471661,-0.11,0.0,-0.15,0.1810779098944117,-0.3523383427463553,0.055632369907319255,2.676104183638964,-0.4451536570273159,-1.1698988580755973,0,-12.5,0,0,0,-0.025512,1645,1640,1615,1500,1500,1500
1747543111.5591307,-0.11,0.0,-0.15,0.1810779098944117,-0.3523383427463553,0.055632369907319255,2.676104183638964,-0.4451536570273159,-1.1698988580755973,0,0,0,0,0,0,1605,1600,1575,1500,1500,1500
1747543111.6589842,0.65,0.32,0.04,0.1930770485018727,-0.3937899124812206,0.025089107997418487,2.7160612831123894,-0.4008489354195297,-1.201284939179096,0,0.05627,0,0,0,0,1565,1560,1535,1500,1500,1500
1747543111.7582417,0.65,0.32,0.04,0.1930770485018727,-0.3937899124812206,0.025089107997418487,2.7160612831123894,-0.4008489354195297,-1.201284939179096,0,9.777455,0,0,0,-0.010913,1525,1520,1495,1500,1500,1500
1747543111.8586206,-0.54,0.29,0.0,0.12762720155208535,-0.48651052899341934,-0.030543261909900768,2.751807768937135,-0.33651537444784174,-1.2293806655001123,0,12.5,0,0,0,-6e-05,1485,1480,1455,1500,1500,1500
1747543111.958038,-0.2,-0.21,-0.01,0.03599741582238305,-0.5105088062083414,-0.07963064712224129,2.771156715642883,-0.2578336900479332,-1.2511630903403381,0,12.5,0,0,0,-6e-05,1445,1440,1415,1500,1500,1500
1747543112.04189,-0.2,-0.21,-0.01,0.03599741582238305,-0.5105088062083414,-0.07963064712224129,2.771156715642883,-0.2578336900479332,-1.2511630903403381,0,12.5,0,0,0,-6e-05,1405,1400,1384,1500,1500,1500
1747543112.1417203,-0.32,-0.08,-0.17,-0.037088246604879506,-0.4854196982109229,-0.09708393964218458,2.7731143173036124,-0.18335982838499426,-1.2633877586704243,0,12.5,0,0,0,-6e-05,1365,1360,1384,1500,1500,1500
1747543112.2416165,-0.32,-0.08,-0.17,-0.037088246604879506,-0.4854196982109229,-0.09708393964218458,2.7731143173036124,-0.18335982838499426,-1.2633877586704243,0,12.5,0,0,0,-6e-05,1354,1359,1384,1500,1500,1500
1747543112.3418138,-0.47000000000000003,0.32,0.12,-0.11780972450961724,-0.4112432050011639,-0.1538071403320003,2.762348145299686,-0.11192703757529449,-1.2717736185574904,0,12.5,0,0,0,-6e-05,1354,1359,1384,1500,1500,1500
1747543112.44187,-0.65,0.14,-0.09,-0.23671027980173096,-0.4308781590861001,-0.5050546522958591,2.7336924134256977,-0.03671128821182844,-1.2462375083427706,0,12.5,0,0,0,-6e-05,1354,1359,1384,1500,1500,1500
1747543112.525259,-0.65,0.14,-0.09,-0.23671027980173096,-0.4308781590861001,-0.5050546522958591,2.7336924134256977,-0.03671128821182844,-1.2462375083427706,0,12.5,0,0,0,-6e-05,1354,1359,1384,1500,1500,1500
1747543112.6254559,-0.3,0.29,-0.36,-0.19416787928436915,-0.46142142099600086,-0.6872233929727672,2.699520863071842,0.06176052812298058,-1.191378751770711,0,12.5,0,0,0,-6e-05,1354,1359,1384,1500,1500,1500
1747543112.7136612,0.03,0.09,-0.13,-0.07526732399225546,-0.4036073895236887,-0.6534076387153771,2.6863004105036046,0.16878520401656244,-1.1265907329982738,0,12.5,0,0,0,-6e-05,1354,1359,1384,1500,1500,1500
1747543112.8093956,0.03,0.09,-0.13,-0.07526732399225546,-0.4036073895236887,-0.6534076387153771,2.6863004105036046,0.16878520401656244,-1.1265907329982738,0,4.808609,0,0,0,-0.008217,1354,1359,1384,1500,1500,1500
1747543112.9088948,0.18,-0.07,0.01,0.06217735460229799,-0.2781618495365963,-0.5999569303730508,2.6976676831150237,0.2520099387930406,-1.0649821782460074,0,0,0,0,0,0,1394,1399,1424,1500,1500,1500
1747543113.0083654,0.18,-0.07,0.01,0.06217735460229799,-0.2781618495365963,-0.5999569303730508,2.6976676831150237,0.2520099387930406,-1.0649821782460074,0,0,0,0,0,0,1434,1439,1464,1500,1500,1500
1747543113.108488,0.73,0.04,-0.05,0.23234695667174513,-0.15926129424448257,-0.5094179754258449,2.7398429813405603,0.3172744021169842,-0.9959111751921872,0,0,0,0,0,0,1474,1479,1500,1500,1500,1500
1747543113.2092474,0.65,-0.19,-0.05,0.38069994309126315,0.09926560120717749,-0.26398104936414235,2.807479896976137,0.3381334956063045,-0.9401814861250272,0,0,0,0,0,0,1500,1500,1500,1500,1500,1500
1747543113.291737,0.65,-0.19,-0.05,0.38069994309126315,0.09926560120717749,-0.26398104936414235,2.807479896976137,0.3381334956063045,-0.9401814861250272,0,0,0,0,0,0,1500,1500,1500,1500,1500,1500
1747543113.391847,0.3,0.01,-0.05,0.39924406639370286,0.32615840396644036,-0.0719948316447661,2.8814403266700337,0.30413658831950646,-0.9057741067443746,0,0,0,0,0,0,1500,1500,1500,1500,1500,1500
1747543113.4924006,0.3,0.01,-0.05,0.39924406639370286,0.32615840396644036,-0.0719948316447661,2.8814403266700337,0.30413658831950646,-0.9057741067443746,0,0,0,0,0,0,1500,1500,1500,1500,1500,1500
1747543113.5918357,0.07,0.14,-0.13,0.284706834231575,0.44178646691106466,0.001090830782496456,2.9354081509610794,0.2478586649789601,-0.8883166611440304,0,0,0,0,0,0,1500,1500,1500,1500,1500,1500
1747543113.6922827,0.0,0.16,-0.29,0.13308135546456762,0.44505895925855404,0.04145156973486533,2.9665407955060314,0.18265389164040763,-0.8793594697572024,0,0,0,0,0,0,1500,1500,1500,1500,1500,1500
1747543113.775428,0.0,0.16,-0.29,0.13308135546456762,0.44505895925855404,0.04145156973486533,2.9665407955060314,0.18265389164040763,-0.8793594697572024,0,0,0,0,0,0,1500,1500,1500,1500,1500,1500
1747543113.8743615,-0.04,0.15,-0.25,0.0,0.40578905108868163,0.05345070834232634,2.976559418209083,0.11668826395293987,-0.8759662201229342,0,0,0,0,0,0,1500,1500,1500,1500,1500,1500
1747543113.9746058,-0.08,0.19,-0.35000000000000003,-0.136353847812057,0.33052172709642613,0.037088246604879506,2.9657203289973766,0.06430029694474472,-0.8740304930602911,0,0,0,0.065756,0,0,1500,1500,1500,1500,1500,1500
1747543114.0577726,-0.08,0.19,-0.35000000000000003,-0.136353847812057,0.33052172709642613,0.037088246604879506,2.9657203289973766,0.06430029694474472,-0.8740304930602911,0,0,0,0,0,0,1500,1500,1500,1500,1500,1500
1747543114.158152,-0.06,0.17,-0.24,-0.2628902185816459,0.2530727415391778,0.011999138607461015,2.9332355904284815,0.020545281416637338,-0.8689637440469,0,0,0,0,0,0,1500,1500,1500,1500,1500,1500
1747543114.2592435,-0.06,0.17,-0.24,-0.2628902185816459,0.2530727415391778,0.011999138607461015,2.9332355904284815,0.020545281416637338,-0.8689637440469,0,0,0,0,0,0,1500,1500,1500,1500,1500,1500
1747543114.3583221,-0.07,0.13,-0.29,-0.33488505022641196,0.19634954084936207,-0.002181661564992912,2.8890266657054413,-0.01027956827419921,-0.8617592678977583,0,0,2.54644,0,0,0,1460,1460,1540,1500,1540,1540
1747543114.4588585,-0.07,0.1,-0.2,-0.3861540970037454,0.14835298641951802,-0.018544123302439753,2.832615144726378,-0.03467557294132953,-0.8535748716873366,0,0,7.5,0,0,0,1460,1460,1542,1500,1580,1580
1747543114.5418503,-0.07,0.1,-0.2,-0.3861540970037454,0.14835298641951802,-0.018544123302439753,2.832615144726378,-0.03467557294132953,-0.8535748716873366,0,0,7.5,0,0,0,1460,1460,1542,1500,1620,1620
1747543114.6416872,0.22,0.02,-0.28,-0.4559672670835186,0.11235557059713497,-0.01090830782496456,2.7720553293543695,-0.05113320256024737,-0.8433911912939576,0,0,7.5,0,0,0,1460,1460,1542,1500,1645,1642
1747543114.7416673,0.02,0.28,-1.09,-0.47451139038595835,0.12326387842209953,-0.0916297857297023,2.700369293458003,-0.06509814276353076,-0.8261556136714174,0,0,7.5,0,0,0,1460,1460,1542,1500,1645,1642
1747543114.8417554,0.02,0.28,-1.09,-0.47451139038595835,0.12326387842209953,-0.0916297857297023,2.700369293458003,-0.06509814276353076,-0.8261556136714174,0,0,7.5,0,0,0,1460,1460,1542,1500,1645,1642
1747543114.9415827,-0.09,-0.25,-0.52,-0.38724492778624187,0.07853981633974483,-0.17889624832941878,2.6298091617175308,-0.06746336033368394,-0.7992038371843743,0,0,7.5,0,0,0,1460,1460,1542,1500,1645,1642
1747543115.0249758,-0.09,-0.25,-0.52,-0.38724492778624187,0.07853981633974483,-0.17889624832941878,2.6298091617175308,-0.06746336033368394,-0.7992038371843743,0,0,7.5,0,0,0,1460,1460,1542,1500,1645,1642
1747543115.1251793,-0.54,-0.22,0.99,0.1407171709420428,0.1308996938995747,-0.1636246173744684,2.6048364368439723,-0.06654256306878799,-0.7696608492295183,0,0,0.193498,0,0,0,1463,1463,1536,1500,1605,1602
1747543115.2251327,-0.2,-0.48,-0.01,0.6872233929727672,0.16253378659197193,-0.1265363707695889,2.6761003560877414,-0.07695512927281413,-0.7390370948647995,0,0,0,0,0,0,1500,1500,1500,1500,1565,1562
1747543115.3254068,-0.2,-0.48,-0.01,0.6872233929727672,0.16253378659197193,-0.1265363707695889,2.6761003560877414,-0.07695512927281413,-0.7390370948647995,0,0,-5.828173,0,0,0,1539,1539,1460,1500,1525,1522
1747543115.4247587,-0.18,0.21,0.32,0.7024950239277177,0.13744467859455345,-0.09926560120717749,2.779520352145503,-0.09100751050471115,-0.7160072967583577,0,0,-7.5,0,0,0,1539,1539,1457,1500,1485,1482
1747543115.5087707,-0.18,0.21,0.32,0.7024950239277177,0.13744467859455345,-0.09926560120717749,2.779520352145503,-0.09100751050471115,-0.7160072967583577,0,0,-7.5,0,0,0,1539,1539,1457,1500,1445,1442
1747543115.6090899,-0.14,0.14,0.09,0.4166973589136462,0.031634092692397225,-0.1189005552921137,2.855250394050193,-0.09657575970819207,-0.6964391950687838,0,0,-7.5,0,0,0,1539,1539,1457,1500,1405,1402
1747543115.7084372,0.0,0.06,-0.28,0.3076142806640006,-0.09053895494720585,-0.09817477042468103,2.903752888487084,-0.08602176509840473,-0.6798533781860091,0,0,-7.5,0,0,0,1539,1539,1457,1500,1365,1362
1747543115.7918622,0.0,0.06,-0.28,0.3076142806640006,-0.09053895494720585,-0.09817477042468103,2.903752888487084,-0.08602176509840473,-0.6798533781860091,0,0,-7.5,0,0,0,1539,1539,1457,1500,1354,1357
1747543115.8918087,0.02,0.15,0.21,0.421060682043632,-0.1341721862470641,-0.004363323129985824,2.957506960498959,-0.0635776189089423,-0.6760916089010695,0,0,-7.5,0,0,0,1539,1539,1457,1500,1354,1357
1747543115.9880002,0.14,0.24,0.23,0.421060682043632,-0.1341721862470641,-0.004363323129985824,3.0346621177091544,-0.04500190529414125,-0.6802314984428922,0,0,-7.5,0,0,0,1539,1539,1457,1500,1354,1357
1747543116.0752733,0.14,0.24,0.23,0.421060682043632,-0.1341721862470641,-0.004363323129985824,3.0346621177091544,-0.04500190529414125,-0.6802314984428922,0,0,-7.5,0,0,0,1539,1539,1457,1500,1354,1357
1747543116.174799,0.09,0.06,-0.12,0.0,-0.020725784867432664,0.04145156973486533,3.058356722784506,-0.038607240915921694,-0.6843268783655758,0,0,-7.5,0,0,0,1539,1539,1457,1500,1354,1357
1747543116.2748978,0.09,0.06,-0.12,0.0,-0.020725784867432664,0.04145156973486533,3.058356722784506,-0.038607240915921694,-0.6843268783655758,0,0,-7.5,0,0,0,1539,1539,1457,1500,1354,1357
1747543116.3744752,-0.13,0.18,0.01,-0.2083486794568231,-0.015271630954950384,0.09817477042468103,3.0380869430108333,-0.03636423204770929,-0.6952938260057436,0,0,-7.5,0,0,0,1539,1539,1457,1500,1354,1357
1747543116.4759505,-0.06,0.16,-0.12,-0.2694352032766246,-0.016362461737446838,0.13962634015954636,3.0027204074691842,-0.035740444062754874,-0.7130894442989311,0,0,-7.5,0,0,0,1539,1539,1457,1500,1354,1357
1747543116.5751588,-0.06,0.16,-0.12,-0.2694352032766246,-0.016362461737446838,0.13962634015954636,3.0027204074691842,-0.035740444062754874,-0.7130894442989311,0,0,-7.5,0,0,0,1539,1539,1457,1500,1354,1357
1747543116.6749835,-0.01,0.06,-0.06,-0.29343348049154666,-0.01090830782496456,0.17671458676442586,2.9590148425222043,-0.037788510315724604,-0.7378541195054937,0,0,-7.5,0,0,0,1539,1539,1457,1500,1354,1357
1747543116.7581198,-0.01,0.06,-0.06,-0.29343348049154666,-0.01090830782496456,0.17671458676442586,2.9590148425222043,-0.037788510315724604,-0.7378541195054937,0,0,-7.5,0,0,0,1539,1539,1457,1500,1354,1357
1747543116.8586638,-0.04,0.05,-0.21,-0.2945243112740431,-0.011999138607461015,0.19634954084936207,2.9173354814353187,-0.041305082106899316,-0.7647926120028896,0,0,-7.5,0,0,0,1539,1539,1457,1500,1354,1357
1747543116.9597542,-0.11,0.0,-0.05,-0.2585268954516601,0.002181661564992912,0.22907446432425577,2.87470217331693,-0.048765195925216345,-0.797240316823419,0,0,-7.5,0,0,0,1539,1539,1457,1500,1354,1357
1747543117.0415125,-0.11,0.0,-0.05,-0.2585268954516601,0.002181661564992912,0.22907446432425577,2.87470217331693,-0.048765195925216345,-0.797240316823419,0,0,-7.5,0,0,0,1539,1539,1457,1500,1354,1357
1747543117.1418505,0.0,0.22,-0.05,-0.22362031041177347,0.013089969389957472,0.2378011105842274,2.840804446907106,-0.05952794740372875,-0.829846086571254,0,0,-7.5,0,0,0,1539,1539,1457,1500,1354,1357
1747543117.238491,-0.06,0.2,0.04,-0.1908953869368798,0.032724923474893676,0.2378011105842274,2.810176816653634,-0.07455597059937352,-0.8633815172735565,0,0,-7.5,0,0,0,1539,1539,1457,1500,1354,1357
1747543117.32602,-0.06,0.2,0.04,-0.1908953869368798,0.032724923474893676,0.2378011105842274,2.810176816653634,-0.07455597059937352,-0.8633815172735565,0,0,-7.5,0,0,0,1539,1539,1457,1500,1354,1357
1747543117.425168,-0.15,0.25,-0.07,-0.16471544815696484,0.05235987755982989,0.24652775684419906,2.7866400330473615,-0.0920264991444361,-0.8946137554293272,0,0,-7.5,0,0,0,1539,1539,1457,1500,1354,1357
1747543117.508358,-0.15,0.25,-0.07,-0.16471544815696484,0.05235987755982989,0.24652775684419906,2.7866400330473615,-0.0920264991444361,-0.8946137554293272,0,0,-7.5,0,0,0,1539,1539,1457,1500,1354,1357
1747543117.608312,-0.03,0.15,0.06,-0.14180800172453928,0.0818123086872342,0.2585268954516601,2.7662259569680514,-0.11543891960497407,-0.927696281675396,0,0,-7.5,0,0,0,1539,1539,1457,1500,1354,1357
1747543117.7044644,0.01,0.08,-0.09,-0.08835729338221293,0.11235557059713497,0.24980024919168842,2.7519324124797175,-0.144727790684026,-0.9593475958041255,0,0,-7.5,0,0,0,1539,1539,1457,1500,1354,1357
1747543117.7915921,0.01,0.08,-0.09,-0.08835729338221293,0.11235557059713497,0.24980024919168842,2.7519324124797175,-0.144727790684026,-0.9593475958041255,0,0,-7.5,0,0,0,1539,1539,1457,1500,1354,1357
1747543117.8909292,-0.05,0.0,0.0,-0.05781403147231216,0.136353847812057,0.2378011105842274,2.745293936892911,-0.17537117945591668,-0.9847000594388449,0,0,-7.5,0,0,0,1539,1539,1457,1500,1354,1357
1747543117.991862,-0.05,0.0,0.0,-0.05781403147231216,0.136353847812057,0.2378011105842274,2.745293936892911,-0.17537117945591668,-0.9847000594388449,0,0,-7.5,0,0,0,1539,1539,1457,1500,1354,1357
1747543118.0922155,-0.08,0.15,-0.08,-0.04145156973486533,0.16144295580947549,0.21707532571679475,2.742639349840506,-0.2105214530854024,-1.0086921747753288,0,0,-7.5,0,0,0,1539,1539,1457,1500,1354,1357
1747543118.1929216,-0.03,0.11,-0.05,-0.02181661564992912,0.1712604328519436,0.20725784867432664,2.7430072809780937,-0.2446410347718656,-1.0282137236583766,0,0,-7.5,0,0,0,1539,1539,1457,1500,1354,1357
1747543118.2750747,-0.03,0.11,-0.05,-0.02181661564992912,0.1712604328519436,0.20725784867432664,2.7430072809780937,-0.2446410347718656,-1.0282137236583766,0,0,-7.5,0,0,0,1539,1539,1457,1500,1354,1357
1747543118.3744915,-0.05,0.13,-0.14,-0.01090830782496456,0.19634954084936207,0.17780541754692233,2.745867780910897,-0.28248969946265534,-1.0451781032195915,0,0,-7.5,0,0,0,1539,1539,1457,1500,1354,1357
1747543118.4749308,-0.05,0.13,-0.14,-0.01090830782496456,0.19634954084936207,0.17780541754692233,2.745867780910897,-0.28248969946265534,-1.0451781032195915,0,0,-7.5,0,0,0,1539,1539,1457,1500,1354,1357
1747543118.5581207,-0.08,-0.15,-0.01,-0.0272707695624114,0.2203478180642841,0.15926129424448257,2.747213011822395,-0.3194828787630569,-1.0565261431729227,0,0,-7.5,0,0,0,1539,1539,1457,1500,1354,1357
1747543118.6580427,-0.26,0.12,-0.2,-0.02399827721492203,0.23889194136672387,0.16253378659197193,2.747371838717045,-0.3616528455891501,-1.0669362521880252,0,0,0,0,0,0,1500,1500,1497,1500,1394,1397
1747543118.7583385,-0.26,0.12,-0.2,-0.02399827721492203,0.23889194136672387,0.16253378659197193,2.747371838717045,-0.3616528455891501,-1.0669362521880252,0,0,0,0,0,0,1500,1500,1500,1500,1434,1437
1747543118.8582163,-0.09,0.1,-0.41000000000000003,-0.04254240051736178,0.2530727415391778,0.10581058590215622,2.7455828512879963,-0.4037480009364774,-1.0727770832382482,0,0,0,0,0,0,1500,1500,1500,1500,1474,1477
1747543118.950164,-0.19,0.18,-0.61,-0.07635815477475191,0.2596177262341565,0.008726646259971648,2.734853193378833,-0.43938688750679245,-1.065583601966329,0,0,0,0,0,0,1500,1500,1500,1500,1500,1500
1747543119.041978,-0.19,0.18,-0.61,-0.07635815477475191,0.2596177262341565,0.008726646259971648,2.734853193378833,-0.43938688750679245,-1.065583601966329,0,0,0,0,0,0,1500,1500,1500,1500,1500,1500
1747543119.1417983,-0.03,0.06,-0.3,-0.11126473981463851,0.25634523388666713,-0.08726646259971647,2.7128228181819414,-0.4666544663661451,-1.0426693361110144,0,0,0,0,0,0,1500,1500,1500,1500,1500,1500
1747543119.2418578,-0.03,0.06,-0.3,-0.11126473981463851,0.25634523388666713,-0.08726646259971647,2.7128228181819414,-0.4666544663661451,-1.0426693361110144,0,0,0,0,0,0,1500,1500,1500,1500,1500,1500
1747543119.3418436,-0.07,0.05,-0.25,-0.1559888018969932,0.24870941840919197,-0.1461713248545251,2.6754159604709917,-0.49121411435967455,-1.0053767388263664,0,0,0,0,0,0,1500,1500,1500,1500,1500,1500
1747543119.4418461,-0.07,0.02,-0.21,-0.18762289458939044,0.2476185876266955,-0.18980455615438332,2.6295884337120983,-0.5097680238258783,-0.9617542102015854,0,0,0,0,0,0,1500,1500,1500,1500,1500,1500
1747543119.5253968,-0.07,0.02,-0.21,-0.18762289458939044,0.2476185876266955,-0.18980455615438332,2.6295884337120983,-0.5097680238258783,-0.9617542102015854,0,0,0,0,0,0,1500,1500,1500,1500,1500,1500
1747543119.6248803,-0.05,0.06,-0.17,-0.22689280275926285,0.24107360293171676,-0.22471114119426994,2.575207883370234,-0.5234000017079614,0.03504408521362458,0,-5.067867,0,0,0,0,1540,1540,1540,1500,1500,1500
1747543119.725261,-0.06,0.03,-0.15,-0.24870941840919197,0.24652775684419906,-0.24216443371421323,2.5092997081716772,-0.532911276955484,0.08445044825076005,0,-11.888463,0,0,0,-0.012403,1580,1580,1580,1500,1500,1500
1747543119.8092575,-0.06,0.03,-0.15,-0.24870941840919197,0.24652775684419906,-0.24216443371421323,2.5092997081716772,-0.532911276955484,0.08445044825076005,0,-12.5,0,0,0,-0.027766,1620,1620,1615,1500,1500,1500
1747543119.9081054,0.31,0.2,-0.03,-0.24216443371421323,0.23671027980173096,-0.2617993877991494,2.443751696571724,-0.5376621349524122,0.14306979306254386,0,-12.5,0,0,0,-0.030116,1645,1640,1615,1500,1500,1500
1747543120.008576,0.31,0.2,-0.03,-0.24216443371421323,0.23671027980173096,-0.2617993877991494,2.443751696571724,-0.5376621349524122,0.14306979306254386,0,-12.5,0,0,0,-0.032561,1645,1640,1615,1500,1500,1500
1747543120.1083102,1.06,-0.1,-0.3,-0.210530341021816,0.2519819107566813,-0.27052603405912107,2.373884776758848,-0.5394279659337817,0.2090799018931453,0,-12.5,0,0,0,-0.032561,1645,1640,1615,1500,1500,1500
1747543120.198771,0.7000000000000001,-0.07,-0.05,-0.11453723216212788,0.20289452554434081,-0.20289452554434081,2.321393051711238,-0.5387637478706159,0.26757323946716455,0,-12.5,0,0,0,-0.035101,1645,1640,1615,1500,1500,1500
1747543120.2917032,0.7000000000000001,-0.07,-0.05,-0.11453723216212788,0.20289452554434081,-0.20289452554434081,2.321393051711238,-0.5387637478706159,0.26757323946716455,0,-12.5,0,0,0,-0.035101,1645,1640,1615,1500,1500,1500
1747543120.3919675,-0.27,-0.04,-0.26,-0.07635815477475191,0.1636246173744684,-0.12980886311707826,2.2846004381519247,-0.5410938841632178,0.3103383425498011,0,-12.5,0,0,0,-0.035101,1645,1640,1615,1500,1500,1500
1747543120.492003,-0.27,-0.04,-0.26,-0.07635815477475191,0.1636246173744684,-0.12980886311707826,2.2846004381519247,-0.5410938841632178,0.3103383425498011,0,-1.238321,0,0,0,-0.000215,1605,1600,1575,1500,1500,1500
1747543120.5909328,-0.22,0.17,-0.12,0.032724923474893676,0.09490227807719166,-0.09599310885968812,2.2697201146207924,-0.5413515877850263,0.33804712063324444,0,0,0,0,0,0,1565,1560,1535,1500,1500,1500
1747543120.691781,-0.41000000000000003,-0.08,-0.1,0.07853981633974483,0.020725784867432664,-0.07853981633974483,2.2719652139983295,-0.5362774615066686,0.3549592500742169,0,0,0,0,0,0,1525,1520,1500,1500,1500,1500
1747543120.7752712,-0.41000000000000003,-0.08,-0.1,0.07853981633974483,0.020725784867432664,-0.07853981633974483,2.2719652139983295,-0.5362774615066686,0.3549592500742169,0,0,0,0,0,0,1500,1500,1500,1500,1500,1500
1747543120.876023,-0.59,0.26,-0.01,0.020725784867432664,-0.014180800172453928,-0.09490227807719166,2.2769071881669136,-0.5158323395599791,0.36395309494928324,0,0,0,0,0,0,1500,1500,1500,1500,1500,1500
1747543120.9690592,-0.3,0.01,-0.07,-0.03381575425739013,-0.002181661564992912,-0.13199052468207118,2.2701482897528025,-0.4966374638635368,0.3757152924804602,0,0,0,0,0,0,1500,1500,1500,1500,1500,1500
1747543121.0583267,-0.3,0.01,-0.07,-0.03381575425739013,-0.002181661564992912,-0.13199052468207118,2.2701482897528025,-0.4966374638635368,0.3757152924804602,0,0,0,0,0,0,1500,1500,1500,1500,1500,1500
1747543121.1580307,-0.19,-0.04,0.02,-0.050178215994836975,-0.001090830782496456,-0.16798794050445423,2.256021951069573,-0.47607046848975826,0.3925185591088742,0,0,0,0,0,0,1500,1500,1500,1500,1500,1500
1747543121.258696,-0.19,-0.04,0.02,-0.050178215994836975,-0.001090830782496456,-0.16798794050445423,2.256021951069573,-0.47607046848975826,0.3925185591088742,0,0,0,0,0,0,1500,1500,1500,1500,1500,1500
1747543121.3587046,-0.16,-0.03,-0.04,-0.06763150851478027,-0.002181661564992912,-0.19962203319685143,2.239345703663433,-0.45398228951111735,0.41141918259877025,0,0,0,0,0,0,1500,1500,1500,1500,1500,1500
1747543121.4580703,-0.14,-0.05,0.04,-0.07417649320975901,0.002181661564992912,-0.22362031041177347,2.219139719435303,-0.42762346015813096,0.4335656682583887,0,7.548422,0,0,0,0,1460,1460,1460,1500,1500,1500
1747543121.5415626,-0.14,-0.05,0.04,-0.07417649320975901,0.002181661564992912,-0.22362031041177347,2.219139719435303,-0.42762346015813096,0.4335656682583887,0,12.5,0,0,0,0,1420,1420,1420,1500,1500,1500
1747543121.641533,-0.08,-0.02,-0.01,-0.07853981633974483,0.00545415391248228,-0.23889194136672387,2.198100234275111,-0.39840510090901016,0.4569559724359202,0,12.5,0,0,0,0,1380,1380,1384,1500,1500,1500
1747543121.7417734,-0.08,-0.02,-0.01,-0.07853981633974483,0.00545415391248228,-0.23889194136672387,2.198100234275111,-0.39840510090901016,0.4569559724359202,0,12.5,0,0,0,0,1354,1359,1384,1500,1500,1500
1747543121.8418117,-0.16,-0.11,0.0,-0.07417649320975901,-0.018544123302439753,-0.22471114119426994,2.179290571167051,-0.3693520629909843,0.4787127957808369,0,12.5,0,0,0,0,1354,1359,1384,1500,1500,1500
1747543121.9424486,-1.03,-0.12,0.29,-0.14944381720201447,-0.04036073895236887,-0.17562375598192942,2.1587223376242735,-0.33472409061065933,0.4930799019300354,0,12.5,0,0,0,0,1354,1359,1384,1500,1500,1500
1747543122.025367,-1.03,-0.12,0.29,-0.14944381720201447,-0.04036073895236887,-0.17562375598192942,2.1587223376242735,-0.33472409061065933,0.4930799019300354,0,12.5,0,0,0,0,1354,1359,1384,1500,1500,1500
1747543122.1241188,-0.31,-0.27,0.07,-0.23671027980173096,0.026179938779914945,-0.16798794050445423,2.121711353565335,-0.29435033470518057,0.5086987600474887,0,12.5,0,0,0,0,1354,1359,1384,1500,1500,1500
1747543122.2230191,-0.02,-0.16,0.01,-0.2748893571891069,0.044724062082354694,-0.12871803233458182,-3.1229373636955535,-1.5707963267948966,-2.6885024916104245,0,12.5,0,0,0,0,1354,1359,1384,1500,1500,1500
1747543122.308648,-0.02,-0.16,0.01,-0.2748893571891069,0.044724062082354694,-0.12871803233458182,-3.1229373636955535,-1.5707963267948966,-2.6885024916104245,0,12.5,0,0,0,0,1354,1359,1384,1500,1500,1500
1747543122.4082232,-0.16,-0.07,0.2,-0.26725354171163174,0.07526732399225546,-0.10471975511965978,2.034067504330515,-0.2639889954486285,0.5410824868252424,0,12.5,0,0,0,0,1354,1359,1384,1500,1500,1500
1747543122.5089312,-0.16,-0.07,0.2,-0.26725354171163174,0.07526732399225546,-0.10471975511965978,2.034067504330515,-0.2639889954486285,0.5410824868252424,0,12.5,0,0,0,0,1354,1359,1384,1500,1500,1500
1747543122.6080706,0.11,-0.19,0.12,-0.2650718801466388,0.10035643198967395,-0.032724923474893676,1.9911750417241323,-0.26031330776672257,0.5577170922632618,0,12.5,0,0,0,0,1354,1359,1384,1500,1500,1500
1747543122.707905,0.14,-0.29,0.21,-0.29561514205653955,0.10471975511965978,0.03381575425739013,1.9441905192975246,-0.2676382163420223,0.5727111788121849,0,12.5,0,0,0,0,1354,1359,1384,1500,1500,1500
1747543122.7916248,0.14,-0.29,0.21,-0.29561514205653955,0.10471975511965978,0.03381575425739013,1.9441905192975246,-0.2676382163420223,0.5727111788121849,0,12.5,0,0,0,0,1354,1359,1384,1500,1500,1500
1747543122.890183,0.13,-0.14,0.02,-0.3425208657038872,0.11235557059713497,0.031634092692397225,1.8912431965962049,-0.27930311808107205,0.5874336069190584,0,12.5,0,-0.654531,0,0,1354,1357,1424,1500,1500,1500
1747543122.990227,0.13,-0.14,0.02,-0.3425208657038872,0.11235557059713497,0.031634092692397225,1.8912431965962049,-0.27930311808107205,0.5874336069190584,0,0,0,-0.7,0,0,1394,1397,1464,1500,1500,1500
1747543123.0747786,0.5,-0.3,0.26,-0.38069994309126315,0.11780972450961724,0.04799655442984406,1.834396697667475,-0.2906369699811601,0.6021552786987103,0,0,0,-0.7,0,0,1409,1409,1504,1500,1500,1500
1747543123.1748765,0.31,-0.17,0.04,-0.3643374813538163,0.21162117180431245,0.04363323129985824,1.7661942517120424,-0.30659816263584416,0.6299170872062007,0,0,0,-0.7,0,0,1409,1409,1544,1500,1500,1500
1747543123.274357,0.31,-0.17,0.04,-0.3643374813538163,0.21162117180431245,0.04363323129985824,1.7661942517120424,-0.30659816263584416,0.6299170872062007,0,0,0,-0.7,0,0,1409,1409,1584,1500,1500,1500
1747543123.3749714,0.22,-0.25,0.09,-0.31525009614147576,0.21380283336930536,0.055632369907319255,1.7036920704646266,-0.32794709007143136,0.6626251563418204,0,0,0,-0.7,0,0,1409,1409,1624,1500,1500,1500
1747543123.4632955,0.27,-0.13,0.16,-0.2585268954516601,0.17780541754692233,0.05781403147231216,1.65341663473532,-0.34212565533654066,0.6916319442252405,0,0,0,-0.7,0,0,1409,1409,1645,1500,1500,1500
1747543123.5577054,0.27,-0.13,0.16,-0.2585268954516601,0.17780541754692233,0.05781403147231216,1.65341663473532,-0.34212565533654066,0.6916319442252405,0,0,0,-0.7,0,0,1409,1409,1645,1500,1500,1500
1747543123.6573303,0.68,-0.1,0.19,-0.2454369260617026,0.33815754257390135,0.05890486225480862,1.605571758809686,-0.3563401150494449,0.7268236059937203,0,0,0,-0.7,0,0,1409,1409,1645,1500,1500,1500
1747543123.7576327,0.68,-0.1,0.19,-0.2454369260617026,0.33815754257390135,0.05890486225480862,1.605571758809686,-0.3563401150494449,0.7268236059937203,0,0,0,-0.7,0,0,1409,1409,1645,1500,1500,1500
1747543123.8578038,0.31,-0.14,0.09,-0.2596177262341565,0.6534076387153771,0.044724062082354694,1.5341881147790017,-0.3726223913922274,0.813648661755718,0,0,0,-0.7,0,0,1409,1409,1645,1500,1500,1500
1747543123.95773,0.08,0.01,0.1,-0.3010692959690218,0.7995789635699022,0.037088246604879506,1.451826420275464,-0.37224725634546985,0.9286206644724887,0,0,0,-0.7,0,0,1409,1409,1645,1500,1500,1500
1747543124.04057,0.08,0.01,0.1,-0.3010692959690218,0.7995789635699022,0.037088246604879506,1.451826420275464,-0.37224725634546985,0.9286206644724887,0,0,0,-0.7,0,0,1409,1409,1645,1500,1500,1500
1747543124.1417866,0.07,-0.04,0.08,-0.3010692959690218,0.9228428419920017,-0.019634954084936207,1.355818907235044,-0.3514232657916926,1.0699392035249782,0,0,0,-0.7,0,0,1409,1409,1645,1500,1500,1500
1747543124.2360325,-0.27,-0.29,0.0,-0.2781618495365963,1.0057459814617324,-0.06326818538479445,1.267259340024006,-0.3086203011285136,1.211660895492043,0,0,0,-0.7,0,0,1409,1409,1645,1500,1500,1500
1747543124.324146,-0.27,-0.29,0.0,-0.2781618495365963,1.0057459814617324,-0.06326818538479445,1.267259340024006,-0.3086203011285136,1.211660895492043,0,0,0,-0.7,0,0,1409,1409,1645,1500,1500,1500
1747543124.423894,-0.02,-0.03,-0.07,-0.2454369260617026,1.0275625971116615,-0.08290313946973066,1.186335353419342,-0.24454315643885013,1.3614107230593993,0,0,0,-0.7,0,0,1409,1409,1645,1500,1500,1500
1747543124.508353,-0.02,-0.03,-0.07,-0.2454369260617026,1.0275625971116615,-0.08290313946973066,1.186335353419342,-0.24454315643885013,1.3614107230593993,0,0,0,-0.7,0,0,1409,1409,1645,1500,1500,1500
1747543124.6078389,-0.19,-0.12,0.0,-0.18653206380689397,1.040652566501619,-0.14289883250703572,1.1233197652993114,-0.1631294189645857,1.503747456868599,0,0,0,-0.7,0,0,1409,1409,1645,1500,1500,1500
1747543124.7070627,-0.19,-0.12,0.0,-0.18653206380689397,1.040652566501619,-0.14289883250703572,1.1233197652993114,-0.1631294189645857,1.503747456868599,0,0,0,-0.7,0,0,1409,1409,1645,1500,1500,1500
1747543124.791569,-0.25,0.01,-0.02,-0.17889624832941878,1.0199267816341864,-0.15489797111449674,1.0795789065015855,-0.07094829413281026,1.6363796349598374,0,0,0,-0.7,0,0,1409,1409,1645,1500,1500,1500
1747543124.8910058,-0.37,-0.03,-0.05,-0.15271630954950383,1.014472627721704,-0.17453292519943295,1.0515671409131444,0.021552122632470416,1.7538537887479126,0,0,0,-0.262161,0,0,1409,1409,1645,1500,1500,1500
1747543124.9921756,-0.37,-0.03,-0.05,-0.15271630954950383,1.014472627721704,-0.17453292519943295,1.0515671409131444,0.021552122632470416,1.7538537887479126,0,0,0,0,0,0,1449,1449,1605,1500,1500,1500
1747543125.091648,-0.25,-0.23,-0.09,-0.09490227807719166,1.0035643198967394,-0.1734420944169365,-2.712540344299108,-1.5707963267948966,-3.1274623285356458,0,0,0,0,0,0,1489,1489,1565,1500,1500,1500
1747543125.1917899,-0.26,-0.07,0.04,-0.008726646259971648,0.8530296719122286,-0.1505346479845109,1.0522912293488103,0.21448925021359408,1.985982351915104,0,-12.5,0,0,0,0,1529,1529,1605,1500,1500,1500
1747543125.275009,-0.26,-0.07,0.04,-0.008726646259971648,0.8530296719122286,-0.1505346479845109,1.0522912293488103,0.21448925021359408,1.985982351915104,0,-12.5,0,0,0,0,1569,1569,1615,1500,1500,1500
1747543125.3739438,-0.05,-0.2,-0.05,0.07090400086226964,0.5748678223756323,-0.12217304763960307,1.079093016227895,0.28221093201695546,2.0638023573486834,0,-12.5,0,0,0,0,1609,1609,1615,1500,1500,1500
1747543125.4755957,-0.05,-0.2,-0.05,0.07090400086226964,0.5748678223756323,-0.12217304763960307,1.079093016227895,0.28221093201695546,2.0638023573486834,0,-12.5,0,0,0,0,1645,1640,1615,1500,1500,1500
1747543125.5577605,-0.33,-0.38,0.04,0.09053895494720585,0.543233729683235,-0.09490227807719166,1.114549159585716,0.33721711259268555,2.137563176049973,0,-12.5,0,0,0,0,1645,1640,1615,1500,1500,1500
1747543125.6579306,0.58,-0.26,-0.48,0.19198621771937624,0.4232423436086249,-0.09708393964218458,1.1573517531724586,0.37897555973275165,2.2002871307333454,0,-12.5,0,0,0,0,1645,1640,1615,1500,1500,1500
1747543125.7585452,0.58,-0.26,-0.48,0.19198621771937624,0.4232423436086249,-0.09708393964218458,1.1573517531724586,0.37897555973275165,2.2002871307333454,0,-12.5,0,0,0,0,1645,1640,1615,1500,1500,1500
1747543125.8574197,0.41000000000000003,-0.4,-0.11,0.3643374813538163,0.055632369907319255,-0.04908738521234052,1.2136355523037137,0.40241895725861465,2.2275404194419433,0,-12.5,0,0,0,0,1645,1640,1615,1500,1500,1500
1747543125.9572723,0.18,-0.01,0.17,0.39706240482870997,-0.11126473981463851,0.00545415391248228,1.2691535424543248,0.4036673061689961,2.219397990241979,0,-4.189658,0,0,0,0,1645,1640,1615,1500,1500,1500
1747543126.0415676,0.18,-0.01,0.17,0.39706240482870997,-0.11126473981463851,0.00545415391248228,1.2691535424543248,0.4036673061689961,2.219397990241979,0,0,0,0,0,0,1605,1600,1575,1500,1500,1500
1747543126.1415832,-0.37,-0.21,0.1,0.39051742013373125,-0.20725784867432664,0.032724923474893676,1.3195700452951438,0.39402295979420954,2.1935367761034095,0,11.096981,0,0,0,0,1565,1560,1535,1500,1500,1500
1747543126.2415323,-0.37,-0.21,0.1,0.39051742013373125,-0.20725784867432664,0.032724923474893676,1.3195700452951438,0.39402295979420954,2.1935367761034095,0,12.5,0,0,0,0,1525,1520,1495,1500,1500,1500
1747543126.3406096,-0.96,-0.02,0.18,0.32070425005395803,-0.3010692959690218,0.0545415391248228,1.3538099055919368,0.38442990359709756,2.155085925964821,0,12.5,0,0,0,0,1485,1480,1455,1500,1500,1500
1747543126.4334638,-0.33,0.0,-0.05,0.28688849579656794,-0.33597588100890846,0.06217735460229799,1.3774249039737918,0.378121751620204,2.102501474388428,0,12.5,0,0,0,0,1445,1440,1415,1500,1500,1500
1747543126.5248282,-0.33,0.0,-0.05,0.28688849579656794,-0.33597588100890846,0.06217735460229799,1.3774249039737918,0.378121751620204,2.102501474388428,0,12.5,0,0,0,0,1405,1400,1384,1500,1500,1500
1747543126.6252668,-0.18,-0.01,0.04,0.23452861823673804,-0.31634092692397225,0.07417649320975901,1.3956838610731703,0.3642007078891367,2.0548354184726048,0,12.5,0,0,0,0,1365,1360,1384,1500,1500,1500
1747543126.7245436,-0.18,-0.01,0.04,0.23452861823673804,-0.31634092692397225,0.07417649320975901,1.3956838610731703,0.3642007078891367,2.0548354184726048,0,12.5,0,0,0,0,1354,1359,1384,1500,1500,1500
1747543126.8088663,0.0,-0.08,-0.11,0.21380283336930536,-0.36760997370130566,0.09381144729469522,1.4116090041171434,0.34833934402023015,2.0048068949079685,0,12.5,0,0,0,0,1354,1359,1384,1500,1500,1500
1747543126.9081173,-0.93,0.14,0.05,0.1832595714594046,-0.41560652813114973,0.1461713248545251,1.4234738808753262,0.32517027748373967,1.9436655385397439,0,12.5,0,0,0,0,1354,1359,1384,1500,1500,1500
1747543127.0080357,-0.93,0.14,0.05,0.1832595714594046,-0.41560652813114973,0.1461713248545251,1.4234738808753262,0.32517027748373967,1.9436655385397439,0,12.5,0,0,0,0,1354,1359,1384,1500,1500,1500
1747543127.1078708,-0.53,0.1,-0.23,0.09381144729469522,-0.32288591161895097,0.11671889372712078,1.4264558135798535,0.31326090738877926,1.888299655679437,0,12.5,0,0,0,0,1354,1359,1384,1500,1500,1500
1747543127.2038164,-0.14,-0.08,-0.17,0.05890486225480862,-0.2825251726665821,0.06763150851478027,1.4268418959208933,0.2956966709776183,1.845608000823636,0,12.5,0,0,0,0,1354,1359,1384,1500,1500,1500
1747543127.3086083,-0.14,-0.08,-0.17,0.05890486225480862,-0.2825251726665821,0.06763150851478027,1.4268418959208933,0.2956966709776183,1.845608000823636,0,12.5,0,0,0,0,1354,1359,1384,1500,1500,1500
1747543127.408067,0.02,-0.01,-0.16,0.032724923474893676,-0.23561944901923448,-0.01090830782496456,1.4235223309615828,0.2861456315307306,1.8062838390577245,0,12.5,0,0,0,0,1354,1359,1384,1500,1500,1500
1747543127.5079694,0.02,-0.01,-0.16,0.032724923474893676,-0.23561944901923448,-0.01090830782496456,1.4235223309615828,0.2861456315307306,1.8062838390577245,0,12.5,0,0,0,0,1354,1359,1384,1500,1500,1500
1747543127.6083686,0.14,-0.1,-0.07,0.008726646259971648,-0.1636246173744684,-0.001090830782496456,1.4186800540532896,0.2838266060009357,1.774343843726276,0,12.5,0,0,0,0,1354,1359,1384,1500,1500,1500
1747543127.707847,0.14,-0.11,0.02,-0.02399827721492203,-0.061086523819801536,0.0545415391248228,1.4134390126984948,0.27610334674375786,1.7588217271745321,0,12.5,0,0,0,0,1354,1359,1384,1500,1500,1500
1747543127.7919562,0.14,-0.11,0.02,-0.02399827721492203,-0.061086523819801536,0.0545415391248228,1.4134390126984948,0.27610334674375786,1.7588217271745321,0,3.503555,0,0,0,0,1354,1359,1384,1500,1500,1500
1747543127.8902736,0.15,-0.14,-0.06,-0.06435901616729091,0.032724923474893676,0.09381144729469522,1.406811540037797,0.26378441354532733,1.7589143896878217,0,0,0,0,0,0,1394,1399,1424,1500,1500,1500
1747543127.9908588,0.11,-0.09,0.0,-0.061086523819801536,0.07853981633974483,0.10362892433716332,1.3996153038216634,0.25021928132672766,1.7702508211141759,0,0,0,0,0,0,1434,1439,1464,1500,1500,1500
1747543128.0918884,0.11,-0.09,0.0,-0.061086523819801536,0.07853981633974483,0.10362892433716332,1.3996153038216634,0.25021928132672766,1.7702508211141759,0,0,0,0,0,0,1474,1479,1500,1500,1500,1500
1747543128.1906905,0.74,-0.06,-0.18,-0.008726646259971648,0.12544553998709243,0.10799224746714914,1.399720754114857,0.23257539123282478,1.7887491467312735,0,0,0,0,0,0,1500,1500,1500,1500,1500,1500
1747543128.2745707,0.74,-0.06,-0.18,-0.008726646259971648,0.12544553998709243,0.10799224746714914,1.399720754114857,0.23257539123282478,1.7887491467312735,0,0,0,0,0,0,1500,1500,1500,1500,1500,1500
1747543128.3749897,0.29,-0.31,-0.06,0.05890486225480862,0.10362892433716332,0.14180800172453928,1.4084284861621936,0.2068260698938857,1.81006725548924,0,0,0,0,0,0,1500,1500,1500,1500,1500,1500
1747543128.4742403,0.23,-0.17,-0.09,0.11235557059713497,0.05126904677733343,0.16253378659197193,1.4257114693492907,0.18068428281380483,1.8257940670252082,0,0,0,0,0,0,1500,1500,1500,1500,1500,1500
1747543128.5584068,0.23,-0.17,-0.09,0.11235557059713497,0.05126904677733343,0.16253378659197193,1.4257114693492907,0.18068428281380483,1.8257940670252082,0,0,0,0,0,0,1500,1500,1500,1500,1500,1500
1747543128.6577246,0.18,-0.11,-0.07,0.15926129424448257,0.014180800172453928,0.17562375598192942,1.449298826623403,0.15349522808649163,1.8345681424995228,0,0,0,0,0,0,1500,1500,1500,1500,1500,1500
1747543128.7540393,0.09,-0.14,-0.05,0.1930770485018727,-0.008726646259971648,0.17998707911191522,1.4759963248484238,0.12703887858920776,1.8375631769507657,0,0,0,0,0,0,1500,1500,1500,1500,1500,1500
1747543128.841831,0.09,-0.14,-0.05,0.1930770485018727,-0.008726646259971648,0.17998707911191522,1.4759963248484238,0.12703887858920776,1.8375631769507657,0,0,0,0,0,0,1500,1500,1500,1500,1500,1500
1747543128.9684732,0.12,-0.12,-0.06,0.22252947962927702,-0.028361600344907856,0.1810779098944117,1.5087047711619737,0.0984788977971452,1.8368953005568565,0,0,0,0,0,0,1500,1500,1500,1500,1500,1500
1747543129.0579607,0.12,-0.12,-0.06,0.22252947962927702,-0.028361600344907856,0.1810779098944117,1.5087047711619737,0.0984788977971452,1.8368953005568565,0,0,0,0,0,0,1500,1500,1500,1500,1500,1500
1747543129.1586335,0.08,-0.12,-0.07,0.24870941840919197,-0.05890486225480862,0.17889624832941878,1.5454279476263961,0.06981693868009785,1.8311922946211059,0,0,0,0,0,0,1500,1500,1500,1500,1500,1500
1747543129.2579374,0.09,-0.13,-0.12,0.2748893571891069,-0.06981317007977318,0.17671458676442586,1.5837834715967265,0.043588462384596384,1.8218949903167454,0,0,0,0,0,0,1500,1500,1500,1500,1500,1500
1747543129.3578653,0.09,-0.13,-0.12,0.2748893571891069,-0.06981317007977318,0.17671458676442586,1.5837834715967265,0.043588462384596384,1.8218949903167454,0,0,0,0,0,0,1500,1500,1500,1500,1500,1500
1747543129.4575832,0.04,-0.07,-0.03,0.2912518189265537,-0.07963064712224129,0.16689710972195776,1.6247497205392143,0.018907779508791786,1.810044708765359,0,0,0,0,0,0,1500,1500,1500,1500,1500,1500
1747543129.5409403,0.08,-0.02,-0.05,0.3076142806640006,-0.08726646259971647,0.15817046346198613,1.6711779907993174,-0.005346457799257181,1.7951217835322415,0,0,0,0,0,0,1500,1500,1500,1500,1500,1500
1747543129.6403613,0.08,-0.02,-0.05,0.3076142806640006,-0.08726646259971647,0.15817046346198613,1.6711779907993174,-0.005346457799257181,1.7951217835322415,0,0,0,0,0,0,1500,1500,1500,1500,1500,1500
1747543129.7401156,0.06,-0.05,-0.06,0.3097959422289935,-0.09490227807719166,0.14835298641951802,1.7162359299787988,-0.025676307481072327,1.7788242831859833,0,0,0,0,0,0,1500,1500,1500,1500,1500,1500
1747543129.8374252,0.05,-0.04,-0.09,0.3174317577064687,-0.10581058590215622,0.13853550937704992,1.7656263545190385,-0.0447639698031104,1.759131634208809,0,0,0,0,0,0,1500,1500,1500,1500,1500,1500
1747543129.9403977,0.05,-0.04,-0.09,0.3174317577064687,-0.10581058590215622,0.13853550937704992,1.7656263545190385,-0.0447639698031104,1.759131634208809,0,0,0,0,0,0,1500,1500,1500,1500,1500,1500
1747543130.025147,0.03,-0.03,-0.04,0.3141592653589793,-0.11780972450961724,0.12980886311707826,1.8124892011062999,-0.06000898882637287,1.7388165245741627,0,0,0,0,0,0,1500,1500,1500,1500,1500,1500
1747543130.1243925,0.03,-0.03,-0.04,0.3141592653589793,-0.11780972450961724,0.12980886311707826,1.8124892011062999,-0.06000898882637287,1.7388165245741627,0,0,0,0,0,0,1500,1500,1500,1500,1500,1500
1747543130.224797,0.03,-0.03,-0.1,0.30652344988150415,-0.12980886311707826,0.11999138607461016,1.862637763617085,-0.07332655115198948,1.7151640741273477,0,0,0,0,0,0,1500,1500,1500,1500,1500,1500
