time,ay,ax,az,gy,gx,gz,roll,pitch,yaw,cmd_fx,cmd_fy,cmd_fz,cmd_tx,cmd_ty,cmd_tz,pwm_1,pwm_2,pwm_3,pwm_4,pwm_5,pwm_6
1748723063.363617,0.0,0.0,0.0,0.0,0.0,0.0,0.0,0.0,0.0,0,0,0,0,0,0,1500,1500,1500,1500,1500,1500
1748723063.4589796,0.04,0.0,-0.36,0.0,-0.002181661564992912,0.001090830782496456,-0.015853525831256415,0.13364078311306163,-0.001060930692381367,0,0,0,0,0,0,1500,1500,1500,1500,1500,1500
1748723063.5608194,0.04,0.0,-0.36,0.0,-0.002181661564992912,0.001090830782496456,-0.015853525831256415,0.13364078311306163,-0.001060930692381367,0,0,0,0,0,0,1500,1500,1500,1500,1500,1500
1748723063.6604142,0.05,0.0,-0.31,0.004363323129985824,0.001090830782496456,0.0,-0.015853525831256415,0.13364078311306163,-0.001060930692381367,0,0,0,0,0,0,1500,1500,1500,1500,1500,1500
1748723063.7606568,0.02,0.04,-0.28,-0.006544984694978736,-0.004363323129985824,0.0,-0.015853525831256415,0.13364078311306163,-0.001060930692381367,0,0,0,0,0,0,1500,1500,1500,1500,1500,1500
1748723063.860794,0.02,0.04,-0.28,-0.006544984694978736,-0.004363323129985824,0.0,-0.015853525831256415,0.13364078311306163,-0.001060930692381367,0,0,0,0,0,0,1500,1500,1500,1500,1500,1500
1748723063.9439645,0.01,0.03,-0.32,0.0,0.001090830782496456,0.0,-0.015853525831256415,0.13364078311306163,-0.001060930692381367,0,0,0,0,0,0,1500,1500,1500,1500,1500,1500
1748723064.0437312,0.01,0.03,-0.32,0.0,0.001090830782496456,0.0,-0.015853525831256415,0.13364078311306163,-0.001060930692381367,0,0,0,0,0,0,1500,1500,1500,1500,1500,1500
1748723064.143725,0.03,0.02,-0.33,0.003272492347489368,0.003272492347489368,-0.002181661564992912,-0.015853525831256415,0.13364078311306163,-0.001060930692381367,0,0,0,0,0,0,1500,1500,1500,1500,1500,1500
1748723064.2258484,0.03,-0.01,-0.32,0.001090830782496456,0.002181661564992912,0.001090830782496456,-0.015853525831256415,0.13364078311306163,-0.001060930692381367,0,0,0,0,0,0,1500,1500,1500,1500,1500,1500
1748723064.3269749,0.03,-0.01,-0.32,0.001090830782496456,0.002181661564992912,0.001090830782496456,-0.015853525831256415,0.13364078311306163,-0.001060930692381367,0,0,0,0,0,0,1500,1500,1500,1500,1500,1500
1748723064.4272444,0.06,0.01,-0.29,-0.002181661564992912,-0.001090830782496456,0.0,-0.015853525831256415,0.13364078311306163,-0.001060930692381367,0,0,0,0,0,0,1500,1500,1500,1500,1500,1500
1748723064.5274656,0.06,0.01,-0.29,-0.002181661564992912,-0.001090830782496456,0.0,-0.015853525831256415,0.13364078311306163,-0.001060930692381367,0,0,0,0,0,0,1500,1500,1500,1500,1500,1500
1748723064.627108,0.02,0.02,-0.3,0.0,-0.001090830782496456,-0.001090830782496456,-0.015853525831256415,0.13364078311306163,-0.001060930692381367,0,0,0,0,0,0,1500,1500,1500,1500,1500,1500
1748723064.7107358,0.02,0.02,-0.3,0.0,-0.001090830782496456,-0.002181661564992912,-0.015853525831256415,0.13364078311306163,-0.001060930692381367,0,0,0,0,0,0,1500,1500,1500,1500,1500,1500
1748723064.8105204,0.02,0.02,-0.3,0.0,-0.001090830782496456,-0.002181661564992912,-0.015853525831256415,0.13364078311306163,-0.001060930692381367,0,0,0,0,0,0,1500,1500,1500,1500,1500,1500
1748723064.9105377,0.04,0.0,-0.29,-0.004363323129985824,-0.001090830782496456,0.003272492347489368,-0.015853525831256415,0.13364078311306163,-0.001060930692381367,0,0,0,0,0,0,1500,1500,1500,1500,1500,1500
1748723065.0114462,0.04,0.0,-0.29,-0.004363323129985824,-0.001090830782496456,0.003272492347489368,-0.015853525831256415,0.13364078311306163,-0.001060930692381367,0,0,0,0,0,0,1500,1500,1500,1500,1500,1500
1748723065.1107283,0.05,-0.01,-0.32,0.0,0.001090830782496456,0.001090830782496456,-0.015853525831256415,0.13364078311306163,-0.001060930692381367,0,0,0,0,0,0,1500,1500,1500,1500,1500,1500
1748723065.1940472,0.06,-0.01,-0.28,-0.003272492347489368,0.004363323129985824,0.0,-0.015853525831256415,0.13364078311306163,-0.001060930692381367,0,0,0,0,0,0,1500,1500,1500,1500,1500,1500
1748723065.2932618,0.06,-0.01,-0.28,-0.003272492347489368,0.004363323129985824,0.0,-0.015853525831256415,0.13364078311306163,-0.001060930692381367,0,0,0,0,0,0,1500,1500,1500,1500,1500,1500
1748723065.3936307,0.05,0.01,-0.3,0.0,0.002181661564992912,0.0,-0.015853525831256415,0.13364078311306163,-0.001060930692381367,0,0,0,0,0,0,1500,1500,1500,1500,1500,1500
1748723065.476741,0.05,0.01,-0.3,0.0,0.002181661564992912,0.0,-0.015853525831256415,0.13364078311306163,-0.001060930692381367,0,0,0,0,0,0,1500,1500,1500,1500,1500,1500
1748723065.5768838,0.01,0.02,-0.33,0.00545415391248228,0.004363323129985824,0.0,-0.015853525831256415,0.13364078311306163,-0.001060930692381367,0,0,0,0,0,0,1500,1500,1500,1500,1500,1500
1748723065.6774864,0.03,0.03,-0.32,-0.002181661564992912,-0.001090830782496456,-0.001090830782496456,-0.015853525831256415,0.13364078311306163,-0.001060930692381367,0,0,-6.942724,0,0,0,1500,1500,1539,1500,1540,1460
1748723065.7780986,0.03,0.03,-0.32,-0.002181661564992912,-0.001090830782496456,-0.001090830782496456,-0.015853525831256415,0.13364078311306163,-0.001060930692381367,0,0,-7.5,0,0,0,1461,1461,1540,1500,1580,1420
1748723065.8768678,0.03,0.02,-0.28,-0.002181661564992912,0.0,-0.001090830782496456,-0.015853525831256415,0.13364078311306163,-0.001060930692381367,0,0,-7.5,0,0,0,1461,1461,1540,1500,1620,1380
1748723065.9609897,0.03,0.02,-0.28,-0.002181661564992912,0.0,-0.001090830782496456,-0.015853525831256415,0.13364078311306163,-0.001060930692381367,0,0,-7.5,0,0,0,1461,1461,1540,1500,1637,1345
1748723066.0607214,0.03,0.01,-0.29,-0.001090830782496456,-0.002181661564992912,-0.001090830782496456,-0.015853525831256415,0.13364078311306163,-0.001060930692381367,0,0,-7.314242,0,0,0,1461,1461,1540,1500,1635,1347
1748723066.1605105,0.04,0.02,-0.32,-0.001090830782496456,-0.001090830782496456,-0.001090830782496456,-0.015853525831256415,0.13364078311306163,-0.001060930692381367,0,0,0,0,0,0,1500,1500,1500,1500,1595,1387
1748723066.2604234,0.04,0.02,-0.32,-0.001090830782496456,-0.001090830782496456,-0.001090830782496456,-0.015853525831256415,0.13364078311306163,-0.001060930692381367,0,0,0,0,0,0,1500,1500,1500,1500,1555,1427
1748723066.3606334,0.03,0.0,-0.34,0.002181661564992912,-0.003272492347489368,-0.001090830782496456,-0.015853525831256415,0.13364078311306163,-0.001060930692381367,0,0,0,0,0,0,1500,1500,1500,1500,1515,1467
1748723066.444049,0.03,0.0,-0.34,0.002181661564992912,-0.003272492347489368,-0.001090830782496456,-0.015853525831256415,0.13364078311306163,-0.001060930692381367,0,0,0,0,0,0,1500,1500,1500,1500,1500,1500
1748723066.5431345,0.04,0.03,-0.31,0.002181661564992912,0.003272492347489368,-0.002181661564992912,-0.015853525831256415,0.13364078311306163,-0.001060930692381367,0,0,0,0,0,0,1500,1500,1500,1500,1500,1500
1748723066.644507,0.01,-0.01,-0.33,-0.002181661564992912,-0.002181661564992912,0.0,-0.015853525831256415,0.13364078311306163,-0.001060930692381367,0,0,0,0,0,0,1500,1500,1500,1500,1500,1500
1748723066.727335,0.01,-0.01,-0.33,-0.002181661564992912,-0.002181661564992912,0.0,-0.015853525831256415,0.13364078311306163,-0.001060930692381367,0,0,0,0,0,0,1500,1500,1500,1500,1500,1500
1748723066.8278623,0.03,0.02,-0.29,-0.002181661564992912,-0.002181661564992912,-0.001090830782496456,-0.015853525831256415,0.13364078311306163,-0.001060930692381367,0,0,0,0,0,0,1500,1500,1500,1500,1500,1500
1748723066.926345,0.04,0.01,-0.32,-0.001090830782496456,0.004363323129985824,0.002181661564992912,-0.015853525831256415,0.13364078311306163,-0.001060930692381367,0,0,0,0,0,0,1500,1500,1500,1500,1500,1500
1748723067.0272841,0.04,0.01,-0.32,-0.001090830782496456,0.004363323129985824,0.002181661564992912,-0.015853525831256415,0.13364078311306163,-0.001060930692381367,0,0,0,0,0,0,1500,1500,1500,1500,1500,1500
1748723067.1274633,0.05,0.01,-0.32,-0.001090830782496456,0.0,0.0,-0.015853525831256415,0.13364078311306163,-0.001060930692381367,0,0,0,0,0,0,1500,1500,1500,1500,1500,1500
1748723067.2106824,0.05,0.01,-0.32,-0.001090830782496456,0.0,0.0,-0.015853525831256415,0.13364078311306163,-0.001060930692381367,0,0,0,0,0,0,1500,1500,1500,1500,1500,1500
1748723067.3107986,0.05,0.0,-0.28,-0.002181661564992912,0.0,0.0,-0.015853525831256415,0.13364078311306163,-0.001060930692381367,0,0,0,0,0,0,1500,1500,1500,1500,1500,1500
1748723067.4058933,0.05,0.01,-0.28,0.001090830782496456,0.001090830782496456,0.0,-0.015853525831256415,0.13364078311306163,-0.001060930692381367,0,0,0,0,0,0,1500,1500,1500,1500,1500,1500
1748723067.4936795,0.05,0.01,-0.28,0.001090830782496456,0.001090830782496456,0.0,-0.015853525831256415,0.13364078311306163,-0.001060930692381367,0,0,0,0,0,0,1500,1500,1500,1500,1500,1500
1748723067.5936964,0.03,0.01,-0.28,-0.001090830782496456,-0.001090830782496456,0.001090830782496456,-0.015853525831256415,0.13364078311306163,-0.001060930692381367,0,0,0,0,0,0,1500,1500,1500,1500,1500,1500
1748723067.677343,0.03,0.01,-0.28,-0.001090830782496456,-0.001090830782496456,0.001090830782496456,-0.015853525831256415,0.13364078311306163,-0.001060930692381367,0,0,0,0,0,0,1500,1500,1500,1500,1500,1500
1748723067.7768219,0.03,0.0,-0.31,0.0,-0.001090830782496456,-0.003272492347489368,-0.015853525831256415,0.13364078311306163,-0.001060930692381367,0,0,0,0,0,0,1500,1500,1500,1500,1500,1500
1748723067.8770678,0.03,0.0,-0.31,0.0,-0.001090830782496456,-0.003272492347489368,-0.015853525831256415,0.13364078311306163,-0.001060930692381367,0,0,0,0,0,0,1500,1500,1500,1500,1500,1500
1748723067.9606035,0.04,0.01,-0.31,0.0,0.001090830782496456,-0.001090830782496456,-0.015853525831256415,0.13364078311306163,-0.001060930692381367,0,0,0,0,0,0,1500,1500,1500,1500,1500,1500
1748723068.059825,0.04,0.0,-0.3,0.002181661564992912,-0.006544984694978736,0.002181661564992912,-0.015853525831256415,0.13364078311306163,-0.001060930692381367,0,0,0,0,0,0,1500,1500,1500,1500,1500,1500
1748723068.1608837,0.04,0.0,-0.3,0.002181661564992912,-0.006544984694978736,0.002181661564992912,-0.015853525831256415,0.13364078311306163,-0.001060930692381367,0,0,0,0,0,0,1500,1500,1500,1500,1500,1500
1748723068.2610192,0.04,0.03,-0.28,-0.002181661564992912,-0.002181661564992912,0.0,-0.015853525831256415,0.13364078311306163,-0.001060930692381367,0,0,0,0,0,0,1500,1500,1500,1500,1500,1500
1748723068.3608003,0.04,0.03,-0.28,-0.002181661564992912,-0.002181661564992912,0.0,-0.015853525831256415,0.13364078311306163,-0.001060930692381367,0,0,0,0,0,0,1500,1500,1500,1500,1500,1500
1748723068.4439578,0.03,0.02,-0.29,0.001090830782496456,-0.001090830782496456,0.0,-0.015853525831256415,0.13364078311306163,-0.001060930692381367,0,0,0,0,0,0,1500,1500,1500,1500,1500,1500
1748723068.5433981,0.05,0.0,-0.33,0.001090830782496456,-0.002181661564992912,-0.001090830782496456,-0.015853525831256415,0.13364078311306163,-0.001060930692381367,0,0,0,0,0,0,1500,1500,1500,1500,1500,1500
1748723068.6429746,0.05,0.0,-0.33,0.001090830782496456,-0.002181661564992912,-0.001090830782496456,-0.015853525831256415,0.13364078311306163,-0.001060930692381367,0,0,0,0,0,0,1500,1500,1500,1500,1500,1500
1748723068.7270045,0.06,0.02,-0.33,0.001090830782496456,-0.002181661564992912,0.001090830782496456,-0.015853525831256415,0.13364078311306163,-0.001060930692381367,0,0,0,0,0,0,1500,1500,1500,1500,1500,1500
1748723068.8271124,0.06,0.02,-0.33,0.001090830782496456,-0.002181661564992912,0.001090830782496456,-0.015853525831256415,0.13364078311306163,-0.001060930692381367,0,0,0,0,0,0,1500,1500,1500,1500,1500,1500
1748723068.9270298,0.07,0.0,-0.33,-0.001090830782496456,0.00545415391248228,-0.001090830782496456,-0.015853525831256415,0.13364078311306163,-0.001060930692381367,0,0,0,0,0,0,1500,1500,1500,1500,1500,1500
1748723069.026805,0.04,0.01,-0.28,-0.001090830782496456,0.002181661564992912,0.0,-0.015853525831256415,0.13364078311306163,-0.001060930692381367,0,0,0,0,0,0,1500,1500,1500,1500,1500,1500
1748723069.1262045,0.04,0.01,-0.28,-0.001090830782496456,0.002181661564992912,0.0,-0.015853525831256415,0.13364078311306163,-0.001060930692381367,0,0,0,0,0,0,1500,1500,1500,1500,1500,1500
1748723069.2095435,0.05,0.02,-0.29,0.0,0.001090830782496456,0.001090830782496456,-0.015853525831256415,0.13364078311306163,-0.001060930692381367,0,0,0,0,0,0,1500,1500,1500,1500,1500,1500
1748723069.3105302,0.05,0.02,-0.29,0.0,0.001090830782496456,0.001090830782496456,-0.015853525831256415,0.13364078311306163,-0.001060930692381367,0,0,0,0,0,0,1500,1500,1500,1500,1500,1500
1748723069.4094162,0.03,0.03,-0.35000000000000003,-0.001090830782496456,0.0,0.001090830782496456,-0.015853525831256415,0.13364078311306163,-0.001060930692381367,0,0,0,0,0,0,1500,1500,1500,1500,1500,1500
1748723069.5097508,0.03,0.01,-0.3,-0.001090830782496456,-0.001090830782496456,0.0,-0.015853525831256415,0.13364078311306163,-0.001060930692381367,0,0,0,0,0,0,1500,1500,1500,1500,1500,1500
1748723069.6089485,0.03,0.01,-0.3,-0.001090830782496456,-0.001090830782496456,0.0,-0.015853525831256415,0.13364078311306163,-0.001060930692381367,0,0,0,0,0,0,1500,1500,1500,1500,1500,1500
1748723069.6945949,0.03,0.01,-0.3,0.0,0.0,0.003272492347489368,-0.015853525831256415,0.13364078311306163,-0.001060930692381367,0,0,0,0,0,0,1500,1500,1500,1500,1500,1500
1748723069.79302,0.03,0.01,-0.3,0.0,0.0,0.003272492347489368,-0.015853525831256415,0.13364078311306163,-0.001060930692381367,0,0,0,0,0,0,1500,1500,1500,1500,1500,1500
1748723069.8940437,0.03,0.03,-0.31,-0.002181661564992912,0.0,-0.001090830782496456,-0.015853525831256415,0.13364078311306163,-0.001060930692381367,0,0,0,0,0,0,1500,1500,1500,1500,1500,1500
1748723069.976388,0.02,0.01,-0.3,0.001090830782496456,-0.002181661564992912,-0.001090830782496456,-0.015853525831256415,0.13364078311306163,-0.001060930692381367,0,0,0,0,0,0,1500,1500,1500,1500,1500,1500
1748723070.076861,0.02,0.01,-0.3,0.001090830782496456,-0.002181661564992912,-0.001090830782496456,-0.015853525831256415,0.13364078311306163,-0.001060930692381367,0,0,0,0,0,0,1500,1500,1500,1500,1500,1500
1748723070.177212,0.03,0.01,-0.33,-0.001090830782496456,0.002181661564992912,0.001090830782496456,-0.015853525831256415,0.13364078311306163,-0.001060930692381367,0,0,0,0,0,0,1500,1500,1500,1500,1500,1500
1748723070.2751188,0.06,0.0,-0.29,-0.001090830782496456,0.0,0.004363323129985824,-0.015853525831256415,0.13364078311306163,-0.001060930692381367,0,0,0,0,0,0,1500,1500,1500,1500,1500,1500
1748723070.3766687,0.06,0.0,-0.29,-0.001090830782496456,0.0,0.004363323129985824,-0.015853525831256415,0.13364078311306163,-0.001060930692381367,0,0,0,0,0,0,1500,1500,1500,1500,1500,1500
1748723070.458965,0.02,0.03,-0.28,-0.002181661564992912,-0.00545415391248228,0.002181661564992912,-0.015853525831256415,0.13364078311306163,-0.001060930692381367,0,0,0,0,0,0,1500,1500,1500,1500,1500,1500
1748723070.5592942,0.02,0.03,-0.28,-0.002181661564992912,-0.00545415391248228,0.002181661564992912,-0.015853525831256415,0.13364078311306163,-0.001060930692381367,0,0,0,0,0,0,1500,1500,1500,1500,1500,1500
1748723070.6603284,0.03,0.02,-0.31,0.002181661564992912,0.0,0.001090830782496456,-0.015853525831256415,0.13364078311306163,-0.001060930692381367,0,0,0,0,0,0,1500,1500,1500,1500,1500,1500
1748723070.759233,0.05,0.0,-0.35000000000000003,-0.002181661564992912,0.0,-0.001090830782496456,-0.015853525831256415,0.13364078311306163,-0.001060930692381367,0,0,0,0,0,0,1500,1500,1500,1500,1500,1500
1748723070.8594956,0.05,0.0,-0.35000000000000003,-0.002181661564992912,0.0,-0.001090830782496456,-0.015853525831256415,0.13364078311306163,-0.001060930692381367,0,0,0,0,0,0,1500,1500,1500,1500,1500,1500
1748723070.9427474,0.05,0.0,-0.31,0.0,-0.001090830782496456,0.001090830782496456,-0.015853525831256415,0.13364078311306163,-0.001060930692381367,0,0,0,0,0,0,1500,1500,1500,1500,1500,1500
1748723071.0432067,0.05,0.0,-0.31,0.0,-0.001090830782496456,0.001090830782496456,-0.015853525831256415,0.13364078311306163,-0.001060930692381367,0,0,0,0,0,0,1500,1500,1500,1500,1500,1500
1748723071.143222,0.05,0.0,-0.32,0.004363323129985824,-0.006544984694978736,0.0,-0.015853525831256415,0.13364078311306163,-0.001060930692381367,0,0,0,0,0,0,1500,1500,1500,1500,1500,1500
1748723071.2271225,0.03,0.01,-0.29,0.0,0.0,-0.001090830782496456,-0.015853525831256415,0.13364078311306163,-0.001060930692381367,0,0,0,0,0,0,1500,1500,1500,1500,1500,1500
1748723071.3271987,0.03,0.01,-0.29,0.0,0.0,-0.001090830782496456,-0.015853525831256415,0.13364078311306163,-0.001060930692381367,0,0,0,0,0,0,1500,1500,1500,1500,1500,1500
1748723071.4262714,0.03,0.0,-0.33,0.002181661564992912,-0.001090830782496456,0.001090830782496456,-0.015853525831256415,0.13364078311306163,-0.001060930692381367,0,0,0,0,0,0,1500,1500,1500,1500,1500,1500
1748723071.527237,0.03,0.0,-0.33,0.002181661564992912,-0.001090830782496456,0.001090830782496456,-0.015853525831256415,0.13364078311306163,-0.001060930692381367,0,0,0,0,0,0,1500,1500,1500,1500,1500,1500
1748723071.6275797,0.03,0.0,-0.31,0.003272492347489368,-0.002181661564992912,0.004363323129985824,-0.015853525831256415,0.13364078311306163,-0.001060930692381367,0,0,7.097523,0,0,0,1538,1538,1460,1500,1460,1540
1748723071.710318,0.04,0.0,-0.26,-0.001090830782496456,-0.002181661564992912,0.002181661564992912,-0.015853525831256415,0.13364078311306163,-0.001060930692381367,0,0,7.5,0,0,0,1538,1538,1456,1500,1420,1580
1748723071.810306,0.04,0.0,-0.26,-0.001090830782496456,-0.002181661564992912,0.002181661564992912,-0.015853525831256415,0.13364078311306163,-0.001060930692381367,0,0,7.5,0,0,0,1538,1538,1456,1500,1380,1620
1748723071.9089472,-0.8300000000000001,-1.1,-0.05,0.001090830782496456,0.001090830782496456,0.003272492347489368,-0.015853525831256415,0.13364078311306163,-0.001060930692381367,0,0,7.5,0,0,0,1538,1538,1456,1500,1343,1635
1748723072.0091932,-0.8300000000000001,-1.1,-0.05,0.001090830782496456,0.001090830782496456,0.003272492347489368,-0.015853525831256415,0.13364078311306163,-0.001060930692381367,0,0,5.425697,0,0,0,1500,1500,1460,1500,1370,1612
1748723072.1096475,-1.3900000000000001,-1.36,0.22,-0.001090830782496456,-0.003272492347489368,-0.016362461737446838,-0.01583683402970271,0.1335198332287516,-0.0008141668358652391,0,0,0,0,0,0,1500,1500,1500,1500,1410,1572
1748723072.192998,-0.31,-0.02,-0.31,-0.006544984694978736,-0.00545415391248228,0.007635815477475192,-0.015967698681578102,0.13339598360577032,-0.0009442790025920357,0,0,0,0,0,0,1500,1500,1500,1500,1450,1532
1748723072.2940812,-0.31,-0.02,-0.31,-0.006544984694978736,-0.00545415391248228,0.007635815477475192,-0.015967698681578102,0.13339598360577032,-0.0009442790025920357,0,0,0,0,0,0,1500,1500,1500,1500,1490,1500
1748723072.394078,0.5700000000000001,0.19,-0.28,0.002181661564992912,0.0,-0.00545415391248228,-0.015730103263538554,0.13339500634834403,-0.0010507473870464445,0,0,0,0,0,0,1500,1500,1500,1500,1500,1500
1748723072.476504,0.5700000000000001,0.19,-0.28,0.002181661564992912,0.0,-0.00545415391248228,-0.015730103263538554,0.13339500634834403,-0.0010507473870464445,0,0,0,0,0,0,1500,1500,1500,1500,1500,1500
1748723072.5768735,0.36,-0.19,-0.27,0.011999138607461015,0.006544984694978736,-0.004363323129985824,-0.015606945843086754,0.13327212100662242,-0.001041566631696432,0,0,0,0,0,0,1500,1500,1500,1500,1500,1500
1748723072.6773078,0.15,-0.05,-0.31,0.003272492347489368,0.002181661564992912,0.0,-0.015484555197549953,0.13351789371650508,-0.0010352936635636902,0,0,0,0,0,0,1500,1500,1500,1500,1500,1500
1748723072.7770407,0.15,-0.05,-0.31,0.003272492347489368,0.002181661564992912,0.0,-0.015484555197549953,0.13351789371650508,-0.0010352936635636902,0,0,0,0,0,0,1500,1500,1500,1500,1500,1500
1748723072.8764875,0.06,-0.01,-0.27,0.001090830782496456,0.001090830782496456,0.001090830782496456,-0.015484555197549953,0.13351789371650508,-0.0010352936635636902,0,0,0,0,0,0,1500,1500,1500,1500,1500,1500
1748723072.960529,0.06,-0.01,-0.27,0.001090830782496456,0.001090830782496456,0.001090830782496456,-0.015484555197549953,0.13351789371650508,-0.0010352936635636902,0,0,0,0,0,0,1500,1500,1500,1500,1500,1500
1748723073.0622156,0.03,0.01,-0.33,0.001090830782496456,-0.001090830782496456,-0.001090830782496456,-0.015484555197549953,0.13351789371650508,-0.0010352936635636902,0,0,0,0,0,0,1500,1500,1500,1500,1500,1500
1748723073.1607132,0.07,-0.01,-0.33,-0.001090830782496456,-0.00545415391248228,0.0,-0.015484555197549953,0.13351789371650508,-0.0010352936635636902,0,0,0,0,0,0,1500,1500,1500,1500,1500,1500
1748723073.2606797,0.07,-0.01,-0.33,-0.001090830782496456,-0.00545415391248228,0.0,-0.015484555197549953,0.13351789371650508,-0.0010352936635636902,0,0,0,0,0,0,1500,1500,1500,1500,1500,1500
1748723073.3595748,0.06,0.0,-0.28,-0.001090830782496456,0.002181661564992912,-0.001090830782496456,-0.015484555197549953,0.13351789371650508,-0.0010352936635636902,0,0,0,0,0,0,1500,1500,1500,1500,1500,1500
1748723073.4430978,0.06,0.0,-0.28,-0.001090830782496456,0.002181661564992912,-0.001090830782496456,-0.015484555197549953,0.13351789371650508,-0.0010352936635636902,0,0,0,0,0,0,1500,1500,1500,1500,1500,1500
1748723073.5428803,0.04,0.01,-0.3,-0.002181661564992912,0.002181661564992912,-0.003272492347489368,-0.015484555197549953,0.13351789371650508,-0.0010352936635636902,0,0,0,0,0,0,1500,1500,1500,1500,1500,1500
1748723073.6430817,0.04,0.0,-0.29,-0.001090830782496456,0.004363323129985824,0.0,-0.015484555197549953,0.13351789371650508,-0.0010352936635636902,0,0,0,0,0,0,1500,1500,1500,1500,1500,1500
1748723073.7268946,0.04,0.0,-0.29,-0.001090830782496456,0.004363323129985824,0.0,-0.015484555197549953,0.13351789371650508,-0.0010352936635636902,0,0,0,0,0,0,1500,1500,1500,1500,1500,1500
1748723073.8261893,0.05,0.0,-0.3,0.001090830782496456,-0.002181661564992912,0.001090830782496456,-0.015484555197549953,0.13351789371650508,-0.0010352936635636902,0,0,0,0,0,0,1500,1500,1500,1500,1500,1500
1748723073.9272826,0.05,0.0,-0.3,0.001090830782496456,-0.002181661564992912,0.001090830782496456,-0.015484555197549953,0.13351789371650508,-0.0010352936635636902,0,0,0,0,0,0,1500,1500,1500,1500,1500,1500
1748723074.026621,0.04,0.0,-0.29,0.00545415391248228,0.001090830782496456,0.002181661564992912,-0.015484555197549953,0.13351789371650508,-0.0010352936635636902,0,0,0,0,0,0,1500,1500,1500,1500,1500,1500
1748723074.1271465,0.03,0.02,-0.28,0.001090830782496456,-0.001090830782496456,0.0,-0.015484555197549953,0.13351789371650508,-0.0010352936635636902,0,0,0,0,0,0,1500,1500,1500,1500,1500,1500
1748723074.209688,0.03,0.02,-0.28,0.001090830782496456,-0.001090830782496456,0.0,-0.015484555197549953,0.13351789371650508,-0.0010352936635636902,0,0,0,0,0,0,1500,1500,1500,1500,1500,1500
1748723074.3103418,0.03,0.03,-0.31,0.003272492347489368,0.001090830782496456,0.002181661564992912,-0.015484555197549953,0.13351789371650508,-0.0010352936635636902,0,0,0,0,0,0,1500,1500,1500,1500,1500,1500
1748723074.4095623,0.03,0.03,-0.31,0.003272492347489368,0.001090830782496456,0.002181661564992912,-0.015484555197549953,0.13351789371650508,-0.0010352936635636902,0,0,0,0,0,0,1500,1500,1500,1500,1500,1500
1748723074.5096877,0.04,0.01,-0.3,-0.002181661564992912,0.0,0.0,-0.015484555197549953,0.13351789371650508,-0.0010352936635636902,0,0,0,0,0,0,1500,1500,1500,1500,1500,1500
1748723074.610435,0.02,0.03,-0.34,-0.004363323129985824,0.001090830782496456,0.0,-0.015484555197549953,0.13351789371650508,-0.0010352936635636902,0,0,0,0,0,0,1500,1500,1500,1500,1500,1500
1748723074.6936305,0.02,0.03,-0.34,-0.004363323129985824,0.001090830782496456,0.0,-0.015484555197549953,0.13351789371650508,-0.0010352936635636902,0,0,0,0,0,0,1500,1500,1500,1500,1500,1500
1748723074.7938068,0.03,0.01,-0.31,0.001090830782496456,-0.001090830782496456,0.0,-0.015484555197549953,0.13351789371650508,-0.0010352936635636902,0,0,0,0,0,0,1500,1500,1500,1500,1500,1500
1748723074.8820837,0.02,-0.01,-0.27,-0.001090830782496456,0.0,0.0,-0.015484555197549953,0.13351789371650508,-0.0010352936635636902,0,0,0,0,0,0,1500,1500,1500,1500,1500,1500
1748723074.9769106,0.02,-0.01,-0.27,-0.001090830782496456,0.0,0.0,-0.015484555197549953,0.13351789371650508,-0.0010352936635636902,0,0,0,0,0,0,1500,1500,1500,1500,1500,1500
1748723075.076413,0.04,0.01,-0.32,0.002181661564992912,-0.001090830782496456,0.001090830782496456,-0.015484555197549953,0.13351789371650508,-0.0010352936635636902,0,0,0,0,0,0,1500,1500,1500,1500,1500,1500
1748723075.176832,0.04,0.01,-0.32,0.002181661564992912,-0.001090830782496456,0.001090830782496456,-0.015484555197549953,0.13351789371650508,-0.0010352936635636902,0,0,0,0,0,0,1500,1500,1500,1500,1500,1500
1748723075.2760983,0.05,0.02,-0.33,0.0,0.001090830782496456,0.001090830782496456,-0.015484555197549953,0.13351789371650508,-0.0010352936635636902,0,0,0,0,0,0,1500,1500,1500,1500,1500,1500
1748723075.3766298,0.05,0.0,-0.33,0.004363323129985824,0.002181661564992912,0.0,-0.015484555197549953,0.13351789371650508,-0.0010352936635636902,0,0,0,0,0,0,1500,1500,1500,1500,1500,1500
1748723075.4597068,0.05,0.0,-0.33,0.004363323129985824,0.002181661564992912,0.0,-0.015484555197549953,0.13351789371650508,-0.0010352936635636902,0,0,0,0,0,0,1500,1500,1500,1500,1500,1500
1748723075.5592723,0.02,0.0,-0.33,0.0,0.0,0.001090830782496456,-0.015484555197549953,0.13351789371650508,-0.0010352936635636902,0,0,0,0,0,0,1500,1500,1500,1500,1500,1500
1748723075.6594746,0.02,0.0,-0.33,0.0,0.0,0.001090830782496456,-0.015484555197549953,0.13351789371650508,-0.0010352936635636902,0,0,0,0,0,0,1500,1500,1500,1500,1500,1500
1748723075.743479,0.01,0.0,-0.31,0.002181661564992912,-0.001090830782496456,0.002181661564992912,-0.015484555197549953,0.13351789371650508,-0.0010352936635636902,0,0,0,0,0,0,1500,1500,1500,1500,1500,1500
1748723075.8437316,0.02,0.03,-0.31,-0.002181661564992912,0.0,0.002181661564992912,-0.015484555197549953,0.13351789371650508,-0.0010352936635636902,0,0,0,0,0,0,1500,1500,1500,1500,1500,1500
1748723075.9269133,0.02,0.03,-0.31,-0.002181661564992912,0.0,0.002181661564992912,-0.015484555197549953,0.13351789371650508,-0.0010352936635636902,0,0,0,0,0,0,1500,1500,1500,1500,1500,1500
1748723076.026021,0.03,0.0,-0.32,0.0,0.001090830782496456,0.002181661564992912,-0.015484555197549953,0.13351789371650508,-0.0010352936635636902,0,0,0,0,0,0,1500,1500,1500,1500,1500,1500
1748723076.1261692,0.03,0.0,-0.32,0.0,0.001090830782496456,0.002181661564992912,-0.015484555197549953,0.13351789371650508,-0.0010352936635636902,0,0,0,0,0,0,1500,1500,1500,1500,1500,1500
1748723076.208833,0.03,-0.01,-0.27,-0.002181661564992912,0.002181661564992912,0.001090830782496456,-0.015484555197549953,0.13351789371650508,-0.0010352936635636902,0,0,0,0,0,0,1500,1500,1500,1500,1500,1500
1748723076.3085942,0.05,0.0,-0.29,-0.001090830782496456,-0.003272492347489368,0.0,-0.015484555197549953,0.13351789371650508,-0.0010352936635636902,0,0,0,0,0,0,1500,1500,1500,1500,1500,1500
1748723076.409178,0.05,0.0,-0.29,-0.001090830782496456,-0.003272492347489368,0.0,-0.015484555197549953,0.13351789371650508,-0.0010352936635636902,0,0,0,0,0,0,1500,1500,1500,1500,1500,1500
1748723076.5105426,0.05,0.0,-0.29,0.001090830782496456,0.00545415391248228,0.002181661564992912,-0.015484555197549953,0.13351789371650508,-0.0010352936635636902,0,0,0,0,0,0,1500,1500,1500,1500,1500,1500
1748723076.6096811,0.05,0.0,-0.29,0.001090830782496456,0.00545415391248228,0.002181661564992912,-0.015484555197549953,0.13351789371650508,-0.0010352936635636902,0,0,0,0,0,0,1500,1500,1500,1500,1500,1500
1748723076.6933799,0.05,0.0,-0.31,0.0,0.00545415391248228,0.001090830782496456,-0.015484555197549953,0.13351789371650508,-0.0010352936635636902,0,0,0,0,0,0,1500,1500,1500,1500,1500,1500
1748723076.7938643,0.01,0.0,-0.3,0.0,0.001090830782496456,0.001090830782496456,-0.015484555197549953,0.13351789371650508,-0.0010352936635636902,0,0,0,0,0,0,1500,1500,1500,1500,1500,1500
1748723076.8939748,0.01,0.0,-0.3,0.0,0.001090830782496456,0.001090830782496456,-0.015484555197549953,0.13351789371650508,-0.0010352936635636902,0,0,0,0,0,0,1500,1500,1500,1500,1500,1500
1748723076.994995,0.06,0.0,-0.26,-0.001090830782496456,0.001090830782496456,0.001090830782496456,-0.015484555197549953,0.13351789371650508,-0.0010352936635636902,0,0,0,0,0,0,1500,1500,1500,1500,1500,1500
1748723077.094858,0.06,0.0,-0.26,-0.001090830782496456,0.001090830782496456,0.001090830782496456,-0.015484555197549953,0.13351789371650508,-0.0010352936635636902,0,0,0,0,0,0,1500,1500,1500,1500,1500,1500
1748723077.1785545,0.02,0.01,-0.31,-0.003272492347489368,0.002181661564992912,0.0,-0.015484555197549953,0.13351789371650508,-0.0010352936635636902,0,0,0,0,0,0,1500,1500,1500,1500,1500,1500
1748723077.2782145,0.04,0.01,-0.31,0.002181661564992912,-0.001090830782496456,0.001090830782496456,-0.015484555197549953,0.13351789371650508,-0.0010352936635636902,0,0,0,0,0,0,1500,1500,1500,1500,1500,1500
1748723077.3777452,0.04,0.01,-0.31,0.002181661564992912,-0.001090830782496456,0.001090830782496456,-0.015484555197549953,0.13351789371650508,-0.0010352936635636902,0,0,0,0,0,0,1500,1500,1500,1500,1500,1500
1748723077.4620223,0.06,0.01,-0.32,0.001090830782496456,-0.002181661564992912,0.001090830782496456,-0.015484555197549953,0.13351789371650508,-0.0010352936635636902,0,0,0,0,0,0,1500,1500,1500,1500,1500,1500
1748723077.5621648,0.06,0.01,-0.32,0.001090830782496456,-0.002181661564992912,0.001090830782496456,-0.015484555197549953,0.13351789371650508,-0.0010352936635636902,0,0,0,0,0,0,1500,1500,1500,1500,1500,1500
1748723077.661647,0.04,0.0,-0.31,0.003272492347489368,-0.003272492347489368,0.0,-0.015484555197549953,0.13351789371650508,-0.0010352936635636902,0,0,0,0,0,0,1500,1500,1500,1500,1500,1500
1748723077.7621374,0.02,0.0,-0.28,-0.003272492347489368,0.001090830782496456,0.001090830782496456,-0.015484555197549953,0.13351789371650508,-0.0010352936635636902,0,0,0,0,0,0,1500,1500,1500,1500,1500,1500
1748723077.8611803,0.02,0.0,-0.28,-0.003272492347489368,0.001090830782496456,0.001090830782496456,-0.015484555197549953,0.13351789371650508,-0.0010352936635636902,0,0,0,0,0,0,1500,1500,1500,1500,1500,1500
1748723077.9446292,0.03,0.02,-0.3,-0.001090830782496456,-0.002181661564992912,0.002181661564992912,-0.015484555197549953,0.13351789371650508,-0.0010352936635636902,0,0,0,0,0,0,1500,1500,1500,1500,1500,1500
1748723078.045248,0.03,0.02,-0.3,-0.001090830782496456,-0.002181661564992912,0.002181661564992912,-0.015484555197549953,0.13351789371650508,-0.0010352936635636902,0,0,0,0,0,0,1500,1500,1500,1500,1500,1500
1748723078.144538,0.03,0.02,-0.32,0.001090830782496456,0.001090830782496456,0.001090830782496456,-0.015484555197549953,0.13351789371650508,-0.0010352936635636902,0,0,0,0,0,0,1500,1500,1500,1500,1500,1500
1748723078.2281942,0.03,0.0,-0.33,-0.002181661564992912,0.006544984694978736,0.002181661564992912,-0.015484555197549953,0.13351789371650508,-0.0010352936635636902,0,0,0,0,0,0,1500,1500,1500,1500,1500,1500
1748723078.3282712,0.03,0.0,-0.33,-0.002181661564992912,0.006544984694978736,0.002181661564992912,-0.015484555197549953,0.13351789371650508,-0.0010352936635636902,0,0,0,0,0,0,1500,1500,1500,1500,1500,1500
1748723078.4274886,0.04,0.01,-0.34,-0.002181661564992912,0.0,-0.001090830782496456,-0.015484555197549953,0.13351789371650508,-0.0010352936635636902,0,0,0,0,0,0,1500,1500,1500,1500,1500,1500
1748723078.5276933,0.04,0.01,-0.34,-0.002181661564992912,0.0,-0.001090830782496456,-0.015484555197549953,0.13351789371650508,-0.0010352936635636902,0,0,0,0,0,0,1500,1500,1500,1500,1500,1500
1748723078.6278937,0.06,-0.01,-0.3,-0.004363323129985824,0.006544984694978736,0.001090830782496456,-0.015484555197549953,0.13351789371650508,-0.0010352936635636902,0,0,0,0,0,0,1500,1500,1500,1500,1500,1500
1748723078.7103422,0.03,0.01,-0.31,-0.003272492347489368,-0.003272492347489368,-0.002181661564992912,-0.015484555197549953,0.13351789371650508,-0.0010352936635636902,0,0,0,0,0,0,1500,1500,1500,1500,1500,1500
1748723078.810914,0.03,0.01,-0.31,-0.003272492347489368,-0.003272492347489368,-0.002181661564992912,-0.015484555197549953,0.13351789371650508,-0.0010352936635636902,0,0,0,0,0,0,1500,1500,1500,1500,1500,1500
1748723078.9111142,0.02,0.0,-0.32,0.002181661564992912,0.0,-0.001090830782496456,-0.015484555197549953,0.13351789371650508,-0.0010352936635636902,0,0,0,0,0,0,1500,1500,1500,1500,1500,1500
1748723079.0062795,0.02,0.0,-0.33,0.0,-0.006544984694978736,-0.001090830782496456,-0.015484555197549953,0.13351789371650508,-0.0010352936635636902,0,0,0,0,0,0,1500,1500,1500,1500,1500,1500
1748723079.1110978,0.02,0.0,-0.33,0.0,-0.006544984694978736,-0.001090830782496456,-0.015484555197549953,0.13351789371650508,-0.0010352936635636902,0,0,0,0,0,0,1500,1500,1500,1500,1500,1500
1748723079.1952198,0.06,0.0,-0.3,0.0,0.0,-0.001090830782496456,-0.015484555197549953,0.13351789371650508,-0.0010352936635636902,0,0,0,0,0,0,1500,1500,1500,1500,1500,1500
1748723079.3007493,0.06,0.0,-0.3,0.0,0.0,-0.001090830782496456,-0.015484555197549953,0.13351789371650508,-0.0010352936635636902,0,0,0,0,0,0,1500,1500,1500,1500,1500,1500
1748723079.396893,0.05,0.0,-0.31,0.0,-0.001090830782496456,-0.001090830782496456,-0.015484555197549953,0.13351789371650508,-0.0010352936635636902,0,0,0,0,0,0,1500,1500,1500,1500,1500,1500
1748723079.4921901,0.05,0.02,-0.31,0.001090830782496456,0.0,0.0,-0.015484555197549953,0.13351789371650508,-0.0010352936635636902,0,0,0,0,0,0,1500,1500,1500,1500,1500,1500
1748723079.5936174,0.05,0.02,-0.31,0.001090830782496456,0.0,0.0,-0.015484555197549953,0.13351789371650508,-0.0010352936635636902,0,0,0,0,0,0,1500,1500,1500,1500,1500,1500
1748723079.6770368,0.04,0.01,-0.33,0.001090830782496456,-0.004363323129985824,0.002181661564992912,-0.015484555197549953,0.13351789371650508,-0.0010352936635636902,0,0,0,0,0,0,1500,1500,1500,1500,1500,1500
1748723079.7766933,0.04,0.01,-0.33,0.001090830782496456,-0.004363323129985824,0.002181661564992912,-0.015484555197549953,0.13351789371650508,-0.0010352936635636902,0,0,0,0,0,0,1500,1500,1500,1500,1500,1500
1748723079.8763611,0.05,0.0,-0.3,0.0,0.003272492347489368,0.003272492347489368,-0.015484555197549953,0.13351789371650508,-0.0010352936635636902,0,0,0,0,0,0,1500,1500,1500,1500,1500,1500
1748723079.9590206,0.05,0.0,-0.3,0.0,0.003272492347489368,0.003272492347489368,-0.015484555197549953,0.13351789371650508,-0.0010352936635636902,0,0,0,0,0,0,1500,1500,1500,1500,1500,1500
1748723080.0593715,0.04,0.01,-0.28,0.001090830782496456,0.001090830782496456,0.003272492347489368,-0.015484555197549953,0.13351789371650508,-0.0010352936635636902,0,0,0,0,0,0,1500,1500,1500,1500,1500,1500
1748723080.1594715,0.02,0.01,-0.31,0.0,-0.00545415391248228,0.002181661564992912,-0.015484555197549953,0.13351789371650508,-0.0010352936635636902,0,0,0,0,0,0,1500,1500,1500,1500,1500,1500
1748723080.243402,0.02,0.01,-0.31,0.0,-0.00545415391248228,0.002181661564992912,-0.015484555197549953,0.13351789371650508,-0.0010352936635636902,0,0,0,0,0,0,1500,1500,1500,1500,1500,1500
1748723080.3425896,0.05,0.0,-0.32,-0.001090830782496456,0.004363323129985824,0.0,-0.015484555197549953,0.13351789371650508,-0.0010352936635636902,0,0,0,0,0,0,1500,1500,1500,1500,1500,1500
1748723080.4382377,0.04,0.0,-0.3,0.0,0.001090830782496456,-0.001090830782496456,-0.015484555197549953,0.13351789371650508,-0.0010352936635636902,0,0,0,0,0,0,1500,1500,1500,1500,1500,1500
1748723080.5259306,0.04,0.0,-0.3,0.0,0.001090830782496456,-0.001090830782496456,-0.015484555197549953,0.13351789371650508,-0.0010352936635636902,0,0,0,0,0,0,1500,1500,1500,1500,1500,1500
1748723080.6264498,0.05,-0.03,-0.31,-0.003272492347489368,-0.001090830782496456,0.002181661564992912,-0.015484555197549953,0.13351789371650508,-0.0010352936635636902,0,0,0,0,0,0,1500,1500,1500,1500,1500,1500
1748723080.7097862,0.05,-0.03,-0.31,-0.003272492347489368,-0.001090830782496456,0.002181661564992912,-0.015484555197549953,0.13351789371650508,-0.0010352936635636902,0,0,0,0,0,0,1500,1500,1500,1500,1500,1500
1748723080.8094618,0.04,0.01,-0.32,-0.001090830782496456,-0.002181661564992912,0.0,-0.015484555197549953,0.13351789371650508,-0.0010352936635636902,0,0,0,0,0,0,1500,1500,1500,1500,1500,1500
1748723080.9085162,0.04,0.01,-0.3,0.001090830782496456,0.0,0.001090830782496456,-0.015484555197549953,0.13351789371650508,-0.0010352936635636902,0,0,0,0,0,0,1500,1500,1500,1500,1500,1500
1748723080.992353,0.04,0.01,-0.3,0.001090830782496456,0.0,0.001090830782496456,-0.015484555197549953,0.13351789371650508,-0.0010352936635636902,0,0,0,0,0,0,1500,1500,1500,1500,1500,1500
1748723081.0927708,0.03,0.01,-0.35000000000000003,-0.001090830782496456,0.002181661564992912,0.002181661564992912,-0.015484555197549953,0.13351789371650508,-0.0010352936635636902,0,0,0,0,0,0,1500,1500,1500,1500,1500,1500
1748723081.1923482,0.03,0.01,-0.35000000000000003,-0.001090830782496456,0.002181661564992912,0.002181661564992912,-0.015484555197549953,0.13351789371650508,-0.0010352936635636902,0,0,0,0,0,0,1500,1500,1500,1500,1500,1500
1748723081.2927895,0.03,-0.02,-0.31,0.001090830782496456,0.0,0.0,-0.015484555197549953,0.13351789371650508,-0.0010352936635636902,0,0,0,0,0,0,1500,1500,1500,1500,1500,1500
1748723081.3925488,0.03,-0.02,-0.31,0.001090830782496456,0.0,0.0,-0.015484555197549953,0.13351789371650508,-0.0010352936635636902,0,0,0,0,0,0,1500,1500,1500,1500,1500,1500
1748723081.4761465,0.01,0.0,-0.29,0.001090830782496456,0.003272492347489368,0.0,-0.015484555197549953,0.13351789371650508,-0.0010352936635636902,0,0,0,0,0,0,1500,1500,1500,1500,1500,1500
1748723081.5765166,0.02,0.01,-0.28,0.0,0.001090830782496456,-0.002181661564992912,-0.015484555197549953,0.13351789371650508,-0.0010352936635636902,0,0,0,0,0,0,1500,1500,1500,1500,1500,1500
1748723081.6756785,0.02,0.01,-0.28,0.0,0.001090830782496456,-0.002181661564992912,-0.015484555197549953,0.13351789371650508,-0.0010352936635636902,0,0,0,0,0,0,1500,1500,1500,1500,1500,1500
1748723081.758851,0.05,0.03,-0.3,-0.002181661564992912,0.006544984694978736,-0.001090830782496456,-0.015484555197549953,0.13351789371650508,-0.0010352936635636902,0,0,0,0,0,0,1500,1500,1500,1500,1500,1500
1748723081.8594503,0.05,0.03,-0.3,-0.002181661564992912,0.006544984694978736,-0.001090830782496456,-0.015484555197549953,0.13351789371650508,-0.0010352936635636902,0,0,0,0,0,0,1500,1500,1500,1500,1500,1500
1748723081.9589858,0.03,0.01,-0.34,0.002181661564992912,-0.004363323129985824,0.003272492347489368,0.015554639780994363,-0.13412594807709577,-0.0010352936635636902,0,0,0,0,0,0,1500,1500,1500,1500,1500,1500
1748723082.0595393,0.03,0.01,-0.33,0.004363323129985824,-0.003272492347489368,-0.001090830782496456,-0.015484555197549953,0.13351789371650508,-0.0010352936635636902,0,0,0,0,0,0,1500,1500,1500,1500,1500,1500
1748723082.1596973,0.03,0.01,-0.33,0.004363323129985824,-0.003272492347489368,-0.001090830782496456,-0.015484555197549953,0.13351789371650508,-0.0010352936635636902,0,0,0,0,0,0,1500,1500,1500,1500,1500,1500
1748723082.2432117,0.05,0.0,-0.28,0.001090830782496456,-0.001090830782496456,-0.002181661564992912,-0.015484555197549953,0.13351789371650508,-0.0010352936635636902,0,0,0,0,0,0,1500,1500,1500,1500,1500,1500
1748723082.3427935,0.05,0.0,-0.28,0.001090830782496456,-0.001090830782496456,-0.002181661564992912,-0.015484555197549953,0.13351789371650508,-0.0010352936635636902,0,0,0,0,0,0,1500,1500,1500,1500,1500,1500
1748723082.4429364,0.04,0.04,-0.33,0.0,-0.001090830782496456,-0.001090830782496456,-0.015484555197549953,0.13351789371650508,-0.0010352936635636902,0,0,0,0,0,0,1500,1500,1500,1500,1500,1500
1748723082.542243,0.05,0.0,-0.3,0.0,-0.004363323129985824,0.0,-0.015484555197549953,0.13351789371650508,-0.0010352936635636902,0,0,0,0,0,0,1500,1500,1500,1500,1500,1500
1748723082.6426568,0.05,0.0,-0.3,0.0,-0.004363323129985824,0.0,-0.015484555197549953,0.13351789371650508,-0.0010352936635636902,0,0,0,0,0,0,1500,1500,1500,1500,1500,1500
1748723082.7262537,0.02,0.0,-0.32,0.002181661564992912,-0.002181661564992912,-0.001090830782496456,-0.015484555197549953,0.13351789371650508,-0.0010352936635636902,0,0,0,0,0,0,1500,1500,1500,1500,1500,1500
1748723082.8211787,0.06,0.0,-0.32,-0.001090830782496456,-0.00545415391248228,0.0,-0.015484555197549953,0.13351789371650508,-0.0010352936635636902,0,0,0,0,0,0,1500,1500,1500,1500,1500,1500
1748723082.9260342,0.06,0.0,-0.32,-0.001090830782496456,-0.00545415391248228,0.0,-0.015484555197549953,0.13351789371650508,-0.0010352936635636902,0,0,0,0,0,0,1500,1500,1500,1500,1500,1500
1748723083.0254812,0.03,0.02,-0.3,-0.002181661564992912,0.0,0.002181661564992912,-0.015484555197549953,0.13351789371650508,-0.0010352936635636902,0,0,0,0,0,0,1500,1500,1500,1500,1500,1500
1748723083.125353,0.03,0.02,-0.3,-0.002181661564992912,0.0,0.002181661564992912,-0.015484555197549953,0.13351789371650508,-0.0010352936635636902,0,0,0,0,0,0,1500,1500,1500,1500,1500,1500
1748723083.2094977,0.03,0.01,-0.29,-0.003272492347489368,0.003272492347489368,0.0,-0.015484555197549953,0.13351789371650508,-0.0010352936635636902,0,0,0,0,0,0,1500,1500,1500,1500,1500,1500
1748723083.3082628,0.03,0.01,-0.29,-0.003272492347489368,0.003272492347489368,0.0,-0.015484555197549953,0.13351789371650508,-0.0010352936635636902,0,0,0,0,0,0,1500,1500,1500,1500,1500,1500
1748723083.4096913,0.05,0.01,-0.32,0.0,0.001090830782496456,0.0,-0.015484555197549953,0.13351789371650508,-0.0010352936635636902,0,0,0,0,0,0,1500,1500,1500,1500,1500,1500
1748723083.4929955,0.06,0.0,-0.31,0.0,-0.002181661564992912,0.0,-0.015484555197549953,0.13351789371650508,-0.0010352936635636902,0,0,0,0,0,0,1500,1500,1500,1500,1500,1500
1748723083.592626,0.06,0.0,-0.31,0.0,-0.002181661564992912,0.0,-0.015484555197549953,0.13351789371650508,-0.0010352936635636902,0,0,0,0,0,0,1500,1500,1500,1500,1500,1500
1748723083.6922576,0.03,0.0,-0.29,0.0,0.0,0.0,-0.015484555197549953,0.13351789371650508,-0.0010352936635636902,0,0,0,0,0,0,1500,1500,1500,1500,1500,1500
1748723083.792633,0.04,0.03,-0.29,-0.003272492347489368,0.002181661564992912,0.0,-0.015484555197549953,0.13351789371650508,-0.0010352936635636902,0,0,0,0,0,0,1500,1500,1500,1500,1500,1500
1748723083.892309,0.04,0.03,-0.29,-0.003272492347489368,0.002181661564992912,0.0,-0.015484555197549953,0.13351789371650508,-0.0010352936635636902,0,0,0,0,0,0,1500,1500,1500,1500,1500,1500
1748723083.9757924,0.02,0.03,-0.33,-0.004363323129985824,0.001090830782496456,-0.001090830782496456,-0.015484555197549953,0.13351789371650508,-0.0010352936635636902,0,0,0,0,0,0,1500,1500,1500,1500,1500,1500
1748723084.0770583,0.02,0.03,-0.33,-0.004363323129985824,0.001090830782496456,-0.001090830782496456,-0.015484555197549953,0.13351789371650508,-0.0010352936635636902,0,0,0,0,0,0,1500,1500,1500,1500,1500,1500
1748723084.1751215,0.04,0.01,-0.31,-0.002181661564992912,-0.003272492347489368,0.0,-0.015484555197549953,0.13351789371650508,-0.0010352936635636902,0,0,0,0,0,0,1500,1500,1500,1500,1500,1500
1748723084.2768762,0.04,0.0,-0.33,0.001090830782496456,-0.003272492347489368,0.0,-0.015484555197549953,0.13351789371650508,-0.0010352936635636902,0,0,0,0,0,0,1500,1500,1500,1500,1500,1500
1748723084.37606,0.04,0.0,-0.33,0.001090830782496456,-0.003272492347489368,0.0,-0.015484555197549953,0.13351789371650508,-0.0010352936635636902,0,0,0,0,0,0,1500,1500,1500,1500,1500,1500
1748723084.4596493,0.03,0.0,-0.25,-0.001090830782496456,-0.002181661564992912,0.0,-0.015484555197549953,0.13351789371650508,-0.0010352936635636902,0,0,0,0,0,0,1500,1500,1500,1500,1500,1500
1748723084.559502,0.03,0.0,-0.25,-0.001090830782496456,-0.002181661564992912,0.0,-0.015484555197549953,0.13351789371650508,-0.0010352936635636902,0,0,0,0,0,0,1500,1500,1500,1500,1500,1500
1748723084.6594331,0.03,0.01,-0.29,-0.001090830782496456,0.003272492347489368,-0.001090830782496456,-0.015484555197549953,0.13351789371650508,-0.0010352936635636902,0,0,0,0,0,0,1500,1500,1500,1500,1500,1500
1748723084.742986,0.01,0.0,-0.33,0.0,-0.001090830782496456,0.002181661564992912,-0.015484555197549953,0.13351789371650508,-0.0010352936635636902,0,0,0,0,0,0,1500,1500,1500,1500,1500,1500
1748723084.8422768,0.01,0.0,-0.33,0.0,-0.001090830782496456,0.002181661564992912,-0.015484555197549953,0.13351789371650508,-0.0010352936635636902,0,0,0,0,0,0,1500,1500,1500,1500,1500,1500
1748723084.9425623,0.05,0.01,-0.34,0.0,0.0,0.0,-0.015484555197549953,0.13351789371650508,-0.0010352936635636902,0,0,0,0,0,0,1500,1500,1500,1500,1500,1500
1748723085.042779,0.05,0.01,-0.34,0.0,0.0,0.0,-0.015484555197549953,0.13351789371650508,-0.0010352936635636902,0,0,0,0,0,0,1500,1500,1500,1500,1500,1500
1748723085.1424797,0.06,-0.01,-0.32,0.002181661564992912,-0.001090830782496456,0.001090830782496456,-0.015484555197549953,0.13351789371650508,-0.0010352936635636902,0,0,0,0,0,0,1500,1500,1500,1500,1500,1500
1748723085.2259498,0.05,0.01,-0.3,0.001090830782496456,-0.003272492347489368,-0.002181661564992912,-0.015484555197549953,0.13351789371650508,-0.0010352936635636902,0,0,0,0,0,0,1500,1500,1500,1500,1500,1500
1748723085.3253627,0.05,0.01,-0.3,0.001090830782496456,-0.003272492347489368,-0.002181661564992912,-0.015484555197549953,0.13351789371650508,-0.0010352936635636902,0,0,0,0,0,0,1500,1500,1500,1500,1500,1500
1748723085.4253614,0.02,0.03,-0.29,-0.001090830782496456,0.002181661564992912,0.003272492347489368,-0.015484555197549953,0.13351789371650508,-0.0010352936635636902,0,0,0,0,0,0,1500,1500,1500,1500,1500,1500
1748723085.5251968,0.04,0.0,-0.32,-0.004363323129985824,0.001090830782496456,-0.001090830782496456,-0.015484555197549953,0.13351789371650508,-0.0010352936635636902,0,0,0,0,0,0,1500,1500,1500,1500,1500,1500
1748723085.625246,0.04,0.0,-0.32,-0.004363323129985824,0.001090830782496456,-0.001090830782496456,-0.015484555197549953,0.13351789371650508,-0.0010352936635636902,0,0,0,0,0,0,1500,1500,1500,1500,1500,1500
1748723085.7090318,0.06,0.0,-0.33,0.0,-0.003272492347489368,-0.001090830782496456,-0.015484555197549953,0.13351789371650508,-0.0010352936635636902,0,0,0,0,0,0,1500,1500,1500,1500,1500,1500
1748723085.8088853,0.06,0.0,-0.33,0.0,-0.003272492347489368,-0.001090830782496456,-0.015484555197549953,0.13351789371650508,-0.0010352936635636902,0,0,0,0,0,0,1500,1500,1500,1500,1500,1500
1748723085.9084897,0.06,-0.02,-0.29,0.0,-0.001090830782496456,0.001090830782496456,-0.015484555197549953,0.13351789371650508,-0.0010352936635636902,0,0,0,0,0,0,1500,1500,1500,1500,1500,1500
1748723085.9923694,0.06,-0.02,-0.29,0.0,-0.001090830782496456,0.001090830782496456,-0.015484555197549953,0.13351789371650508,-0.0010352936635636902,0,0,0,0,0,0,1500,1500,1500,1500,1500,1500
1748723086.0921583,0.06,0.0,-0.31,-0.001090830782496456,0.002181661564992912,0.001090830782496456,-0.015484555197549953,0.13351789371650508,-0.0010352936635636902,0,0,0,0,0,0,1500,1500,1500,1500,1500,1500
1748723086.197925,0.03,0.0,-0.3,-0.002181661564992912,-0.002181661564992912,0.001090830782496456,-0.015484555197549953,0.13351789371650508,-0.0010352936635636902,0,0,0,0,0,0,1500,1500,1500,1500,1500,1500
1748723086.2923517,0.03,0.0,-0.3,-0.002181661564992912,-0.002181661564992912,0.001090830782496456,-0.015484555197549953,0.13351789371650508,-0.0010352936635636902,0,0,0,0,0,0,1500,1500,1500,1500,1500,1500
1748723086.3922489,0.03,0.0,-0.31,0.003272492347489368,-0.002181661564992912,-0.002181661564992912,-0.015484555197549953,0.13351789371650508,-0.0010352936635636902,0,0,0,0,0,0,1500,1500,1500,1500,1500,1500
1748723086.4758317,0.04,0.0,-0.31,0.002181661564992912,0.001090830782496456,-0.001090830782496456,-0.015484555197549953,0.13351789371650508,-0.0010352936635636902,0,0,0,0,0,0,1500,1500,1500,1500,1500,1500
1748723086.5752327,0.04,0.0,-0.31,0.002181661564992912,0.001090830782496456,-0.001090830782496456,-0.015484555197549953,0.13351789371650508,-0.0010352936635636902,0,0,0,0,0,0,1500,1500,1500,1500,1500,1500
1748723086.6750615,0.05,0.0,-0.3,-0.001090830782496456,0.003272492347489368,0.0,-0.015484555197549953,0.13351789371650508,-0.0010352936635636902,0,0,0,0,0,0,1500,1500,1500,1500,1500,1500
1748723086.7755914,0.05,0.0,-0.3,-0.001090830782496456,0.003272492347489368,0.0,-0.015484555197549953,0.13351789371650508,-0.0010352936635636902,0,0,0,0,0,0,1500,1500,1500,1500,1500,1500
1748723086.8758855,0.04,0.0,-0.31,-0.001090830782496456,0.003272492347489368,0.001090830782496456,-0.015484555197549953,0.13351789371650508,-0.0010352936635636902,0,0,0,0,0,0,1500,1500,1500,1500,1500,1500
1748723086.9597626,0.01,0.01,-0.32,0.001090830782496456,-0.002181661564992912,0.002181661564992912,-0.015484555197549953,0.13351789371650508,-0.0010352936635636902,0,0,0,0,0,0,1500,1500,1500,1500,1500,1500
1748723087.058809,0.01,0.01,-0.32,0.001090830782496456,-0.002181661564992912,0.002181661564992912,-0.015484555197549953,0.13351789371650508,-0.0010352936635636902,0,0,0,0,0,0,1500,1500,1500,1500,1500,1500
1748723087.1591265,0.02,0.01,-0.34,-0.001090830782496456,0.0,0.0,-0.015484555197549953,0.13351789371650508,-0.0010352936635636902,0,0,0,0,0,0,1500,1500,1500,1500,1500,1500
1748723087.2426636,0.02,0.01,-0.34,-0.001090830782496456,0.0,0.0,-0.015484555197549953,0.13351789371650508,-0.0010352936635636902,0,0,0,0,0,0,1500,1500,1500,1500,1500,1500
1748723087.342262,0.04,0.0,-0.31,-0.001090830782496456,-0.001090830782496456,0.002181661564992912,-0.015484555197549953,0.13351789371650508,-0.0010352936635636902,0,0,0,0,0,0,1500,1500,1500,1500,1500,1500
1748723087.4279435,0.04,-0.01,-0.32,0.0,0.0,-0.001090830782496456,-0.015484555197549953,0.13351789371650508,-0.0010352936635636902,0,0,0,0,0,0,1500,1500,1500,1500,1500,1500
1748723087.5266268,0.04,-0.01,-0.32,0.0,0.0,-0.001090830782496456,-0.015484555197549953,0.13351789371650508,-0.0010352936635636902,0,0,0,0,0,0,1500,1500,1500,1500,1500,1500
1748723087.6258595,0.04,0.01,-0.29,-0.001090830782496456,-0.003272492347489368,-0.001090830782496456,-0.015484555197549953,0.13351789371650508,-0.0010352936635636902,0,0,0,0,0,0,1500,1500,1500,1500,1500,1500
1748723087.7089987,0.04,0.01,-0.29,-0.001090830782496456,-0.003272492347489368,-0.001090830782496456,-0.015484555197549953,0.13351789371650508,-0.0010352936635636902,0,0,0,0,0,0,1500,1500,1500,1500,1500,1500
1748723087.8092244,0.05,0.0,-0.29,0.002181661564992912,-0.001090830782496456,0.001090830782496456,-0.015484555197549953,0.13351789371650508,-0.0010352936635636902,0,0,0,0,0,0,1500,1500,1500,1500,1500,1500
1748723087.908501,0.04,0.0,-0.3,0.001090830782496456,0.002181661564992912,0.0,-0.015484555197549953,0.13351789371650508,-0.0010352936635636902,0,0,0,0,0,0,1500,1500,1500,1500,1500,1500
1748723087.9928832,0.04,0.0,-0.3,0.001090830782496456,0.002181661564992912,0.0,-0.015484555197549953,0.13351789371650508,-0.0010352936635636902,0,0,0,0,0,0,1500,1500,1500,1500,1500,1500
1748723088.0928907,0.04,0.0,-0.28,-0.003272492347489368,-0.001090830782496456,0.002181661564992912,-0.015484555197549953,0.13351789371650508,-0.0010352936635636902,0,0,0,0,0,0,1500,1500,1500,1500,1500,1500
1748723088.1923287,0.04,0.0,-0.28,-0.003272492347489368,-0.001090830782496456,0.002181661564992912,-0.015484555197549953,0.13351789371650508,-0.0010352936635636902,0,0,0,0,0,0,1500,1500,1500,1500,1500,1500
1748723088.2937694,0.03,0.0,-0.29,-0.002181661564992912,0.0,0.002181661564992912,-0.015484555197549953,0.13351789371650508,-0.0010352936635636902,0,0,0,0,0,0,1500,1500,1500,1500,1500,1500
1748723088.392851,0.03,0.02,-0.33,0.001090830782496456,0.002181661564992912,0.001090830782496456,-0.015484555197549953,0.13351789371650508,-0.0010352936635636902,0,0,0,0,0,0,1500,1500,1500,1500,1500,1500
1748723088.4757438,0.03,0.02,-0.33,0.001090830782496456,0.002181661564992912,0.001090830782496456,-0.015484555197549953,0.13351789371650508,-0.0010352936635636902,0,0,0,0,0,0,1500,1500,1500,1500,1500,1500
1748723088.575334,0.04,0.02,-0.33,0.001090830782496456,-0.004363323129985824,-0.001090830782496456,-0.015484555197549953,0.13351789371650508,-0.0010352936635636902,0,0,0,0,0,0,1500,1500,1500,1500,1500,1500
1748723088.6756265,0.04,0.02,-0.33,0.001090830782496456,-0.004363323129985824,-0.001090830782496456,-0.015484555197549953,0.13351789371650508,-0.0010352936635636902,0,0,0,0,0,0,1500,1500,1500,1500,1500,1500
1748723088.7595391,0.02,0.0,-0.36,0.001090830782496456,0.001090830782496456,0.001090830782496456,-0.015484555197549953,0.13351789371650508,-0.0010352936635636902,0,0,0,0,0,0,1500,1500,1500,1500,1500,1500
1748723088.8591661,0.02,0.0,-0.36,0.001090830782496456,0.001090830782496456,0.001090830782496456,-0.015484555197549953,0.13351789371650508,-0.0010352936635636902,0,0,0,0,0,0,1500,1500,1500,1500,1500,1500
1748723088.9425788,0.02,-0.02,-0.27,-0.002181661564992912,-0.001090830782496456,0.0,-0.015484555197549953,0.13351789371650508,-0.0010352936635636902,0,0,0,0,0,0,1500,1500,1500,1500,1500,1500
1748723089.041879,0.04,0.01,-0.29,0.001090830782496456,-0.002181661564992912,0.0,-0.015484555197549953,0.13351789371650508,-0.0010352936635636902,0,0,0,0,0,0,1500,1500,1500,1500,1500,1500
1748723089.141956,0.04,0.01,-0.29,0.001090830782496456,-0.002181661564992912,0.0,-0.015484555197549953,0.13351789371650508,-0.0010352936635636902,0,0,0,0,0,0,1500,1500,1500,1500,1500,1500
1748723089.2260127,0.05,0.01,-0.28,0.001090830782496456,0.001090830782496456,-0.001090830782496456,-0.015484555197549953,0.13351789371650508,-0.0010352936635636902,0,0,0,0,0,0,1500,1500,1500,1500,1500,1500
1748723089.3253205,0.05,0.01,-0.28,0.001090830782496456,0.001090830782496456,-0.001090830782496456,-0.015484555197549953,0.13351789371650508,-0.0010352936635636902,0,0,0,0,0,0,1500,1500,1500,1500,1500,1500
1748723089.4258199,0.04,0.0,-0.33,0.0,0.0,-0.001090830782496456,-0.015484555197549953,0.13351789371650508,-0.0010352936635636902,0,0,0,0,0,0,1500,1500,1500,1500,1500,1500
1748723089.5086596,0.06,-0.01,-0.31,-0.001090830782496456,0.002181661564992912,-0.001090830782496456,-0.015484555197549953,0.13351789371650508,-0.0010352936635636902,0,0,0,0,0,0,1500,1500,1500,1500,1500,1500
1748723089.608514,0.06,-0.01,-0.31,-0.001090830782496456,0.002181661564992912,-0.001090830782496456,-0.015484555197549953,0.13351789371650508,-0.0010352936635636902,0,0,0,0,0,0,1500,1500,1500,1500,1500,1500
1748723089.7084367,0.04,0.0,-0.3,-0.003272492347489368,-0.002181661564992912,0.001090830782496456,-0.015484555197549953,0.13351789371650508,-0.0010352936635636902,0,0,0,0,0,0,1500,1500,1500,1500,1500,1500
1748723089.8082273,0.05,0.0,-0.3,0.0,-0.002181661564992912,0.001090830782496456,-0.015484555197549953,0.13351789371650508,-0.0010352936635636902,0,0,0,0,0,0,1500,1500,1500,1500,1500,1500
1748723089.908797,0.05,0.0,-0.3,0.0,-0.002181661564992912,0.001090830782496456,-0.015484555197549953,0.13351789371650508,-0.0010352936635636902,0,0,0,0,0,0,1500,1500,1500,1500,1500,1500
1748723089.9921303,0.02,0.02,-0.31,0.0,-0.001090830782496456,-0.001090830782496456,-0.015484555197549953,0.13351789371650508,-0.0010352936635636902,0,0,0,0,0,0,1500,1500,1500,1500,1500,1500
1748723090.0921052,0.02,0.02,-0.31,0.0,-0.001090830782496456,-0.001090830782496456,-0.015484555197549953,0.13351789371650508,-0.0010352936635636902,0,0,0,0,0,0,1500,1500,1500,1500,1500,1500
1748723090.1924376,0.05,0.0,-0.34,-0.001090830782496456,0.002181661564992912,0.001090830782496456,-0.015484555197549953,0.13351789371650508,-0.0010352936635636902,0,0,0,0,0,0,1500,1500,1500,1500,1500,1500
1748723090.2929025,0.04,0.0,-0.32,0.001090830782496456,-0.00545415391248228,-0.001090830782496456,-0.015484555197549953,0.13351789371650508,-0.0010352936635636902,0,0,0,0,0,0,1500,1500,1500,1500,1500,1500
1748723090.3925047,0.04,0.0,-0.32,0.001090830782496456,-0.00545415391248228,-0.001090830782496456,-0.015484555197549953,0.13351789371650508,-0.0010352936635636902,0,0,0,0,0,0,1500,1500,1500,1500,1500,1500
1748723090.475797,0.03,0.0,-0.3,-0.001090830782496456,-0.002181661564992912,0.0,-0.015484555197549953,0.13351789371650508,-0.0010352936635636902,0,0,0,0,0,0,1500,1500,1500,1500,1500,1500
1748723090.5752974,0.03,0.0,-0.3,-0.001090830782496456,-0.002181661564992912,0.0,-0.015484555197549953,0.13351789371650508,-0.0010352936635636902,0,0,0,0,0,0,1500,1500,1500,1500,1500,1500
1748723090.6759634,0.04,0.01,-0.28,0.0,0.0,0.001090830782496456,-0.015484555197549953,0.13351789371650508,-0.0010352936635636902,0,0,0,0,0,0,1500,1500,1500,1500,1500,1500
1748723090.7759397,0.02,0.0,-0.3,-0.002181661564992912,-0.002181661564992912,0.0,-0.015484555197549953,0.13351789371650508,-0.0010352936635636902,0,0,0,0,0,0,1500,1500,1500,1500,1500,1500
1748723090.8749652,0.02,0.0,-0.3,-0.002181661564992912,-0.002181661564992912,0.0,-0.015484555197549953,0.13351789371650508,-0.0010352936635636902,0,0,0,0,0,0,1500,1500,1500,1500,1500,1500
1748723090.9582865,0.03,0.0,-0.3,-0.001090830782496456,0.0,-0.001090830782496456,-0.015484555197549953,0.13351789371650508,-0.0010352936635636902,0,0,0,0,0,0,1500,1500,1500,1500,1500,1500
1748723091.058432,0.03,0.0,-0.3,-0.001090830782496456,0.0,-0.001090830782496456,-0.015484555197549953,0.13351789371650508,-0.0010352936635636902,0,0,0,0,0,0,1500,1500,1500,1500,1500,1500
1748723091.1590729,0.02,0.02,-0.29,-0.004363323129985824,-0.00545415391248228,-0.001090830782496456,-0.015484555197549953,0.13351789371650508,-0.0010352936635636902,0,0,0,0,0,0,1500,1500,1500,1500,1500,1500
1748723091.2426736,0.03,0.01,-0.31,0.0,0.002181661564992912,-0.001090830782496456,-0.015484555197549953,0.13351789371650508,-0.0010352936635636902,0,0,0,0,0,0,1500,1500,1500,1500,1500,1500
1748723091.3419504,0.03,0.01,-0.31,0.0,0.002181661564992912,-0.001090830782496456,-0.015484555197549953,0.13351789371650508,-0.0010352936635636902,0,0,0,0,0,0,1500,1500,1500,1500,1500,1500
1748723091.4419165,0.03,0.03,-0.3,0.0,0.001090830782496456,0.002181661564992912,-0.015484555197549953,0.13351789371650508,-0.0010352936635636902,0,0,0,0,0,0,1500,1500,1500,1500,1500,1500
1748723091.542188,0.03,0.03,-0.3,0.0,0.001090830782496456,0.002181661564992912,-0.015484555197549953,0.13351789371650508,-0.0010352936635636902,0,0,0,0,0,0,1500,1500,1500,1500,1500,1500
1748723091.641587,0.02,0.0,-0.33,0.0,-0.001090830782496456,0.0,-0.015484555197549953,0.13351789371650508,-0.0010352936635636902,0,0,0,0,0,0,1500,1500,1500,1500,1500,1500
1748723091.7259781,0.04,0.0,-0.3,-0.001090830782496456,0.0,0.002181661564992912,-0.015484555197549953,0.13351789371650508,-0.0010352936635636902,0,0,0,0,0,0,1500,1500,1500,1500,1500,1500
1748723091.8254964,0.04,0.0,-0.3,-0.001090830782496456,0.0,0.002181661564992912,-0.015484555197549953,0.13351789371650508,-0.0010352936635636902,0,0,0,0,0,0,1500,1500,1500,1500,1500,1500
1748723091.925296,0.03,0.0,-0.28,-0.001090830782496456,-0.001090830782496456,-0.001090830782496456,-0.015484555197549953,0.13351789371650508,-0.0010352936635636902,0,0,0,0,0,0,1500,1500,1500,1500,1500,1500
1748723092.0262227,0.03,0.0,-0.28,-0.001090830782496456,-0.001090830782496456,-0.001090830782496456,-0.015484555197549953,0.13351789371650508,-0.0010352936635636902,0,0,0,0,0,0,1500,1500,1500,1500,1500,1500
1748723092.1255918,0.03,0.0,-0.3,-0.001090830782496456,0.003272492347489368,0.001090830782496456,-0.015484555197549953,0.13351789371650508,-0.0010352936635636902,0,0,0,0,0,0,1500,1500,1500,1500,1500,1500
1748723092.208266,0.03,0.01,-0.33,-0.002181661564992912,0.001090830782496456,0.004363323129985824,-0.015484555197549953,0.13351789371650508,-0.0010352936635636902,0,0,0,0,0,0,1500,1500,1500,1500,1500,1500
1748723092.3094301,0.03,0.01,-0.33,-0.002181661564992912,0.001090830782496456,0.004363323129985824,-0.015484555197549953,0.13351789371650508,-0.0010352936635636902,0,0,0,0,0,0,1500,1500,1500,1500,1500,1500
1748723092.4084437,0.02,0.0,-0.29,0.003272492347489368,0.0,0.0,-0.015484555197549953,0.13351789371650508,-0.0010352936635636902,0,0,0,0,0,0,1500,1500,1500,1500,1500,1500
1748723092.491645,0.02,0.0,-0.29,0.003272492347489368,0.0,0.0,-0.015484555197549953,0.13351789371650508,-0.0010352936635636902,0,0,0,0,0,0,1500,1500,1500,1500,1500,1500
1748723092.5930002,0.02,0.0,-0.31,-0.001090830782496456,0.0,-0.002181661564992912,-0.015484555197549953,0.13351789371650508,-0.0010352936635636902,0,0,0,0,0,0,1500,1500,1500,1500,1500,1500
1748723092.6918604,0.03,0.01,-0.28,-0.001090830782496456,0.00545415391248228,-0.001090830782496456,-0.015484555197549953,0.13351789371650508,-0.0010352936635636902,0,0,0,0,0,0,1500,1500,1500,1500,1500,1500
1748723092.7921164,0.03,0.01,-0.28,-0.001090830782496456,0.00545415391248228,-0.001090830782496456,-0.015484555197549953,0.13351789371650508,-0.0010352936635636902,0,0,0,0,0,0,1500,1500,1500,1500,1500,1500
1748723092.8914468,0.03,0.02,-0.29,-0.001090830782496456,0.003272492347489368,0.001090830782496456,-0.015484555197549953,0.13351789371650508,-0.0010352936635636902,0,0,0,0,0,0,1500,1500,1500,1500,1500,1500
