time,ay,ax,az,gy,gx,gz,roll,pitch,yaw,cmd_fx,cmd_fy,cmd_fz,cmd_tx,cmd_ty,cmd_tz,pwm_1,pwm_2,pwm_3,pwm_4,pwm_5,pwm_6
1747618284.629577,0.0,0.0,0.0,0.0,0.0,0.0,0.0,0.0,0.0,0,0,0,0,0,0,1500,1500,1500,1500,1500,1500
1747618284.730815,-0.01,0.0,-0.3,0.013089969389957472,-0.04363323129985824,-0.019634954084936207,-0.022297420374280223,0.037117599309199605,-0.010670263893253748,0,0,0,0,0,0,1500,1500,1500,1500,1500,1500
1747618284.8265338,-0.01,0.0,-0.3,0.013089969389957472,-0.04363323129985824,-0.019634954084936207,-0.022297420374280223,0.037117599309199605,-0.010670263893253748,0,0,0,0,0,0,1500,1500,1500,1500,1500,1500
1747618284.930381,-0.03,0.03,-0.42,0.028361600344907856,-0.04145156973486533,-0.018544123302439753,-0.019373440324059642,0.03100320389865432,-0.013242118224267574,0,0,0,0,0,0,1500,1500,1500,1500,1500,1500
1747618285.0317113,0.0,0.06,-0.36,0.025089107997418487,-0.031634092692397225,-0.01090830782496456,-0.015093174858864756,0.025887981769062228,-0.01533422038285803,0,0,0,0,0,0,1500,1500,1500,1500,1500,1500
1747618285.1298928,0.0,0.06,-0.36,0.025089107997418487,-0.031634092692397225,-0.01090830782496456,-0.015093174858864756,0.025887981769062228,-0.01533422038285803,0,0,0,0,0,0,1500,1500,1500,1500,1500,1500
1747618285.2130468,-0.01,0.02,-0.38,0.018544123302439753,-0.019634954084936207,-0.002181661564992912,-0.012132016795765418,0.021512737183922163,-0.01563452965115437,0,0,0,0,0,0,1500,1500,1500,1500,1500,1500
1747618285.3139467,-0.01,0.02,-0.38,0.018544123302439753,-0.019634954084936207,-0.002181661564992912,-0.012132016795765418,0.021512737183922163,-0.01563452965115437,0,0,0,0,0,0,1500,1500,1500,1500,1500,1500
1747618285.4111092,-0.05,0.04,-0.37,-0.020725784867432664,-0.026179938779914945,-0.01090830782496456,-0.012476136178064848,0.018456396717849235,-0.015862896475068083,0,0,0,0,0,0,1500,1500,1500,1500,1500,1500
1747618285.510395,-0.07,0.1,-0.24,-0.04036073895236887,-0.028361600344907856,-0.02945243112740431,-0.017719432616028253,0.014601853810872159,-0.019173681876416153,0,0,0,0,0,0,1500,1500,1500,1500,1500,1500
1747618285.6145015,-0.07,0.1,-0.24,-0.04036073895236887,-0.028361600344907856,-0.02945243112740431,-0.017719432616028253,0.014601853810872159,-0.019173681876416153,0,0,0,0,0,0,1500,1500,1500,1500,1500,1500
1747618285.7083602,-0.07,0.05,-0.33,-0.026179938779914945,-0.018544123302439753,-0.03599741582238305,-0.023096136714444257,0.011678022337808581,-0.024795189157737835,0,0,0,0,0,0,1500,1500,1500,1500,1500,1500
1747618285.795482,-0.03,0.01,-0.38,-0.019634954084936207,-0.011999138607461015,-0.028361600344907856,-0.02602677101456247,0.009624257248054682,-0.029792961551922598,0,0,0,0,0,0,1500,1500,1500,1500,1500,1500
1747618285.8919923,-0.03,0.01,-0.38,-0.019634954084936207,-0.011999138607461015,-0.028361600344907856,-0.02602677101456247,0.009624257248054682,-0.029792961551922598,0,0,0,0,0,0,1500,1500,1500,1500,1500,1500
1747618285.992223,-0.07,0.07,-0.31,-0.015271630954950384,-0.008726646259971648,-0.018544123302439753,-0.02908078478919702,0.008672852761627175,-0.03333487930377313,0,0,0,0,0,0,1500,1500,1500,1500,1500,1500
1747618286.095336,-0.07,0.07,-0.31,-0.015271630954950384,-0.008726646259971648,-0.018544123302439753,-0.02908078478919702,0.008672852761627175,-0.03333487930377313,0,0,0,0,0,0,1500,1500,1500,1500,1500,1500
1747618286.191916,-0.09,0.07,-0.36,-0.01090830782496456,0.013089969389957472,-0.01090830782496456,2.6183400879319234,0.08083810757384914,-0.016383243455893405,0,0,0,0,0,0,1500,1500,1500,1500,1500,1500
1747618286.274765,-0.08,0.02,-0.4,-0.008726646259971648,0.007635815477475192,-0.006544984694978736,-0.03131667596179786,0.009926936647052817,-0.03666129409187632,0,0,0,0,0,0,1500,1500,1500,1500,1500,1500
1747618286.3781521,-0.08,0.02,-0.4,-0.008726646259971648,0.007635815477475192,-0.006544984694978736,-0.03131667596179786,0.009926936647052817,-0.03666129409187632,0,0,0,0,0,0,1500,1500,1500,1500,1500,1500
1747618286.475126,-0.12,0.08,-0.33,-0.006544984694978736,0.001090830782496456,0.004363323129985824,-0.03143877441007051,0.009924708813709987,-0.03666193444279528,0,0,0,0,0,0,1500,1500,1500,1500,1500,1500
1747618286.5592525,-0.12,0.08,-0.33,-0.006544984694978736,0.001090830782496456,0.004363323129985824,-0.03143877441007051,0.009924708813709987,-0.03666193444279528,0,0,0,0,0,0,1500,1500,1500,1500,1500,1500
1747618286.6624873,-0.12,0.08,-0.27,-0.019634954084936207,-0.01090830782496456,0.003272492347489368,-0.03302382832427756,0.009773708023188703,-0.03666820933609319,0,0,0,0,0,0,1500,1500,1500,1500,1500,1500
1747618286.74934,-0.1,0.0,-0.43,-0.03599741582238305,-0.011999138607461015,-0.00545415391248228,-0.03776073543187222,0.008468177795248368,-0.03654518473811351,0,0,0,0,0,0,1500,1500,1500,1500,1500,1500
1747618286.8496058,-0.1,0.0,-0.43,-0.03599741582238305,-0.011999138607461015,-0.00545415391248228,-0.03776073543187222,0.008468177795248368,-0.03654518473811351,0,0,0,0,0,0,1500,1500,1500,1500,1500,1500
1747618286.9339528,-0.11,0.06,-0.35000000000000003,-0.030543261909900768,-0.004363323129985824,-0.01090830782496456,-0.04263298127950278,0.0077635084630663515,-0.036796356581936196,0,0,0,0,0,0,1500,1500,1500,1500,1500,1500
1747618287.0338664,-0.11,0.06,-0.35000000000000003,-0.030543261909900768,-0.004363323129985824,-0.01090830782496456,-0.04263298127950278,0.0077635084630663515,-0.036796356581936196,0,0,0,0,0,0,1500,1500,1500,1500,1500,1500
1747618287.1331868,-0.13,0.04,-0.38,-0.0272707695624114,0.003272492347489368,-0.016362461737446838,-0.04667106343187222,0.007768656969516516,-0.03864570470263044,0,0,0,0,0,0,1500,1500,1500,1500,1500,1500
1747618287.2472548,-0.15,0.07,-0.32,-0.039269908169872414,0.004363323129985824,-0.02181661564992912,-0.051687621470085876,0.007605871874664892,-0.041229200338333986,0,0,0,0,0,0,1500,1500,1500,1500,1500,1500
1747618287.3424203,-0.15,0.07,-0.32,-0.039269908169872414,0.004363323129985824,-0.02181661564992912,-0.051687621470085876,0.007605871874664892,-0.041229200338333986,0,0,0,0,0,0,1500,1500,1500,1500,1500,1500
1747618287.432472,-0.14,0.06,-0.32,-0.044724062082354694,0.0,-0.025089107997418487,-0.05829307258665127,0.007373869188086014,-0.044549517809538086,0,0,0,0,0,0,1500,1500,1500,1500,1500,1500
1747618287.527241,-0.14,0.02,-0.36,-0.04254240051736178,-0.001090830782496456,-0.026179938779914945,-0.06539003547471381,0.00721006381850574,-0.04848328613418493,0,0,0,0,0,0,1500,1500,1500,1500,1500,1500
1747618287.6283507,-0.14,0.02,-0.36,-0.04254240051736178,-0.001090830782496456,-0.026179938779914945,-0.06539003547471381,0.00721006381850574,-0.04848328613418493,0,0,0,0,0,0,1500,1500,1500,1500,1500,1500
1747618287.7250564,-0.15,0.06,-0.33,-0.031634092692397225,-0.004363323129985824,-0.026179938779914945,-0.07077004481802293,0.006706392371764442,-0.0521554851673807,0,0,0,0,0,0,1500,1500,1500,1500,1500,1500
1747618287.8081393,-0.15,0.06,-0.33,-0.031634092692397225,-0.004363323129985824,-0.026179938779914945,-0.07077004481802293,0.006706392371764442,-0.0521554851673807,0,0,0,0,0,0,1500,1500,1500,1500,1500,1500
1747618287.9111605,-0.16,0.05,-0.32,-0.02399827721492203,-0.007635815477475192,-0.018544123302439753,-0.07493047060519416,0.00633895172057996,-0.05582570948366669,0,0,0,0,0,0,1500,1500,1500,1500,1500,1500
1747618287.9938037,-0.14,0.06,-0.4,0.013089969389957472,-0.001090830782496456,-0.004363323129985824,-0.0753024396387959,0.006282959492356733,-0.057048560761519734,0,0,0,0,0,0,1500,1500,1500,1500,1500,1500
1747618288.0938365,-0.14,0.06,-0.4,0.013089969389957472,-0.001090830782496456,-0.004363323129985824,-0.0753024396387959,0.006282959492356733,-0.057048560761519734,0,0,0,0,0,0,1500,1500,1500,1500,1500,1500
1747618288.1823037,-0.18,0.06,-0.33,0.017453292519943295,-0.006544984694978736,0.00545415391248228,-0.07297927117025091,0.006348786684869753,-0.0570388087434091,0,0,0,0,0,0,1500,1500,1500,1500,1500,1500
1747618288.2781599,-0.18,0.06,-0.33,0.017453292519943295,-0.006544984694978736,0.00545415391248228,-0.07297927117025091,0.006348786684869753,-0.0570388087434091,0,0,0,0,0,0,1500,1500,1500,1500,1500,1500
1747618288.378446,-0.13,0.07,-0.29,0.016362461737446838,-0.009817477042468103,0.006544984694978736,-0.07004602129314746,0.00631050483489301,-0.05702563627888794,0,0,0,0,0,0,1500,1500,1500,1500,1500,1500
1747618288.4797006,-0.12,0.05,-0.39,0.016362461737446838,-0.008726646259971648,0.009817477042468103,-0.06759488628015242,0.0060144429415944535,-0.05700649096409274,0,0,0,0,0,0,1500,1500,1500,1500,1500,1500
1747618288.5823529,-0.12,0.05,-0.39,0.016362461737446838,-0.008726646259971648,0.009817477042468103,-0.06759488628015242,0.0060144429415944535,-0.05700649096409274,0,0,0,0,0,0,1500,1500,1500,1500,1500,1500
1747618288.6830382,-0.15,0.05,-0.4,0.014180800172453928,-0.015271630954950384,0.004363323129985824,-0.06511576695282686,0.004742655055876557,-0.0569561936292923,0,0,0,0,0,0,1500,1500,1500,1500,1500,1500
1747618288.7783747,-0.15,0.05,-0.4,0.014180800172453928,-0.015271630954950384,0.004363323129985824,-0.06511576695282686,0.004742655055876557,-0.0569561936292923,0,0,0,0,0,0,1500,1500,1500,1500,1500,1500
1747618288.8810444,-0.14,0.12,-0.3,-0.009817477042468103,-0.006544984694978736,-0.002181661564992912,-0.06449416918843771,0.0043940983554325375,-0.05694229123378421,0,0,0,0,0,0,1500,1500,1500,1500,1500,1500
1747618288.9795263,-0.11,0.08,-0.39,-0.016362461737446838,-0.009817477042468103,-0.003272492347489368,-0.06607899570453633,0.004348679182152083,-0.056943764071800095,0,0,0,0,0,0,1500,1500,1500,1500,1500,1500
1747618289.0781498,-0.11,0.08,-0.39,-0.016362461737446838,-0.009817477042468103,-0.003272492347489368,-0.06607899570453633,0.004348679182152083,-0.056943764071800095,0,0,0,0,0,0,1500,1500,1500,1500,1500,1500
1747618289.1761906,-0.08,0.1,-0.37,-0.007635815477475192,0.00545415391248228,-0.003272492347489368,-0.06815683517527557,0.0042897817931381995,-0.05695021331413888,0,0,0,0,0,0,1500,1500,1500,1500,1500,1500
1747618289.261826,-0.08,0.18,-0.29,0.001090830782496456,0.006544984694978736,0.0,-0.06827907001935392,0.004286317241308682,-0.056950592681187594,0,0,0,0,0,0,1500,1500,1500,1500,1500,1500
1747618289.3569427,-0.08,0.18,-0.29,0.001090830782496456,0.006544984694978736,0.0,-0.06827907001935392,0.004286317241308682,-0.056950592681187594,0,0,0,0,0,0,1500,1500,1500,1500,1500,1500
1747618289.4650214,-0.11,0.15,-0.38,0.006544984694978736,0.009817477042468103,-0.00545415391248228,-0.06830013836059158,0.005018031795029878,-0.05697577190723926,0,0,0,0,0,0,1500,1500,1500,1500,1500,1500
1747618289.560368,-0.07,0.21,-0.29,0.0,0.011999138607461015,-0.003272492347489368,-0.06653364739561653,0.007387116681192379,-0.05704722899675409,0,0,0,0,0,0,1500,1500,1500,1500,1500,1500
1747618289.6594217,-0.07,0.21,-0.29,0.0,0.011999138607461015,-0.003272492347489368,-0.06653364739561653,0.007387116681192379,-0.05704722899675409,0,0,0,0,0,0,1500,1500,1500,1500,1500,1500
1747618289.7503545,-0.09,0.14,-0.29,-0.011999138607461015,0.001090830782496456,0.001090830782496456,-0.06522149310503302,0.008401492726704797,-0.05707667220133141,0,0,0,0,0,0,1500,1500,1500,1500,1500,1500
1747618289.8446004,-0.09,0.14,-0.29,-0.011999138607461015,0.001090830782496456,0.001090830782496456,-0.06522149310503302,0.008401492726704797,-0.05707667220133141,0,0,0,0,0,0,1500,1500,1500,1500,1500,1500
1747618289.9327097,-0.06,0.17,-0.44,0.0,-0.002181661564992912,0.001090830782496456,-0.06401349681223109,0.008923991752439525,-0.057086248181390555,0,0,0,0,0,0,1500,1500,1500,1500,1500,1500
1747618290.0268018,-0.06,0.17,-0.44,0.0,-0.002181661564992912,0.001090830782496456,-0.06401349681223109,0.008923991752439525,-0.057086248181390555,0,0,0,0,0,0,1500,1500,1500,1500,1500,1500
1747618290.1263034,-0.01,0.22,-0.29,-0.00545415391248228,0.009817477042468103,0.0,-0.06256119667946994,0.009453422563901208,-0.05709387401931442,0,0,0,0,0,0,1500,1500,1500,1500,1500,1500
1747618290.2122831,-0.01,0.19,-0.29,-0.020725784867432664,0.025089107997418487,0.001090830782496456,-0.062161269834656196,0.012516430488495553,-0.05718746169617069,0,0,0,0,0,0,1500,1500,1500,1500,1500,1500
1747618290.3091621,-0.01,0.19,-0.29,-0.020725784867432664,0.025089107997418487,0.001090830782496456,-0.062161269834656196,0.012516430488495553,-0.05718746169617069,0,0,0,0,0,0,1500,1500,1500,1500,1500,1500
1747618290.4123838,-0.03,0.18,-0.37,-0.028361600344907856,0.02181661564992912,-0.00545415391248228,-0.06422854548456716,0.016359075404746307,-0.057447986476895904,0,0,0,0,0,0,1500,1500,1500,1500,1500,1500
1747618290.4964056,-0.03,0.18,-0.37,-0.028361600344907856,0.02181661564992912,-0.00545415391248228,-0.06422854548456716,0.016359075404746307,-0.057447986476895904,0,0,0,0,0,0,1500,1500,1500,1500,1500,1500
1747618290.595531,-0.02,0.2,-0.3,-0.03490658503988659,0.007635815477475192,-0.007635815477475192,-0.06783432754686054,0.01845258137090919,-0.05755288514637916,0,0,0,0,0,0,1500,1500,1500,1500,1500,1500
1747618290.6975625,-0.01,0.19,-0.38,-0.032724923474893676,-0.001090830782496456,-0.01090830782496456,-0.07150987297540914,0.018708702037034335,-0.0577222464781942,0,0,0,0,0,0,1500,1500,1500,1500,1500,1500
1747618290.7983031,-0.01,0.19,-0.38,-0.032724923474893676,-0.001090830782496456,-0.01090830782496456,-0.07150987297540914,0.018708702037034335,-0.0577222464781942,0,0,0,0,0,0,1500,1500,1500,1500,1500,1500
1747618290.8918488,0.01,0.16,-0.39,-0.017453292519943295,-0.001090830782496456,-0.007635815477475192,-0.07445140127930157,0.018583339127484253,-0.058848494378953724,0,0,0,0,0,0,1500,1500,1500,1500,1500,1500
1747618290.9782498,0.01,0.18,-0.31,0.004363323129985824,0.002181661564992912,-0.002181661564992912,-0.07383255505871462,0.018357175429063878,-0.05883294828361381,0,0,0,0,0,0,1500,1500,1500,1500,1500,1500
1747618291.077164,0.01,0.18,-0.31,0.004363323129985824,0.002181661564992912,-0.002181661564992912,-0.07383255505871462,0.018357175429063878,-0.05883294828361381,0,0,0,0,0,0,1500,1500,1500,1500,1500,1500
1747618291.1768603,0.01,0.2,-0.41000000000000003,0.02181661564992912,0.00545415391248228,0.01090830782496456,-0.070035581228276,0.018102516973250885,-0.05878461142568849,0,0,0,0,0,0,1500,1500,1500,1500,1500,1500
1747618291.2627473,0.01,0.2,-0.41000000000000003,0.02181661564992912,0.00545415391248228,0.01090830782496456,-0.070035581228276,0.018102516973250885,-0.05878461142568849,0,0,0,0,0,0,1500,1500,1500,1500,1500,1500
1747618291.361522,0.0,0.2,-0.36,0.011999138607461015,-0.002181661564992912,0.007635815477475192,-0.06612592662242206,0.01823849016383389,-0.05814153916061776,0,0,0,0,0,0,1500,1500,1500,1500,1500,1500
1747618291.4462943,0.03,0.21,-0.28,0.017453292519943295,-0.00545415391248228,0.003272492347489368,-0.061963308990587364,0.017993117182884197,-0.058091658607085185,0,0,0,0,0,0,1500,1500,1500,1500,1500,1500
1747618291.5451157,0.03,0.21,-0.28,0.017453292519943295,-0.00545415391248228,0.003272492347489368,-0.061963308990587364,0.017993117182884197,-0.058091658607085185,0,0,0,0,0,0,1500,1500,1500,1500,1500,1500
1747618291.6483283,0.07,0.23,-0.37,-0.001090830782496456,0.008726646259971648,0.004363323129985824,-0.05828276322436963,0.017489691627212943,-0.05804072452978667,0,0,0,0,0,0,1500,1500,1500,1500,1500,1500
1747618291.755211,0.04,0.21,-0.39,-0.02399827721492203,0.001090830782496456,-0.001090830782496456,-0.05802747386320045,0.01713075828434543,-0.05802747386320045,0,0,0,0,0,0,1500,1500,1500,1500,1500,1500
1747618291.8416333,0.04,0.21,-0.39,-0.02399827721492203,0.001090830782496456,-0.001090830782496456,-0.05802747386320045,0.01713075828434543,-0.05802747386320045,0,0,0,0,0,0,1500,1500,1500,1500,1500,1500
1747618291.931638,0.05,0.23,-0.33,-0.039269908169872414,-0.001090830782496456,-0.006544984694978736,-0.06143801421165738,0.016787386151284014,-0.05804835871173851,0,0,0,0,0,0,1500,1500,1500,1500,1500,1500
1747618292.0317824,0.05,0.23,-0.33,-0.039269908169872414,-0.001090830782496456,-0.006544984694978736,-0.06143801421165738,0.016787386151284014,-0.05804835871173851,0,0,0,0,0,0,1500,1500,1500,1500,1500,1500
1747618292.1285203,0.06,0.21,-0.39,-0.030543261909900768,0.009817477042468103,-0.004363323129985824,-0.06460326616730784,0.016454977284714064,-0.057944012910918455,0,0,0,0,0,0,1500,1500,1500,1500,1500,1500
1747618292.2171807,0.06,0.2,-0.3,-0.028361600344907856,0.026179938779914945,-0.002181661564992912,-0.06711077967312212,0.01857507500731011,-0.058160450905363044,0,0,0,0,0,0,1500,1500,1500,1500,1500,1500
1747618292.3139968,0.06,0.2,-0.3,-0.028361600344907856,0.026179938779914945,-0.002181661564992912,-0.06711077967312212,0.01857507500731011,-0.058160450905363044,0,0,0,0,0,0,1500,1500,1500,1500,1500,1500
1747618292.4136257,0.03,0.21,-0.4,-0.03599741582238305,0.0272707695624114,-0.009817477042468103,-0.06954885614839755,0.022405710873692655,-0.058442239554253046,0,0,0,0,0,0,1500,1500,1500,1500,1500,1500
1747618292.515112,0.03,0.21,-0.4,-0.03599741582238305,0.0272707695624114,-0.009817477042468103,-0.06954885614839755,0.022405710873692655,-0.058442239554253046,0,0,0,0,0,0,1500,1500,1500,1500,1500,1500
1747618292.6084366,0.05,0.19,-0.31,-0.05890486225480862,0.031634092692397225,-0.014180800172453928,-0.07457411772690167,0.02583970076034326,-0.06083428199293271,0,0,0,0,0,0,1500,1500,1500,1500,1500,1500
1747618292.6965604,0.07,0.19,-0.3,-0.04581489286485115,0.037088246604879506,-0.008726646259971648,-0.0812223700204583,0.030465017811665874,-0.0624626050736826,0,0,0,0,0,0,1500,1500,1500,1500,1500,1500
1747618292.7984538,0.07,0.19,-0.3,-0.04581489286485115,0.037088246604879506,-0.008726646259971648,-0.0812223700204583,0.030465017811665874,-0.0624626050736826,0,0,0,0,0,0,1500,1500,1500,1500,1500,1500
1747618292.8906314,0.05,0.15,-0.39,0.002181661564992912,0.03490658503988659,0.006544984694978736,-0.08359686973295075,0.035754579394266205,-0.0628464529791965,0,0,0,0,0,0,1500,1500,1500,1500,1500,1500
1747618292.9948242,0.05,0.15,-0.39,0.002181661564992912,0.03490658503988659,0.006544984694978736,-0.08359686973295075,0.035754579394266205,-0.0628464529791965,0,0,0,0,0,0,1500,1500,1500,1500,1500,1500
1747618293.0919654,0.01,0.22,-0.27,0.04254240051736178,0.017453292519943295,0.02181661564992912,-0.07831625631700494,0.04015618842212452,-0.060721377069788154,0,0,0,0,0,0,1500,1500,1500,1500,1500,1500
1747618293.195258,0.05,0.24,-0.27,0.06544984694978735,-0.009817477042468103,0.03381575425739013,-0.06822360355101288,0.04071553605259976,-0.05661647001262606,0,0,0,0,0,0,1500,1500,1500,1500,1500,1500
1747618293.2984476,0.05,0.24,-0.27,0.06544984694978735,-0.009817477042468103,0.03381575425739013,-0.06822360355101288,0.04071553605259976,-0.05661647001262606,0,0,0,0,0,0,1500,1500,1500,1500,1500,1500
1747618293.3996522,0.08,0.21,-0.38,0.0719948316447661,-0.019634954084936207,0.037088246604879506,-0.05570820150528165,0.03877223083450104,-0.05091750107628884,0,0,0,0,0,0,1500,1500,1500,1500,1500,1500
1747618293.49725,0.07,0.23,-0.32,0.05781403147231216,-0.016362461737446838,0.032724923474893676,-0.04317320707028334,0.03517953211162601,-0.04509290987039489,0,0,0,0,0,0,1500,1500,1500,1500,1500,1500
1747618293.5967536,0.07,0.23,-0.32,0.05781403147231216,-0.016362461737446838,0.032724923474893676,-0.04317320707028334,0.03517953211162601,-0.04509290987039489,0,0,0,0,0,0,1500,1500,1500,1500,1500,1500
1747618293.6935608,0.1,0.2,-0.41000000000000003,0.06217735460229799,-0.004363323129985824,0.0272707695624114,-0.032049082956587704,0.03280876546860147,-0.04057713503356188,0,0,0,0,0,0,1500,1500,1500,1500,1500,1500
1747618293.7824485,0.07,0.21,-0.32,0.04254240051736178,-0.003272492347489368,0.026179938779914945,-0.02207794125641175,0.03195145457646841,-0.03673813834739905,0,0,0,0,0,0,1500,1500,1500,1500,1500,1500
1747618293.8747725,0.07,0.21,-0.32,0.04254240051736178,-0.003272492347489368,0.026179938779914945,-0.02207794125641175,0.03195145457646841,-0.03673813834739905,0,0,0,0,0,0,1500,1500,1500,1500,1500,1500
1747618293.9802396,0.11,0.21,-0.35000000000000003,0.022907446432425576,-0.007635815477475192,0.017453292519943295,-0.029575032443743342,0.03064445194063725,-0.03342300966892257,0,0,0,0,0,0,1500,1500,1500,1500,1500,1500
1747618294.0886035,0.11,0.21,-0.35000000000000003,0.022907446432425576,-0.007635815477475192,0.017453292519943295,-0.029575032443743342,0.03064445194063725,-0.03342300966892257,0,0,0,0,0,0,1500,1500,1500,1500,1500,1500
1747618294.1925044,0.1,0.19,-0.42,0.002181661564992912,-0.008726646259971648,0.016362461737446838,-0.00984694911372291,0.02951900189140976,-0.03017910039627893,0,0,0,0,0,0,1500,1500,1500,1500,1500,1500
1747618294.2753642,0.11,0.19,-0.31,0.007635815477475192,0.004363323129985824,0.019634954084936207,-0.007467175813560151,0.028467566149818786,-0.027088004500508946,0,0,0,0,0,0,1500,1500,1500,1500,1500,1500
1747618294.376014,0.11,0.19,-0.31,0.007635815477475192,0.004363323129985824,0.019634954084936207,-0.007467175813560151,0.028467566149818786,-0.027088004500508946,0,0,0,0,0,0,1500,1500,1500,1500,1500,1500
1747618294.4613497,0.08,0.19,-0.33,-0.011999138607461015,-0.008726646259971648,0.008726646259971648,-0.005098759768848397,0.027405816595029154,-0.024608743083138155,0,0,0,0,0,0,1500,1500,1500,1500,1500,1500
1747618294.5614254,0.1,0.18,-0.43,-0.05999569303730508,-0.002181661564992912,-0.00545415391248228,-0.0076474571821750995,0.026275976059093542,-0.02451707051215867,0,0,0,0,0,0,1500,1500,1500,1500,1500,1500
1747618294.6642911,0.1,0.18,-0.43,-0.05999569303730508,-0.002181661564992912,-0.00545415391248228,-0.0076474571821750995,0.026275976059093542,-0.02451707051215867,0,0,0,0,0,0,1500,1500,1500,1500,1500,1500
1747618294.7668605,0.1,0.18,-0.33,-0.09053895494720585,0.017453292519943295,-0.015271630954950384,-0.017180819474970386,0.025661066022869893,-0.02585943998251466,0,0,0,0,0,0,1500,1500,1500,1500,1500,1500
1747618294.8621414,0.1,0.18,-0.33,-0.09053895494720585,0.017453292519943295,-0.015271630954950384,-0.017180819474970386,0.025661066022869893,-0.02585943998251466,0,0,0,0,0,0,1500,1500,1500,1500,1500,1500
1747618294.947258,0.08,0.13,-0.39,-0.08399397025222712,0.02181661564992912,-0.028361600344907856,-0.029347375594988626,0.028144491312252256,-0.029106598205365687,0,0,0,0,0,0,1500,1500,1500,1500,1500,1500
1747618295.0603948,0.09,0.16,-0.28,-0.06326818538479445,0.014180800172453928,-0.0272707695624114,-0.03945963226291195,0.030484763568087048,-0.03320644264682238,0,0,0,0,0,0,1500,1500,1500,1500,1500,1500
1747618295.1584883,0.09,0.16,-0.28,-0.06326818538479445,0.014180800172453928,-0.0272707695624114,-0.03945963226291195,0.030484763568087048,-0.03320644264682238,0,0,0,0,0,0,1500,1500,1500,1500,1500,1500
1747618295.2425168,0.04,0.13,-0.33,-0.02945243112740431,-0.001090830782496456,-0.025089107997418487,-0.045502335193309804,0.030420465048157912,-0.037084529187561895,0,0,0,0,0,0,1500,1500,1500,1500,1500,1500
1747618295.3381097,0.11,0.13,-0.41000000000000003,0.014180800172453928,-0.00545415391248228,-0.004363323129985824,-0.045027744523181375,0.02940404915256461,-0.039252650697914004,0,0,0,0,0,0,1500,1500,1500,1500,1500,1500
1747618295.4424002,0.11,0.13,-0.41000000000000003,0.014180800172453928,-0.00545415391248228,-0.004363323129985824,-0.045027744523181375,0.02940404915256461,-0.039252650697914004,0,0,0,0,0,0,1500,1500,1500,1500,1500,1500
1747618295.565154,0.11,0.21,-0.35000000000000003,0.04581489286485115,0.004363323129985824,0.017453292519943295,-0.03827150396852071,0.028208889890779017,-0.03827150396852071,0,0,0,0,0,0,1500,1500,1500,1500,1500,1500
1747618295.650011,0.1,0.17,-0.4,0.050178215994836975,0.031634092692397225,0.032724923474893676,-0.0281152759608295,0.030659963885473828,-0.033886802692682697,0,0,0,0,0,0,1500,1500,1500,1500,1500,1500
1747618295.7435124,0.1,0.17,-0.4,0.050178215994836975,0.031634092692397225,0.032724923474893676,-0.0281152759608295,0.030659963885473828,-0.033886802692682697,0,0,0,0,0,0,1500,1500,1500,1500,1500,1500
1747618295.843198,0.06,0.18,-0.39,0.017453292519943295,0.007635815477475192,0.014180800172453928,-0.020640668410479814,0.0327768672846068,-0.030129958940330933,0,0,0,0,0,0,1500,1500,1500,1500,1500,1500
1747618295.9426916,0.06,0.18,-0.39,0.017453292519943295,0.007635815477475192,0.014180800172453928,-0.020640668410479814,0.0327768672846068,-0.030129958940330933,0,0,0,0,0,0,1500,1500,1500,1500,1500,1500
1747618296.0266788,0.07,0.24,-0.3,-0.04254240051736178,-0.03599741582238305,-0.014180800172453928,-0.02059695581809821,0.029845406593338418,-0.030219805094534678,0,0,0,0,0,0,1500,1500,1500,1500,1500,1500
1747618296.1196868,0.09,0.18,-0.38,-0.07526732399225546,-0.039269908169872414,-0.037088246604879506,-0.02725616114491905,0.02334944723874351,-0.03377231216706114,0,0,0,0,0,0,1500,1500,1500,1500,1500,1500
1747618296.2274125,0.09,0.18,-0.38,-0.07526732399225546,-0.039269908169872414,-0.037088246604879506,-0.02725616114491905,0.02334944723874351,-0.03377231216706114,0,0,0,0,0,0,1500,1500,1500,1500,1500,1500
1747618296.3254282,0.09,0.18,-0.34,-0.09053895494720585,-0.02399827721492203,-0.05126904677733343,-0.03831939017017407,0.017055459167427685,-0.04037709875195349,0,0,0,0,0,0,1500,1500,1500,1500,1500,1500
1747618296.4321527,0.08,0.13,-0.4,-0.09490227807719166,-0.016362461737446838,-0.06435901616729091,-0.05014565116842931,0.013067066000289512,-0.04881153981879646,0,0,0,0,0,0,1500,1500,1500,1500,1500,1500
1747618296.529393,0.08,0.13,-0.4,-0.09490227807719166,-0.016362461737446838,-0.06435901616729091,-0.05014565116842931,0.013067066000289512,-0.04881153981879646,0,0,0,0,0,0,1500,1500,1500,1500,1500,1500
1747618296.6365294,0.1,0.18,-0.4,-0.09053895494720585,0.0,-0.07090400086226964,-0.062249328880687,0.011007806936084427,-0.05848578023729839,0,0,0,0,0,0,1500,1500,1500,1500,1500,1500
1747618296.7294319,0.1,0.18,-0.4,-0.09053895494720585,0.0,-0.07090400086226964,-0.062249328880687,0.011007806936084427,-0.05848578023729839,0,0,0,0,0,0,1500,1500,1500,1500,1500,1500
1747618296.8293378,0.09,0.21,-0.33,-0.0916297857297023,0.015271630954950384,-0.06872233929727672,-0.07464233785852806,0.010368160398654321,-0.06929875363428735,0,0,0,0,0,0,1500,1500,1500,1500,1500,1500
1747618296.9336526,0.07,0.17,-0.43,-0.08399397025222712,0.017453292519943295,-0.05672320068981571,-0.08589205061166216,0.012032188224161343,-0.07849021297501903,0,0,0,0,0,0,1500,1500,1500,1500,1500,1500
1747618297.0292594,0.07,0.17,-0.43,-0.08399397025222712,0.017453292519943295,-0.05672320068981571,-0.08589205061166216,0.012032188224161343,-0.07849021297501903,0,0,0,0,0,0,1500,1500,1500,1500,1500,1500
1747618297.1282587,0.03,0.23,-0.31,-0.08399397025222712,0.019634954084936207,-0.04145156973486533,-0.09704443645633251,0.014046885076106002,-0.08601347002517565,0,0,0,0,0,0,1500,1500,1500,1500,1500,1500
1747618297.2136142,0.03,0.23,-0.31,-0.08399397025222712,0.019634954084936207,-0.04145156973486533,-0.09704443645633251,0.014046885076106002,-0.08601347002517565,0,0,0,0,0,0,1500,1500,1500,1500,1500,1500
1747618297.3083727,0.03,0.23,-0.31,-0.08399397025222712,0.019634954084936207,-0.04145156973486533,-0.09704443645633251,0.014046885076106002,-0.08601347002517565,0,0,0,0,0,0,1500,1500,1500,1500,1500,1500
1747618297.4219315,0.03,0.23,-0.31,-0.08399397025222712,0.019634954084936207,-0.04145156973486533,-0.09704443645633251,0.014046885076106002,-0.08601347002517565,0,0,0,0,0,0,1500,1500,1500,1500,1500,1500
1747618297.5219092,0.03,0.23,-0.31,-0.08399397025222712,0.019634954084936207,-0.04145156973486533,-0.09704443645633251,0.014046885076106002,-0.08601347002517565,0,0,0,0,0,0,1500,1500,1500,1500,1500,1500
1747618391.6962132,0.03,0.23,-0.31,-0.08399397025222712,0.019634954084936207,-0.04145156973486533,-0.09704443645633251,0.014046885076106002,-0.08601347002517565,0,0,0,0,0,0,1500,1500,1500,1500,1500,1500
1747618391.7973566,-0.1,0.29,-0.49,-0.09272061651219876,0.016362461737446838,0.13853550937704992,-0.14538295420981712,0.03081957112054279,-0.11712726398286905,0,0,0,0,0,0,1500,1500,1500,1500,1500,1500
1747618391.8891747,-0.1,0.29,-0.49,-0.09272061651219876,0.016362461737446838,0.13853550937704992,-0.14538295420981712,0.03081957112054279,-0.11712726398286905,0,0,0,0,0,0,1500,1500,1500,1500,1500,1500
1747618391.9892597,-0.1,0.03,-0.46,0.11344640137963143,0.038179077387375956,0.10253809355466686,-0.13695611459452095,0.03858965935163789,-0.10365474916586796,0,0,0,0,0,0,1500,1500,1500,1500,1500,1500
1747618392.0723538,-0.17,0.15,-0.27,0.10799224746714914,-0.025089107997418487,0.12326387842209953,-0.11953366702641101,0.0403945544339131,-0.08793837094872979,0,0,0,0,0,0,1500,1500,1500,1500,1500,1500
1747618392.174311,-0.17,0.15,-0.27,0.10799224746714914,-0.025089107997418487,0.12326387842209953,-0.11953366702641101,0.0403945544339131,-0.08793837094872979,0,0,0,0,0,0,1500,1500,1500,1500,1500,1500
1747618392.2587874,0.0,-0.11,-0.24,0.06981317007977318,-0.05999569303730508,0.1439896632895322,-0.10486701334817011,0.037525773038673944,-0.06567662996992116,0,0,0,0,0,0,1500,1500,1500,1500,1500,1500
1747618392.3631446,0.0,-0.11,-0.24,0.06981317007977318,-0.05999569303730508,0.1439896632895322,-0.10486701334817011,0.037525773038673944,-0.06567662996992116,0,0,0,0,0,0,1500,1500,1500,1500,1500,1500
1747618392.4608123,-0.06,0.04,-0.37,0.11344640137963143,-0.05781403147231216,0.050178215994836975,-0.09032175214985816,0.030454351082959404,-0.05099731349225806,0,0,0,0,0,0,1500,1500,1500,1500,1500,1500
1747618392.5633917,-0.01,0.07,-0.35000000000000003,0.09926560120717749,-0.04581489286485115,0.02181661564992912,-0.07466699366433877,0.02334985713240956,-0.0454645994351994,0,0,0,0,0,0,1500,1500,1500,1500,1500,1500
1747618392.6608763,-0.01,0.07,-0.35000000000000003,0.09926560120717749,-0.04581489286485115,0.02181661564992912,-0.07466699366433877,0.02334985713240956,-0.0454645994351994,0,0,0,0,0,0,1500,1500,1500,1500,1500,1500
1747618392.7549572,-0.02,0.08,-0.33,0.07744898555724837,-0.006544984694978736,0.015271630954950384,-0.0607577094966421,0.019819469385445942,-0.04323002847013258,0,0,0,0,0,0,1500,1500,1500,1500,1500,1500
1747618392.843726,-0.02,0.08,-0.33,0.07744898555724837,-0.006544984694978736,0.015271630954950384,-0.0607577094966421,0.019819469385445942,-0.04323002847013258,0,0,0,0,0,0,1500,1500,1500,1500,1500,1500
1747618392.938714,-0.04,0.11,-0.39,0.050178215994836975,0.008726646259971648,0.022907446432425576,-0.05022368593293087,0.020000986604958474,-0.040070641300049566,0,0,0,0,0,0,1500,1500,1500,1500,1500,1500
1747618393.0275872,-0.08,0.11,-0.31,-0.018544123302439753,0.011999138607461015,0.008726646259971648,-0.04837447179283269,0.020338201418426467,-0.03773951059263961,0,0,0,0,0,0,1500,1500,1500,1500,1500,1500
1747618393.1272535,-0.08,0.11,-0.31,-0.018544123302439753,0.011999138607461015,0.008726646259971648,-0.04837447179283269,0.020338201418426467,-0.03773951059263961,0,0,0,0,0,0,1500,1500,1500,1500,1500,1500
1747618393.223331,-0.07,0.04,-0.35000000000000003,-0.05781403147231216,0.017453292519943295,-0.008726646259971648,-0.05574081084290993,0.022273631277166632,-0.03787181084506578,0,0,0,0,0,0,1500,1500,1500,1500,1500,1500
1747618393.306898,-0.07,0.04,-0.35000000000000003,-0.05781403147231216,0.017453292519943295,-0.008726646259971648,-0.05574081084290993,0.022273631277166632,-0.03787181084506578,0,0,0,0,0,0,1500,1500,1500,1500,1500,1500
1747618393.4060075,-0.08,0.0,-0.41000000000000003,-0.038179077387375956,0.025089107997418487,-0.004363323129985824,-0.0628869276862627,0.025311348855058334,-0.038051715165212635,0,0,0,0,0,0,1500,1500,1500,1500,1500,1500
1747618393.5085948,-0.11,0.08,-0.29,-0.022907446432425576,0.014180800172453928,0.004363323129985824,-0.06684897065231418,0.02804158799253509,-0.03819489144880825,0,0,0,0,0,0,1500,1500,1500,1500,1500,1500
1747618393.6058054,-0.11,0.08,-0.29,-0.022907446432425576,0.014180800172453928,0.004363323129985824,-0.06684897065231418,0.02804158799253509,-0.03819489144880825,0,0,0,0,0,0,1500,1500,1500,1500,1500,1500
1747618393.7101321,-0.07,0.02,-0.41000000000000003,-0.01090830782496456,0.015271630954950384,0.025089107997418487,-0.06992496667153103,0.030240346376120397,-0.03660885349227862,0,0,0,0,0,0,1500,1500,1500,1500,1500,1500
1747618393.7950637,-0.07,0.0,-0.38,0.04363323129985824,0.019634954084936207,0.04145156973486533,-0.06818102186452492,0.033503123986647294,-0.03131641099090262,0,0,0,0,0,0,1500,1500,1500,1500,1500,1500
1747618393.8931649,-0.07,0.0,-0.38,0.04363323129985824,0.019634954084936207,0.04145156973486533,-0.06818102186452492,0.033503123986647294,-0.03131641099090262,0,0,0,0,0,0,1500,1500,1500,1500,1500,1500
1747618393.9926994,-0.08,0.03,-0.28,0.10799224746714914,0.020725784867432664,0.06544984694978735,-0.05404067782994726,0.036733878701507267,-0.023588189905008997,0,0,0,0,0,0,1500,1500,1500,1500,1500,1500
1747618394.09404,-0.08,0.03,-0.28,0.10799224746714914,0.020725784867432664,0.06544984694978735,-0.05404067782994726,0.036733878701507267,-0.023588189905008997,0,0,0,0,0,0,1500,1500,1500,1500,1500,1500
1747618394.1939676,-0.16,0.12,-0.31,0.04363323129985824,-0.025089107997418487,0.015271630954950384,-0.041341506333969914,0.037999908390383835,-0.01653910176198509,0,0,0,0,0,0,1500,1500,1500,1500,1500,1500
1747618394.27496,-0.11,0.07,-0.31,-0.01090830782496456,-0.05235987755982989,-0.016362461737446838,-0.039944973497025506,0.03190538650892235,-0.016511742436779917,0,0,0,0,0,0,1500,1500,1500,1500,1500,1500
1747618394.375344,-0.11,0.07,-0.31,-0.01090830782496456,-0.05235987755982989,-0.016362461737446838,-0.039944973497025506,0.03190538650892235,-0.016511742436779917,0,0,0,0,0,0,1500,1500,1500,1500,1500,1500
1747618394.4751406,-0.15,0.08,-0.22,-0.04799655442984406,-0.07963064712224129,-0.032724923474893676,-0.043570295658420174,0.023137748861890756,-0.0196750327962573,0,0,0,0,0,0,1500,1500,1500,1500,1500,1500
1747618394.5623887,-0.07,0.0,-0.39,-0.02181661564992912,-0.11126473981463851,-0.04036073895236887,-0.051743215287680305,0.00790788279555238,-0.024749562073556986,0,0,0,0,0,0,1500,1500,1500,1500,1500,1500
1747618394.6625123,-0.07,0.0,-0.39,-0.02181661564992912,-0.11126473981463851,-0.04036073895236887,-0.051743215287680305,0.00790788279555238,-0.024749562073556986,0,0,0,0,0,0,1500,1500,1500,1500,1500,1500
1747618394.7585137,-0.09,0.08,-0.38,0.030543261909900768,-0.08944812416470939,-0.017453292519943295,-0.05020277362035294,-0.007066368260064432,-0.02851922384609291,0,0,0,0,0,0,1500,1500,1500,1500,1500,1500
1747618394.8628702,-0.09,0.08,-0.38,0.030543261909900768,-0.08944812416470939,-0.017453292519943295,-0.05020277362035294,-0.007066368260064432,-0.02851922384609291,0,0,0,0,0,0,1500,1500,1500,1500,1500,1500
1747618394.955086,-0.14,0.06,-0.44,0.019634954084936207,-0.03381575425739013,-0.014180800172453928,-0.04725910770221233,-0.016317532873353364,-0.02904334594045015,0,0,0,0,0,0,1500,1500,1500,1500,1500,1500
1747618395.0448132,-0.18,0.09,-0.43,0.009817477042468103,0.006544984694978736,-0.018544123302439753,-0.044639867294832665,-0.01841751297977376,-0.031826000260359345,0,0,0,0,0,0,1500,1500,1500,1500,1500,1500
1747618395.1470647,-0.18,0.09,-0.43,0.009817477042468103,0.006544984694978736,-0.018544123302439753,-0.044639867294832665,-0.01841751297977376,-0.031826000260359345,0,0,0,0,0,0,1500,1500,1500,1500,1500,1500
1747618395.239893,-0.13,0.1,-0.37,-0.004363323129985824,0.006544984694978736,-0.01090830782496456,-0.04461827845301134,-0.01847235858237582,-0.03426814506459065,0,0,0,0,0,0,1500,1500,1500,1500,1500,1500
1747618395.3217497,-0.13,0.1,-0.37,-0.004363323129985824,0.006544984694978736,-0.01090830782496456,-0.04461827845301134,-0.01847235858237582,-0.03426814506459065,0,0,0,0,0,0,1500,1500,1500,1500,1500,1500
1747618395.4217453,-0.08,0.04,-0.42,-0.02181661564992912,0.02181661564992912,0.039269908169872414,-0.045272995799335206,-0.016729949010528905,-0.03234697538268879,0,0,0,0,0,0,1500,1500,1500,1500,1500,1500
1747618395.5113466,-0.2,0.05,-0.37,-0.0272707695624114,0.03490658503988659,0.026179938779914945,-0.05014298456204299,-0.012026368899681781,-0.02668563335348282,0,0,0,0,0,0,1500,1500,1500,1500,1500,1500
1747618395.6118782,-0.2,0.05,-0.37,-0.0272707695624114,0.03490658503988659,0.026179938779914945,-0.05014298456204299,-0.012026368899681781,-0.02668563335348282,0,0,0,0,0,0,1500,1500,1500,1500,1500,1500
1747618395.710456,-0.17,0.09,-0.28,0.004363323129985824,0.02181661564992912,0.007635815477475192,-0.0513212083488635,-0.006271582231630378,-0.025482784497121637,0,0,0,0,0,0,1500,1500,1500,1500,1500,1500
1747618395.807132,-0.17,0.09,-0.28,0.004363323129985824,0.02181661564992912,0.007635815477475192,-0.0513212083488635,-0.006271582231630378,-0.025482784497121637,0,0,0,0,0,0,1500,1500,1500,1500,1500,1500
1747618395.90993,-0.08,0.08,-0.39,0.016362461737446838,0.0,0.006544984694978736,-0.04964140370206383,-0.004053529276726887,-0.025543458088481356,0,0,0,0,0,0,1500,1500,1500,1500,1500,1500
1747618395.9931486,-0.01,-0.04,-0.26,0.022907446432425576,0.06544984694978735,0.12762720155208535,-0.0474918611328998,-4.2557716382475374e-05,-0.017216206637643148,0,0,0,0,0,0,1500,1500,1500,1500,1500,1500
1747618396.0909066,-0.01,-0.04,-0.26,0.022907446432425576,0.06544984694978735,0.12762720155208535,-0.0474918611328998,-4.2557716382475374e-05,-0.017216206637643148,0,0,0,0,0,0,1500,1500,1500,1500,1500,1500
1747618396.1877892,-0.2,0.15,-0.33,-0.1439896632895322,-0.050178215994836975,0.21707532571679475,-0.05285678344473001,0.008827897829214126,0.001354106794708052,0,0,0,0,0,0,1500,1500,1500,1500,1500,1500
1747618396.2767828,-0.07,0.0,-0.32,-0.20616701789183017,0.013089969389957472,-0.03381575425739013,-0.08253826318043983,0.0029462469525040006,0.0032992267998249464,0,0,0,0,0,0,1500,1500,1500,1500,1500,1500
1747618396.3714359,-0.07,0.0,-0.32,-0.20616701789183017,0.013089969389957472,-0.03381575425739013,-0.08253826318043983,0.0029462469525040006,0.0032992267998249464,0,0,0,0,0,0,1500,1500,1500,1500,1500,1500
1747618396.473116,-0.13,0.09,-0.38,-0.13199052468207118,0.09926560120717749,-0.10035643198967395,-0.1065426099664235,0.011420915455440312,-0.008188098356883626,0,0,0,0,0,0,1500,1500,1500,1500,1500,1500
1747618396.557124,-0.13,0.09,-0.38,-0.13199052468207118,0.09926560120717749,-0.10035643198967395,-0.1065426099664235,0.011420915455440312,-0.008188098356883626,0,0,0,0,0,0,1500,1500,1500,1500,1500,1500
1747618396.6561968,-0.23,0.19,-0.32,-0.1505346479845109,0.007635815477475192,-0.1505346479845109,-0.12457255479366934,0.022683196305858633,-0.02857005500726449,0,0,0,0,0,0,1500,1500,1500,1500,1500,1500
1747618396.7592118,-0.23,0.19,-0.32,-0.1505346479845109,0.007635815477475192,-0.1505346479845109,-0.12457255479366934,0.022683196305858633,-0.02857005500726449,0,0,0,0,0,0,1500,1500,1500,1500,1500,1500
1747618396.8624694,-0.1,-0.04,-0.37,-0.20398535632683726,-0.17780541754692233,-0.18762289458939044,-0.15474635182556526,0.004406958182055731,-0.05373011163669252,0,0,0,0,0,0,1500,1500,1500,1500,1500,1500
1747618396.9604738,-0.23,0.03,-0.42,-0.09817477042468103,-0.038179077387375956,-0.06654067773228381,-0.17470684664146346,-0.00878930977525743,-0.07093125713078945,0,0,0,0,0,0,1500,1500,1500,1500,1500,1500
1747618397.0549974,-0.23,0.03,-0.42,-0.09817477042468103,-0.038179077387375956,-0.06654067773228381,-0.17470684664146346,-0.00878930977525743,-0.07093125713078945,0,0,0,0,0,0,1500,1500,1500,1500,1500,1500
1747618397.155283,-0.17,0.07,-0.3,-0.06763150851478027,-0.09708393964218458,0.002181661564992912,-0.1872042633590485,-0.01927086775287289,-0.07324722740541638,0,0,0,0,0,0,1500,1500,1500,1500,1500,1500
1747618397.2473216,0.08,0.0,-0.3,0.016362461737446838,-0.030543261909900768,0.025089107997418487,-0.19298668613420972,-0.03068972060185096,-0.06855028667733797,0,0,0,0,0,0,1500,1500,1500,1500,1500,1500
1747618397.3408134,0.08,0.0,-0.3,0.016362461737446838,-0.030543261909900768,0.025089107997418487,-0.19298668613420972,-0.03068972060185096,-0.06855028667733797,0,0,0,0,0,0,1500,1500,1500,1500,1500,1500
1747618397.445208,-0.08,0.01,-0.01,0.013089969389957472,-0.04036073895236887,0.02399827721492203,-0.19060138592614945,-0.03435684097236865,-0.06418290354270621,0,0,0,0,0,0,1500,1500,1500,1500,1500,1500
1747618397.5404341,-0.18,0.09,-0.07,-0.007635815477475192,0.003272492347489368,0.0,-0.1903495337014508,-0.036049536788886706,-0.061450341202144494,0,0,0,0,0,0,1500,1500,1500,1500,1500,1500
1747618397.637058,-0.18,0.09,-0.07,-0.007635815477475192,0.003272492347489368,0.0,-0.1903495337014508,-0.036049536788886706,-0.061450341202144494,0,0,0,0,0,0,1500,1500,1500,1500,1500,1500
1747618397.740149,-0.1,0.02,-0.07,-0.136353847812057,0.013089969389957472,-0.00545415391248228,-0.19838000263718408,-0.03375455933027233,-0.06167568890805661,0,0,0,0,0,0,1500,1500,1500,1500,1500,1500
1747618397.8237405,-0.1,0.02,-0.07,-0.136353847812057,0.013089969389957472,-0.00545415391248228,-0.19838000263718408,-0.03375455933027233,-0.06167568890805661,0,0,0,0,0,0,1500,1500,1500,1500,1500,1500
1747618397.9212549,-0.19,0.06,-0.05,-0.1461713248545251,-0.01090830782496456,-0.030543261909900768,-0.22060490139878336,-0.03315779148882975,-0.064144995046515,0,0,0,0,0,0,1500,1500,1500,1500,1500,1500
1747618398.0258298,-0.05,0.1,-0.01,-0.10690141668465268,0.0272707695624114,-0.03490658503988659,-0.23670971506490573,-0.030418497184474286,-0.0716422794592732,0,0,0,0,0,0,1500,1500,1500,1500,1500,1500
1747618398.1258836,-0.05,0.1,-0.01,-0.10690141668465268,0.0272707695624114,-0.03490658503988659,-0.23670971506490573,-0.030418497184474286,-0.0716422794592732,0,0,0,0,0,0,1500,1500,1500,1500,1500,1500
1747618398.2311277,-0.15,0.05,-0.06,-0.09053895494720585,0.022907446432425576,-0.031634092692397225,-0.25157460598004816,-0.02632370608328004,-0.07667596406861857,0,0,0,0,0,0,1500,1500,1500,1500,1500,1500
1747618398.3289294,-0.33,0.07,0.01,0.09708393964218458,-0.04690572364734761,-0.11671889372712078,-0.2520014119145606,-0.03164051879492931,-0.0883213596107387,0,0,0,0,0,0,1500,1500,1500,1500,1500,1500
1747618398.4259422,-0.33,0.07,0.01,0.09708393964218458,-0.04690572364734761,-0.11671889372712078,-0.2520014119145606,-0.03164051879492931,-0.0883213596107387,0,0,0,0,0,0,1500,1500,1500,1500,1500,1500
1747618398.521985,-0.18,0.04,-0.06,0.23343778745424157,-0.05235987755982989,-0.05781403147231216,-0.2248906201024908,-0.04214720173663217,-0.10083511718986769,0,0,0,0,0,0,1500,1500,1500,1500,1500,1500
1747618398.6222534,-0.18,0.04,-0.06,0.23343778745424157,-0.05235987755982989,-0.05781403147231216,-0.2248906201024908,-0.04214720173663217,-0.10083511718986769,0,0,0,0,0,0,1500,1500,1500,1500,1500,1500
1747618398.7270675,-0.09,0.1,-0.02,0.22471114119426994,-0.07853981633974483,0.03490658503988659,-0.18659455357854832,-0.052095594236518966,-0.09880327272874531,0,0,0,0,0,0,1500,1500,1500,1500,1500,1500
1747618398.8375404,-0.1,0.09,-0.11,0.11344640137963143,-0.04363323129985824,0.02945243112740431,-0.16332280920887268,-0.06045729113288057,-0.09139916601133104,0,0,0,0,0,0,1500,1500,1500,1500,1500,1500
1747618398.9338064,-0.07,0.11,0.0,0.013089969389957472,0.018544123302439753,-0.02181661564992912,-0.15620518374615056,-0.06396324013131445,-0.09045974004806531,0,0,0,0,0,0,1500,1500,1500,1500,1500,1500
1747618399.0398948,-0.07,0.11,0.0,0.013089969389957472,0.018544123302439753,-0.02181661564992912,-0.15620518374615056,-0.06396324013131445,-0.09045974004806531,0,0,0,0,0,0,1500,1500,1500,1500,1500,1500
1747618399.1408648,-0.1,0.06,0.03,-0.04036073895236887,0.00545415391248228,-0.03490658503988659,-0.15796707942053925,-0.06195527133379869,-0.09645318707875018,0,0,0,0,0,0,1500,1500,1500,1500,1500,1500
1747618399.2419982,-0.1,0.06,0.03,-0.04036073895236887,0.00545415391248228,-0.03490658503988659,-0.15796707942053925,-0.06195527133379869,-0.09645318707875018,0,0,0,0,0,0,1500,1500,1500,1500,1500,1500
1747618399.3371818,-0.1,0.0,-0.12,0.02399827721492203,0.02181661564992912,-0.01090830782496456,-0.15804617799431891,-0.060792490160128276,-0.10022364596607439,0,0,0,0,0,0,1500,1500,1500,1500,1500,1500
1747618399.444324,-0.1,-0.07,-0.04,-0.016362461737446838,0.017453292519943295,0.02945243112740431,-0.15593760807484233,-0.05678208697956896,-0.09899236703017222,0,0,0,0,0,0,1500,1500,1500,1500,1500,1500
1747618399.539966,-0.1,-0.07,-0.04,-0.016362461737446838,0.017453292519943295,0.02945243112740431,-0.15593760807484233,-0.05678208697956896,-0.09899236703017222,0,0,0,0,0,0,1500,1500,1500,1500,1500,1500
1747618399.6375463,-0.09,0.1,0.02,-0.06435901616729091,-0.007635815477475192,0.037088246604879506,-0.1600260069706349,-0.0555186378769623,-0.09444983203215385,0,-0.031945,0,0,0,0,1500,1500,1500,1500,1500,1500
1747618399.7386413,-0.15,0.04,-0.13,-0.11344640137963143,0.003272492347489368,0.0,-0.17599688559914548,-0.056983832278485774,-0.09099760347844231,0,-0.194868,0,0,0,0,1460,1460,1461,1500,1500,1500
1747618399.8215191,-0.15,0.04,-0.13,-0.11344640137963143,0.003272492347489368,0.0,-0.17599688559914548,-0.056983832278485774,-0.09099760347844231,0,-0.311584,0,0,0,0,1454,1455,1459,1500,1500,1500
1747618399.923083,-0.29,0.01,-0.06,-0.02399827721492203,0.016362461737446838,-0.015271630954950384,-0.18738861267456539,-0.054505442906678664,-0.09144167233464806,0,-0.879209,0,0,0,0,1432,1433,1441,1500,1500,1500
1747618400.023365,-0.29,0.01,-0.06,-0.02399827721492203,0.016362461737446838,-0.015271630954950384,-0.18738861267456539,-0.054505442906678664,-0.09144167233464806,0,-0.879209,0,0,0,0,1432,1433,1441,1500,1500,1500
1747618400.123036,-0.35000000000000003,0.03,0.17,-0.015271630954950384,0.004363323129985824,-0.04799655442984406,-0.18876119506161249,-0.0514204871168848,-0.0969826559852648,0,-0.992096,0,0,0,0,1428,1430,1437,1500,1500,1500
1747618400.2223208,0.02,-0.1,0.19,0.05345070834232634,0.0818123086872342,-0.032724923474893676,-0.18733383303520346,-0.046869635254589315,-0.10541404961278403,0,-0.992096,0,0,0,0,1428,1430,1437,1500,1500,1500
1747618400.3121567,0.02,-0.1,0.19,0.05345070834232634,0.0818123086872342,-0.032724923474893676,-0.18733383303520346,-0.046869635254589315,-0.10541404961278403,0,-0.003841,0,0,0,0,1468,1470,1477,1500,1500,1500
1747618400.409145,-0.14,0.17,0.16,-0.022907446432425576,0.07853981633974483,-0.022907446432425576,-0.18065155876121186,-0.03030298230165129,-0.10948063118878054,0,0,0,0,0,0,1500,1500,1500,1500,1500,1500
1747618400.5065482,0.03,-0.02,-0.07,-0.009817477042468103,0.10690141668465268,-0.006544984694978736,-0.1875121107030063,-0.016504426052070465,-0.11401182587834313,0,0,0,0,0,0,1500,1500,1500,1500,1500,1500
1747618400.5981476,0.03,-0.02,-0.07,-0.009817477042468103,0.10690141668465268,-0.006544984694978736,-0.1875121107030063,-0.016504426052070465,-0.11401182587834313,0,0,0,0,0,0,1500,1500,1500,1500,1500,1500
1747618400.690062,-0.22,0.07,-0.29,0.19525871006686563,-0.014180800172453928,-0.07635815477475191,-0.1715617588357104,-0.011827230518914184,-0.12452643007876733,0,0,0,0,0,0,1500,1500,1500,1500,1500,1500
1747618400.7758174,-0.22,0.07,-0.29,0.19525871006686563,-0.014180800172453928,-0.07635815477475191,-0.1715617588357104,-0.011827230518914184,-0.12452643007876733,0,0,0,0,0,0,1500,1500,1500,1500,1500,1500
1747618400.871563,-0.03,0.05,-0.04,0.22689280275926285,-0.02181661564992912,0.05999569303730508,-0.13322053120872865,-0.016830665237359238,-0.12534162043176425,0,0,0,0,0,0,1500,1500,1500,1500,1500,1500
1747618400.9672818,-0.13,0.21,-0.1,0.03490658503988659,0.007635815477475192,0.03599741582238305,-0.11559926490761827,-0.0150609345766103,-0.11621425944226679,0,0,0,0,0,0,1500,1500,1500,1500,1500,1500
1747618401.0571978,-0.13,0.21,-0.1,0.03490658503988659,0.007635815477475192,0.03599741582238305,-0.11559926490761827,-0.0150609345766103,-0.11621425944226679,0,0,0,0,0,0,1500,1500,1500,1500,1500,1500
1747618401.1646125,0.01,0.01,-0.16,-0.10253809355466686,0.1189005552921137,0.12544553998709243,-0.12782616025175758,-0.002350608188923654,-0.1036265151711879,0,-0.014485,0,0,0,0,1500,1500,1500,1500,1500,1500
1747618401.2728782,0.01,0.01,-0.16,-0.10253809355466686,0.1189005552921137,0.12544553998709243,-0.12782616025175758,-0.002350608188923654,-0.1036265151711879,0,-0.014485,0,0,0,0,1500,1500,1500,1500,1500,1500
1747618401.3734117,0.02,0.05,-0.13,0.0,-0.16798794050445423,-0.061086523819801536,-0.12966421393175243,-0.002144725774865775,-0.09898952559114362,0,-0.014485,0,0,0,0,1500,1500,1500,1500,1500,1500
1747618401.4722626,-0.8300000000000001,0.52,-0.33,0.014180800172453928,0.1505346479845109,-0.1308996938995747,-0.12592669616260277,-0.005930160470751652,-0.10756098349772585,0,-0.014485,0,0,0,0,1500,1500,1500,1500,1500,1500
1747618401.571291,-0.8300000000000001,0.52,-0.33,0.014180800172453928,0.1505346479845109,-0.1308996938995747,-0.12592669616260277,-0.005930160470751652,-0.10756098349772585,0,-0.014485,0,0,0,0,1500,1500,1500,1500,1500,1500
1747618401.6724756,-0.36,-0.19,-0.4,-0.12871803233458182,0.11999138607461016,-0.10471975511965978,-0.13881209615430382,0.005457622083816628,-0.129438457107274,0,-0.014485,0,0,0,0,1500,1500,1500,1500,1500,1500
1747618401.771919,-0.9500000000000001,-1.45,1.54,-0.11126473981463851,0.3567016658763411,0.04799655442984406,-0.14906166745379293,0.043247843558793825,-0.1354369904329812,0,-0.070916,0,0,0,0,1500,1500,1500,1500,1500,1500
1747618401.858477,-0.9500000000000001,-1.45,1.54,-0.11126473981463851,0.3567016658763411,0.04799655442984406,-0.14906166745379293,0.043247843558793825,-0.1354369904329812,0,-0.249818,0,0,0,0,1460,1460,1460,1500,1500,1500
1747618401.9585786,0.76,-0.28,1.01,-0.01090830782496456,-0.10253809355466686,0.07853981633974483,-0.13126767450128518,0.04437087426908755,-0.1134691353448596,0,-1.111801,0,0,0,0,1423,1425,1434,1500,1500,1500
1747618402.0436585,0.76,-0.28,1.01,-0.01090830782496456,-0.10253809355466686,0.07853981633974483,-0.13126767450128518,0.04437087426908755,-0.1134691353448596,0,-1.511811,0,0,0,0,1412,1414,1424,1500,1500,1500
1747618402.143578,-0.06,0.0,-0.05,0.00545415391248228,0.003272492347489368,-0.001090830782496456,-0.13269550491277293,0.04426356995895233,-0.11202881170208968,0,-1.734821,0,0,0,-0.003148,1406,1407,1420,1500,1500,1500
1747618402.2297757,0.1,-0.04,0.06,-0.003272492347489368,0.001090830782496456,-0.018544123302439753,-0.13260482206225713,0.04444705705974094,-0.113015733807286,0,-1.973167,0,0,0,-0.00489,1399,1402,1415,1500,1500,1500
1747618402.334717,0.1,-0.04,0.06,-0.003272492347489368,0.001090830782496456,-0.018544123302439753,-0.13260482206225713,0.04444705705974094,-0.113015733807286,0,-2.056024,0,0,0,-0.008217,1397,1399,1413,1500,1500,1500
1747618402.4247267,-0.23,0.0,0.06,0.015271630954950384,0.003272492347489368,-0.013089969389957472,-0.12997789277667013,0.04541868451179402,-0.11350213765227812,0,-2.056024,0,0,0,-0.008217,1397,1399,1413,1500,1500,1500
1747618402.523344,-0.23,0.0,0.06,0.015271630954950384,0.003272492347489368,-0.013089969389957472,-0.12997789277667013,0.04541868451179402,-0.11350213765227812,0,-2.58895,0,0,0,-0.012403,1384,1386,1402,1500,1500,1500
1747618402.6331997,-0.12,0.22,-0.01,0.002181661564992912,-0.004363323129985824,0.003272492347489368,-0.12772418426379234,0.04650083201192772,-0.11388204484911686,0,-2.878419,0,0,0,-0.01399,1377,1379,1396,1500,1500,1500
1747618402.7309003,-0.08,0.08,-0.03,-0.03381575425739013,-0.014180800172453928,0.02945243112740431,-0.1304425411633539,0.04782028450063594,-0.11195838174212172,0,-3.183224,0,0,0,-0.019321,1368,1372,1391,1500,1500,1500
1747618402.8234317,-0.08,0.08,-0.03,-0.03381575425739013,-0.014180800172453928,0.02945243112740431,-0.1304425411633539,0.04782028450063594,-0.11195838174212172,0,-3.394947,0,0,0,-0.025512,1363,1366,1387,1500,1500,1500
1747618402.9300165,-0.05,-0.03,0.05,-0.03490658503988659,-0.002181661564992912,0.08072147790473774,-0.13559014866213917,0.0492667604690096,-0.10448431686664422,0,-3.954077,0,0,0,-0.030116,1352,1355,1377,1500,1500,1500
1747618403.0285332,-0.14,0.13,-0.15,-0.038179077387375956,-0.020725784867432664,0.14289883250703572,-0.1586847242059989,0.05080901654376825,-0.08765139878874575,0,-4.189658,0,0,0,-0.040469,1346,1349,1372,1500,1500,1500
1747618403.125394,-0.14,0.13,-0.15,-0.038179077387375956,-0.020725784867432664,0.14289883250703572,-0.1586847242059989,0.05080901654376825,-0.08765139878874575,0,-4.432054,0,0,0,-0.000465,1341,1344,1367,1500,1500,1500
1747618403.2291858,-0.11,-0.51,0.33,-0.07417649320975901,-0.02181661564992912,0.09599310885968812,-0.1490518801680687,0.051742810705109554,-0.06987652945214651,0,-4.432054,0,0,0,0,1341,1344,1367,1500,1500,1500
1747618403.3298018,-0.02,-0.01,0.0,-0.05890486225480862,-0.013089969389957472,0.04799655442984406,-0.15917375865456854,0.050497048035234464,-0.05658453523589679,0,-4.432054,0,0,0,-0.003971,1341,1344,1367,1500,1500,1500
1747618403.4261835,-0.02,-0.01,0.0,-0.05890486225480862,-0.013089969389957472,0.04799655442984406,-0.15917375865456854,0.050497048035234464,-0.05658453523589679,0,-4.681267,0,0,0,-0.025512,1334,1339,1363,1500,1500,1500
1747618403.5209033,0.19,-0.42,-0.13,0.01090830782496456,0.07526732399225546,-0.1810779098944117,-0.16253314155694265,0.05297526116804963,-0.07649540280678846,0,-4.808429,0,0,0,-0.030116,1331,1335,1361,1500,1500,1500
1747618403.605115,0.19,-0.42,-0.13,0.01090830782496456,0.07526732399225546,-0.1810779098944117,-0.16253314155694265,0.05297526116804963,-0.07649540280678846,0,-4.808429,0,0,0,-0.040469,1331,1335,1361,1500,1500,1500
1747618403.7140155,-0.41000000000000003,-0.08,-0.1,-0.030543261909900768,-0.007635815477475192,0.031634092692397225,-0.1629454273296968,0.05676507224188648,-0.08098738840884227,0,-6.319686,0,0,0,-0.049236,1300,1305,1336,1500,1500,1500
1747618403.8072507,0.2,0.02,-0.05,-0.00545415391248228,-0.008726646259971648,-0.0272707695624114,-0.1651671948600978,0.05504847339820272,-0.07993208493895812,0,-6.467298,0,0,0,-0.052349,1296,1302,1334,1500,1500,1500
1747618403.9085102,0.2,0.02,-0.05,-0.00545415391248228,-0.008726646259971648,-0.0272707695624114,-0.1651671948600978,0.05504847339820272,-0.07993208493895812,0,-6.467298,0,0,0,-0.055557,1296,1302,1334,1500,1500,1500
1747618403.9952917,0.6,0.17,-0.1,-0.007635815477475192,0.04908738521234052,0.028361600344907856,-0.16556954463766613,0.059418901625723074,-0.07884380122551163,0,-6.920357,0,0,0,-0.065756,1288,1293,1326,1500,1500,1500
1747618404.0886788,-0.25,0.21,0.08,-0.003272492347489368,0.07526732399225546,0.025089107997418487,-0.16524123773106633,0.07046321905853874,-0.07436231061739154,0,-6.920357,0,0,0,-0.040469,1288,1293,1326,1500,1500,1500
1747618404.1875796,-0.25,0.21,0.08,-0.003272492347489368,0.07526732399225546,0.025089107997418487,-0.16524123773106633,0.07046321905853874,-0.07436231061739154,0,-7.388752,0,0,0,-0.032561,1280,1284,1320,1500,1500,1500
1747618404.2834284,-0.11,0.11,-0.09,-0.08944812416470939,0.05126904677733343,-0.007635815477475192,-0.1703911918301314,0.0827127993977333,-0.07403152878663727,0,-12.29445,0,0,0,-0.073032,1240,1244,1280,1500,1500,1500
1747618404.3784351,-0.11,0.11,-0.09,-0.08944812416470939,0.05126904677733343,-0.007635815477475192,-0.1703911918301314,0.0827127993977333,-0.07403152878663727,0,-12.5,0,0,0,-0.084661,1200,1204,1249,1500,1500,1500
1747618404.481142,-0.51,-0.77,0.26,-0.019634954084936207,-0.011999138607461015,-0.022907446432425576,-0.1767131024067342,0.08648656898636335,-0.07477581674786081,0,-12.5,0,0,0,-0.084661,1191,1200,1249,1500,1500,1500
1747618404.5825481,0.12,-0.07,0.39,0.003272492347489368,0.026179938779914945,0.11235557059713497,-0.17789439144400038,0.08979874678749081,-0.06592546824677245,0,-12.5,0,0,0,-0.088729,1191,1200,1249,1500,1500,1500
1747618404.6785197,0.12,-0.07,0.39,0.003272492347489368,0.026179938779914945,0.11235557059713497,-0.17789439144400038,0.08979874678749081,-0.06592546824677245,0,-12.5,0,0,0,-0.088729,1191,1200,1249,1500,1500,1500
1747618404.7765033,0.16,-0.27,0.35000000000000003,0.07853981633974483,0.03381575425739013,0.08726646259971647,-0.16830591879802603,0.10489446242950266,-0.048604890923931846,0,-12.5,0,0,0,-0.088729,1191,1200,1249,1500,1500,1500
1747618404.870802,-0.01,0.14,0.26,0.10690141668465268,-0.05999569303730508,-0.05890486225480862,-0.15365613245657336,0.09745812384901761,-0.046979947456182246,0,-12.5,0,0,0,-0.088729,1191,1200,1249,1500,1500,1500
1747618404.9796247,-0.01,0.14,0.26,0.10690141668465268,-0.05999569303730508,-0.05890486225480862,-0.15365613245657336,0.09745812384901761,-0.046979947456182246,0,-12.5,0,0,0,-0.088729,1191,1200,1249,1500,1500,1500
1747618405.0765982,0.2,0.5700000000000001,-0.23,0.13962634015954636,0.11562806294462433,0.11671889372712078,-0.12709748429871923,0.09831491453145044,-0.04961630823170215,0,-12.5,0,0,0,-0.088729,1191,1200,1249,1500,1500,1500
1747618405.1739485,0.2,0.5700000000000001,-0.23,0.13962634015954636,0.11562806294462433,0.11671889372712078,-0.12709748429871923,0.09831491453145044,-0.04961630823170215,0,-12.5,0,0,0,-0.088729,1191,1200,1249,1500,1500,1500
1747618405.2761257,-0.2,0.27,-0.45,0.09053895494720585,0.1538071403320003,0.10581058590215622,-0.10577130947353121,0.12173606363344483,-0.0368251299080846,0,0,0,0,0,0,1231,1240,1289,1500,1500,1500
1747618405.3746517,-0.51,0.47000000000000003,-0.3,-0.06217735460229799,0.15707963267948966,-0.03490658503988659,0.18638283536059222,0.36180940339568163,2.6220692819945106,0,0,0,0,0,0,1271,1280,1329,1500,1500,1500
1747618405.4660516,-0.51,0.47000000000000003,-0.3,-0.06217735460229799,0.15707963267948966,-0.03490658503988659,0.18638283536059222,0.36180940339568163,2.6220692819945106,0,0,0,0,0,0,1311,1320,1369,1500,1500,1500
1747618405.5585377,0.02,0.26,0.23,-0.08726646259971647,0.08835729338221293,-0.061086523819801536,-0.12357449597676186,0.16438685260591332,-0.04320540180458423,0,0,0,0,0,0,1351,1360,1409,1500,1500,1500
1747618405.6573725,-0.1,0.15,-0.02,-0.003272492347489368,-0.10362892433716332,0.008726646259971648,-0.13476055933147552,0.1609606558232267,-0.047587405163895806,0,0,0,0,0,0,1391,1400,1449,1500,1500,1500
1747618405.765427,-0.1,0.15,-0.02,-0.003272492347489368,-0.10362892433716332,0.008726646259971648,-0.13476055933147552,0.1609606558232267,-0.047587405163895806,0,0,0,0,0,0,1431,1440,1489,1500,1500,1500
1747618405.8602135,0.07,-0.09,-0.35000000000000003,0.20725784867432664,-0.24980024919168842,0.02399827721492203,-0.11647076497417409,0.13996576644728112,-0.04543957462460587,0,0,0,0,0,0,1471,1480,1500,1500,1500,1500
1747618405.9566162,0.07,-0.09,-0.35000000000000003,0.20725784867432664,-0.24980024919168842,0.02399827721492203,-0.11647076497417409,0.13996576644728112,-0.04543957462460587,0,0,0,0,0,0,1500,1500,1500,1500,1500,1500
1747618406.0408585,0.0,-0.07,-0.11,0.25416357232167425,-0.29670597283903605,0.08399397025222712,-0.07662360465500027,0.09753655606453429,-0.03187280226437719,0,0,0,0,0,0,1500,1500,1500,1500,1500,1500
1747618406.1419282,-0.05,0.13,-0.08,0.1407171709420428,-0.3741549583962844,0.001090830782496456,-0.03768640161558992,0.050995895643204135,-0.021968438667732428,0,0,0,0,0,0,1500,1500,1500,1500,1500,1500
1747618406.2396934,-0.05,0.13,-0.08,0.1407171709420428,-0.3741549583962844,0.001090830782496456,-0.03768640161558992,0.050995895643204135,-0.021968438667732428,0,0,0,0,0,0,1500,1500,1500,1500,1500,1500
1747618406.3262575,-0.22,0.17,-0.04,-0.06763150851478027,-0.26725354171163174,-0.06326818538479445,-0.03506402784710519,0.002137327331375806,-0.0243334232774942,0,0,0,0,0,0,1500,1500,1500,1500,1500,1500
1747618406.4267645,-0.22,0.17,-0.04,-0.06763150851478027,-0.26725354171163174,-0.06326818538479445,-0.03506402784710519,0.002137327331375806,-0.0243334232774942,0,0,0,0,0,0,1500,1500,1500,1500,1500,1500
1747618406.5232983,-0.09,-0.05,0.0,-0.1090830782496456,-0.25743606466916363,-0.2552544031041707,-0.049111926500163404,-0.03790242930891384,-0.05110319207069626,0,0,0,0,0,0,1500,1500,1500,1500,1500,1500
1747618406.626027,0.1,-0.13,-0.61,-0.2007128639793479,0.5061454830783556,-0.0719948316447661,-0.06080142203004198,-0.04977655067751557,-0.08121309858020219,0,0,0,0,0,0,1500,1500,1500,1500,1500,1500
1747618406.7248132,0.1,-0.13,-0.61,-0.2007128639793479,0.5061454830783556,-0.0719948316447661,-0.06080142203004198,-0.04977655067751557,-0.08121309858020219,0,0,0,0,0,0,1500,1500,1500,1500,1500,1500
1747618406.824882,-0.31,-0.11,-0.13,-0.17562375598192942,0.24216443371421323,-0.05672320068981571,-0.08831124153036657,-0.020370178483478427,-0.10644182766566847,0,0,0,0,0,0,1500,1500,1500,1500,1500,1500
