time,ay,ax,az,gy,gx,gz,roll,pitch,yaw,cmd_fx,cmd_fy,cmd_fz,cmd_tx,cmd_ty,cmd_tz,pwm_1,pwm_2,pwm_3,pwm_4,pwm_5,pwm_6
1747547508.6237226,0.0,0.0,0.0,0.0,0.0,0.0,0.0,0.0,0.0,0,0,0,0,0,0,1500,1500,1500,1500,1500,1500
1747547508.723364,-0.37,0.01,0.04,0.0,0.001090830782496456,-0.001090830782496456,-2.777040926643441,-1.4736189604852301,2.740979511034046,0,0,0,0,0,0,1500,1500,1500,1500,1500,1500
1747547508.8086672,-0.37,0.01,0.04,0.0,0.001090830782496456,-0.001090830782496456,-2.777040926643441,-1.4736189604852301,2.740979511034046,0,0,0,0,0,0,1500,1500,1500,1500,1500,1500
1747547508.9073515,-0.35000000000000003,0.02,0.06,0.0,0.0,0.001090830782496456,-2.777040926643441,-1.4736189604852301,2.740979511034046,0,0,0,0,0,0,1500,1500,1500,1500,1500,1500
1747547509.0070915,-0.36,0.01,0.02,-0.00545415391248228,-0.006544984694978736,0.0,-2.777040926643441,-1.4736189604852301,2.740979511034046,0,0,0,0,0,0,1500,1500,1500,1500,1500,1500
1747547509.1073916,-0.36,0.01,0.02,-0.00545415391248228,-0.006544984694978736,0.0,-2.777040926643441,-1.4736189604852301,2.740979511034046,0,0,0,0,0,0,1500,1500,1500,1500,1500,1500
1747547509.2074704,-0.32,0.01,0.03,0.0,-0.004363323129985824,0.002181661564992912,-2.777040926643441,-1.4736189604852301,2.740979511034046,0,0,0,0,0,0,1500,1500,1500,1500,1500,1500
1747547509.290716,-0.32,0.01,0.03,0.0,-0.004363323129985824,0.002181661564992912,-2.777040926643441,-1.4736189604852301,2.740979511034046,0,0,0,0,0,0,1500,1500,1500,1500,1500,1500
1747547509.3896017,-0.36,0.01,0.05,0.002181661564992912,-0.003272492347489368,-0.002181661564992912,-2.777040926643441,-1.4736189604852301,2.740979511034046,0,0,0,0,0,0,1500,1500,1500,1500,1500,1500
1747547509.4915273,-0.34,0.02,0.03,0.0,-0.001090830782496456,0.002181661564992912,-2.777040926643441,-1.4736189604852301,2.740979511034046,0,0,0,0,0,0,1500,1500,1500,1500,1500,1500
1747547509.5910816,-0.34,0.02,0.03,0.0,-0.001090830782496456,0.002181661564992912,-2.777040926643441,-1.4736189604852301,2.740979511034046,0,0,0,0,0,0,1500,1500,1500,1500,1500,1500
1747547509.6910067,-0.37,0.0,0.03,0.0,-0.001090830782496456,-0.002181661564992912,-2.777040926643441,-1.4736189604852301,2.740979511034046,0,0,0,0,0,0,1500,1500,1500,1500,1500,1500
1747547509.774278,-0.37,0.0,0.03,0.0,-0.001090830782496456,-0.002181661564992912,-2.777040926643441,-1.4736189604852301,2.740979511034046,0,0,0,0,0,0,1500,1500,1500,1500,1500,1500
1747547509.8740604,-0.36,0.01,0.04,0.003272492347489368,0.002181661564992912,0.0,-2.777040926643441,-1.4736189604852301,2.740979511034046,0,0,0,0,0,0,1500,1500,1500,1500,1500,1500
1747547509.974176,-0.35000000000000003,0.01,0.03,0.001090830782496456,0.004363323129985824,-0.001090830782496456,-2.777040926643441,-1.4736189604852301,2.740979511034046,0,0,0,0,0,0,1500,1500,1500,1500,1500,1500
1747547510.0572522,-0.35000000000000003,0.01,0.03,0.001090830782496456,0.004363323129985824,-0.001090830782496456,-2.777040926643441,-1.4736189604852301,2.740979511034046,0,0,0,0,0,0,1500,1500,1500,1500,1500,1500
1747547510.1579018,-0.37,0.0,0.04,-0.004363323129985824,-0.001090830782496456,0.0,-2.777040926643441,-1.4736189604852301,2.740979511034046,0,-0.345023,0,0,0,0,1500,1500,1500,1500,1500,1500
1747547510.2574592,-0.37,0.0,0.04,-0.004363323129985824,-0.001090830782496456,0.0,-2.777040926643441,-1.4736189604852301,2.740979511034046,0,-2.404492,0,0,0,0,1460,1460,1500,1500,1500,1500
1747547510.3579295,-0.35000000000000003,0.01,0.05,0.002181661564992912,-0.001090830782496456,-0.002181661564992912,-2.777040926643441,-1.4736189604852301,2.740979511034046,0,-2.404492,0,0,0,0,1455,1456,1500,1500,1500,1500
1747547510.457952,-0.34,0.0,0.0,-0.004363323129985824,-0.003272492347489368,-0.001090830782496456,-2.777040926643441,-1.4736189604852301,2.740979511034046,0,-2.404492,0,0,0,0,1455,1456,1500,1500,1500,1500
1747547510.5407786,-0.34,0.0,0.0,-0.004363323129985824,-0.003272492347489368,-0.001090830782496456,-2.777040926643441,-1.4736189604852301,2.740979511034046,0,-2.780225,0,0,0,0,1453,1454,1500,1500,1500,1500
1747547510.641063,-0.37,0.03,0.05,0.0,-0.1407171709420428,0.001090830782496456,-2.777040926643441,-1.4736189604852301,2.740979511034046,0,-4.071015,0,0,0,0,1446,1447,1460,1500,1500,1500
1747547510.73325,-0.38,0.02,0.05,-0.002181661564992912,0.001090830782496456,0.002181661564992912,-2.777040926643441,-1.4736189604852301,2.740979511034046,0,-4.432054,0,0,0,0,1445,1446,1451,1500,1500,1500
1747547510.8247051,-0.38,0.02,0.05,-0.002181661564992912,0.001090830782496456,0.002181661564992912,-2.777040926643441,-1.4736189604852301,2.740979511034046,0,-8.885955,0,0,0,0,1426,1428,1436,1500,1500,1500
1747547510.9238744,-0.27,-0.23,-0.08,-0.006544984694978736,-0.001090830782496456,0.001090830782496456,-2.777040926643441,-1.4736189604852301,2.740979511034046,0,-12.5,0,0,0,0,1413,1415,1425,1500,1500,1500
1747547511.023928,-0.27,-0.23,-0.08,-0.006544984694978736,-0.001090830782496456,0.001090830782496456,-2.777040926643441,-1.4736189604852301,2.740979511034046,0,-12.5,0,0,0,0,1413,1415,1425,1500,1500,1500
1747547511.1242485,-0.34,0.12,0.05,0.001090830782496456,0.001090830782496456,0.001090830782496456,-2.777040926643441,-1.4736189604852301,2.740979511034046,0,-12.5,0,0,0,0,1413,1415,1425,1500,1500,1500
1747547511.224569,-0.35000000000000003,-0.01,-0.01,0.001090830782496456,0.0,-0.001090830782496456,-2.777040926643441,-1.4736189604852301,2.740979511034046,0,-12.5,0,0,0,0,1413,1415,1425,1500,1500,1500
1747547511.3078868,-0.35000000000000003,-0.01,-0.01,0.001090830782496456,0.0,-0.001090830782496456,-2.777040926643441,-1.4736189604852301,2.740979511034046,0,-12.5,0,0,0,0,1413,1415,1425,1500,1500,1500
1747547511.407016,-0.36,-0.05,0.08,-0.001090830782496456,0.00545415391248228,0.001090830782496456,-2.777040926643441,-1.4736189604852301,2.740979511034046,0,-12.5,0,0,0,0,1413,1415,1425,1500,1500,1500
1747547511.5079877,-0.36,-0.05,0.08,-0.001090830782496456,0.00545415391248228,0.001090830782496456,-2.777040926643441,-1.4736189604852301,2.740979511034046,0,-12.5,0,0,0,0,1413,1415,1425,1500,1500,1500
1747547511.6116824,-0.33,0.05,0.02,0.003272492347489368,-0.003272492347489368,0.0,-2.777040926643441,-1.4736189604852301,2.740979511034046,0,-12.5,0,0,0,0,1413,1415,1425,1500,1500,1500
1747547511.7072618,-0.34,0.03,0.08,-0.002181661564992912,-0.001090830782496456,0.001090830782496456,-2.777040926643441,-1.4736189604852301,2.740979511034046,0,-12.5,0,0,0,0,1413,1415,1425,1500,1500,1500
1747547511.79197,-0.34,0.03,0.08,-0.002181661564992912,-0.001090830782496456,0.001090830782496456,-2.777040926643441,-1.4736189604852301,2.740979511034046,0,-12.5,0,0,0,0,1413,1415,1425,1500,1500,1500
1747547511.8918023,-0.27,-0.01,-0.02,-0.004363323129985824,-0.003272492347489368,-0.002181661564992912,-2.777040926643441,-1.4736189604852301,2.740979511034046,0,-12.5,0,0,0,0,1413,1415,1425,1500,1500,1500
1747547511.9907522,-0.27,-0.01,-0.02,-0.004363323129985824,-0.003272492347489368,-0.002181661564992912,-2.777040926643441,-1.4736189604852301,2.740979511034046,0,-12.5,0,0,0,0,1413,1415,1425,1500,1500,1500
1747547512.0741591,-0.35000000000000003,-0.03,0.04,-0.001090830782496456,-0.002181661564992912,0.002181661564992912,-2.777040926643441,-1.4736189604852301,2.740979511034046,0,-12.5,0,0,0,0,1413,1415,1425,1500,1500,1500
1747547512.1753523,-0.34,0.02,0.02,0.001090830782496456,0.003272492347489368,0.001090830782496456,-2.777040926643441,-1.4736189604852301,2.740979511034046,0,-12.5,0,0,0,0,1409,1410,1422,1500,1500,1500
1747547512.2742376,-0.34,0.02,0.02,0.001090830782496456,0.003272492347489368,0.001090830782496456,-2.777040926643441,-1.4736189604852301,2.740979511034046,0,-12.5,0,0,0,0,1405,1406,1419,1500,1500,1500
1747547512.3733187,-0.41000000000000003,0.01,0.01,0.001090830782496456,0.002181661564992912,0.001090830782496456,-2.777040926643441,-1.4736189604852301,2.740979511034046,0,-12.5,0,0,0,0,1405,1406,1419,1500,1500,1500
1747547512.474629,-0.41000000000000003,0.01,0.01,0.001090830782496456,0.002181661564992912,0.001090830782496456,-2.777040926643441,-1.4736189604852301,2.740979511034046,0,-12.5,0,0,0,0,1400,1402,1415,1500,1500,1500
1747547512.5568192,-0.38,0.02,0.09,0.001090830782496456,-0.001090830782496456,0.002181661564992912,-2.777040926643441,-1.4736189604852301,2.740979511034046,0,-12.5,0,0,0,0,1400,1402,1415,1500,1500,1500
1747547512.6570787,-0.35000000000000003,0.02,0.04,0.0,-0.001090830782496456,0.001090830782496456,-2.777040926643441,-1.4736189604852301,2.740979511034046,0,-12.5,0,0,0,0,1394,1397,1410,1500,1500,1500
1747547512.7571645,-0.35000000000000003,0.02,0.04,0.0,-0.001090830782496456,0.001090830782496456,-2.777040926643441,-1.4736189604852301,2.740979511034046,0,-12.5,0,0,0,0,1389,1392,1406,1500,1500,1500
1747547512.8573458,-0.23,0.03,0.0,-0.001090830782496456,0.003272492347489368,0.002181661564992912,-2.777040926643441,-1.4736189604852301,2.740979511034046,0,-12.5,0,0,0,0,1383,1385,1402,1500,1500,1500
1747547512.9574432,-0.23,0.01,-0.05,-0.001090830782496456,0.001090830782496456,0.0,-2.777040926643441,-1.4736189604852301,2.740979511034046,0,-12.5,0,0,0,0,1377,1379,1396,1500,1500,1500
1747547513.0408673,-0.23,0.01,-0.05,-0.001090830782496456,0.001090830782496456,0.0,-2.777040926643441,-1.4736189604852301,2.740979511034046,0,-12.5,0,0,0,0,1369,1372,1391,1500,1500,1500
1747547513.1409795,-0.36,0.0,0.01,-0.001090830782496456,0.001090830782496456,0.001090830782496456,-2.777040926643441,-1.4736189604852301,2.740979511034046,0,-12.5,0,0,0,0,1361,1364,1385,1500,1500,1500
1747547513.2410588,-0.36,0.0,0.01,-0.001090830782496456,0.001090830782496456,0.001090830782496456,-2.777040926643441,-1.4736189604852301,2.740979511034046,0,-12.5,0,0,0,0,1354,1357,1379,1500,1500,1500
1747547513.3239894,-0.56,-0.04,0.09,0.003272492347489368,-0.003272492347489368,0.001090830782496456,-2.777040926643441,-1.4736189604852301,2.740979511034046,0,-12.5,0,0,0,0,1345,1349,1372,1500,1500,1500
1747547513.4227347,-0.34,-0.09,0.07,-0.001090830782496456,0.001090830782496456,0.001090830782496456,-2.777040926643441,-1.4736189604852301,2.740979511034046,0,-12.5,0,0,0,0,1335,1340,1364,1500,1500,1500
1747547513.5234272,-0.34,-0.09,0.07,-0.001090830782496456,0.001090830782496456,0.001090830782496456,-2.777040926643441,-1.4736189604852301,2.740979511034046,0,-12.5,0,0,0,0,1325,1329,1357,1500,1500,1500
1747547513.6247182,-0.27,-0.07,0.12,-0.001090830782496456,0.007635815477475192,0.002181661564992912,-2.777040926643441,-1.4736189604852301,2.740979511034046,0,-12.5,0,0,0,0,1316,1320,1349,1500,1500,1500
1747547513.7234643,-0.27,-0.07,0.12,-0.001090830782496456,0.007635815477475192,0.002181661564992912,-2.777040926643441,-1.4736189604852301,2.740979511034046,0,-12.5,0,0,0,0,1304,1309,1340,1500,1500,1500
1747547513.807853,-0.39,0.15,0.09,-0.002181661564992912,0.003272492347489368,0.0,-2.777040926643441,-1.4736189604852301,2.740979511034046,0,-12.5,0,0,0,0,1291,1295,1328,1500,1500,1500
1747547513.907002,0.14,0.24,0.02,0.00545415391248228,0.008726646259971648,-0.002181661564992912,-2.777040926643441,-1.4736189604852301,2.740979511034046,0,-12.5,0,0,0,0,1279,1283,1320,1500,1500,1500
1747547514.0068846,0.14,0.24,0.02,0.00545415391248228,0.008726646259971648,-0.002181661564992912,-2.777040926643441,-1.4736189604852301,2.740979511034046,0,-12.5,0,0,0,0,1265,1272,1308,1500,1500,1500
1747547514.090968,-0.65,0.66,0.03,0.017453292519943295,-0.002181661564992912,-0.009817477042468103,-2.7820679498299823,-1.4746804587952935,2.7458617774032845,0,-12.5,0,0,0,0,1250,1256,1295,1500,1500,1500
1747547514.191042,-0.65,0.66,0.03,0.017453292519943295,-0.002181661564992912,-0.009817477042468103,-2.7820679498299823,-1.4746804587952935,2.7458617774032845,0,-12.5,0,0,0,0,1233,1239,1283,1500,1500,1500
1747547514.273867,-0.3,-0.26,-0.42,0.0,-0.001090830782496456,0.006544984694978736,-2.7822556814866033,-1.474793096991334,2.745960425063156,0,-12.5,0,0,0,0,1217,1222,1272,1500,1500,1500
1747547514.3742862,-0.02,-0.51,-0.46,0.01090830782496456,0.01090830782496456,-0.017453292519943295,-2.7842038595162077,-1.475017211382595,2.747901020201837,0,-12.5,0,0,0,0,1200,1206,1255,1500,1500,1500
1747547514.474089,-0.02,-0.51,-0.46,0.01090830782496456,0.01090830782496456,-0.017453292519943295,-2.7842038595162077,-1.475017211382595,2.747901020201837,0,-12.5,0,0,0,0,1181,1189,1239,1500,1500,1500
1747547514.5574133,1.25,-0.06,-1.6400000000000001,-0.001090830782496456,-0.003272492347489368,0.006544984694978736,-2.7825352683728197,-1.4749855079514518,2.746233508622841,0,-12.5,0,0,0,0,1181,1189,1239,1500,1500,1500
1747547514.657486,1.25,-0.06,-1.6400000000000001,-0.001090830782496456,-0.003272492347489368,0.006544984694978736,-2.7825352683728197,-1.4749855079514518,2.746233508622841,0,-12.5,0,0,0,0,1160,1169,1222,1500,1500,1500
1747547514.7566917,1.81,0.43,0.09,0.007635815477475192,-0.003272492347489368,-0.0272707695624114,-2.7849611115644355,-1.475915486096898,2.7485200968905326,0,-12.5,0,0,0,0,1157,1165,1220,1500,1500,1500
1747547514.8568838,1.2,0.55,0.18,-0.002181661564992912,0.011999138607461015,0.03490658503988659,-2.7849611115644355,-1.475915486096898,2.7485200968905326,0,-12.5,0,0,0,0,1157,1165,1220,1500,1500,1500
1747547514.957221,1.2,0.55,0.18,-0.002181661564992912,0.011999138607461015,0.03490658503988659,-2.7849611115644355,-1.475915486096898,2.7485200968905326,0,-12.5,0,0,0,0,1157,1165,1220,1500,1500,1500
1747547515.0407832,1.03,0.61,0.63,0.001090830782496456,-0.004363323129985824,-0.003272492347489368,-2.7818105418220425,-1.4760122669399731,2.745536777253976,0,-12.5,0,0,0,0,1157,1165,1220,1500,1500,1500
1747547515.1407259,1.03,0.61,0.63,0.001090830782496456,-0.004363323129985824,-0.003272492347489368,-2.7818105418220425,-1.4760122669399731,2.745536777253976,0,-10.521188,0,0,0,0,1193,1201,1250,1500,1500,1500
1747547515.240716,1.19,0.26,0.55,0.004363323129985824,-0.007635815477475192,-0.013089969389957472,-2.7828174903680196,-1.47517752452114,2.74650919741696,0,-8.37155,0,0,0,0,1233,1240,1284,1500,1500,1500
1747547515.3239737,-2.47,-0.85,0.54,0.001090830782496456,-0.004363323129985824,-0.026179938779914945,-2.784493378494642,-1.475209135315245,2.7481839977277964,0,-7.54829,0,0,0,0,1252,1258,1296,1500,1500,1500
1747547515.42412,-2.47,-0.85,0.54,0.001090830782496456,-0.004363323129985824,-0.026179938779914945,-2.784493378494642,-1.475209135315245,2.7481839977277964,0,-12.29445,0,0,0,0,1212,1218,1256,1500,1500,1500
1747547515.5071154,-0.14,0.19,0.19,0.0,0.0,-0.025089107997418487,-2.78623927484302,-1.4762220608126164,2.7497880883268566,0,-9.060832,0,0,0,0,1220,1227,1274,1500,1500,1500
1747547515.6064637,-0.14,0.19,0.19,0.0,0.0,-0.025089107997418487,-2.78623927484302,-1.4762220608126164,2.7497880883268566,0,0,0,0,0,0,1260,1267,1314,1500,1500,1500
1747547515.7074397,-0.53,-0.2,0.32,-0.007635815477475192,0.002181661564992912,0.001090830782496456,-2.783897094990853,-1.475322082689952,2.7474132231506347,0,0,0,0,0,0,1300,1307,1354,1500,1500,1500
1747547515.7915132,0.24,-0.56,-0.77,0.011999138607461015,0.001090830782496456,-0.018544123302439753,-2.786272155187405,-1.475319972493648,2.750044289041089,0,0,0,0,0,0,1340,1347,1394,1500,1500,1500
1747547515.8909156,0.24,-0.56,-0.77,0.011999138607461015,0.001090830782496456,-0.018544123302439753,-2.786272155187405,-1.475319972493648,2.750044289041089,0,0,0,0,0,0,1380,1387,1434,1500,1500,1500
1747547515.99072,-0.14,0.23,-0.05,-0.001090830782496456,0.002181661564992912,-0.003272492347489368,-2.7844631169106115,-1.4761570713114027,2.7481845769894573,0,0,0,0,0,0,1420,1427,1474,1500,1500,1500
1747547516.0743005,-0.14,0.23,-0.05,-0.001090830782496456,0.002181661564992912,-0.003272492347489368,-2.7844631169106115,-1.4761570713114027,2.7481845769894573,0,0,0,0,0,0,1460,1467,1500,1500,1500,1500
1747547516.173058,-0.38,-0.06,0.07,-0.002181661564992912,-0.006544984694978736,-0.001090830782496456,-2.782787195435149,-1.4761251449600157,2.7465097035657213,0,0,0,0,0,0,1500,1500,1500,1500,1500,1500
1747547516.273016,-0.47000000000000003,-0.02,0.09,-0.004363323129985824,-0.001090830782496456,0.0,-2.782787195435149,-1.4761251449600157,2.7465097035657213,0,0,0,0,0,0,1500,1500,1500,1500,1500,1500
1747547516.373882,-0.47000000000000003,-0.02,0.09,-0.004363323129985824,-0.001090830782496456,0.0,-2.782787195435149,-1.4761251449600157,2.7465097035657213,0,-0.722657,0,0,0,0,1460,1460,1460,1500,1500,1500
1747547516.473034,-0.31,-0.02,-0.01,0.001090830782496456,-0.003272492347489368,0.0,-2.7819011717471467,-1.4760925990154838,2.7457100070438583,0,-12.29445,0,0,0,0,1420,1420,1420,1500,1500,1500
1747547516.557604,-0.31,-0.02,-0.01,0.001090830782496456,-0.003272492347489368,0.0,-2.7819011717471467,-1.4760925990154838,2.7457100070438583,0,-12.5,0,0,0,0,1380,1380,1380,1500,1500,1500
1747547516.6574774,-0.2,0.08,0.09,0.0,-0.001090830782496456,-0.002181661564992912,-2.7819011717471467,-1.4760925990154838,2.7457100070438583,0,-12.5,0,0,0,0,1340,1340,1340,1500,1500,1500
1747547516.7567797,-1.08,-0.27,0.3,-0.002181661564992912,-0.001090830782496456,-0.006544984694978736,-2.779528289042802,-1.4761411462089291,2.743335502623189,0,-12.5,0,0,0,0,1300,1300,1300,1500,1500,1500
1747547516.8410168,-1.08,-0.27,0.3,-0.002181661564992912,-0.001090830782496456,-0.006544984694978736,-2.779528289042802,-1.4761411462089291,2.743335502623189,0,-12.5,0,0,0,0,1260,1260,1260,1500,1500,1500
1747547516.9408507,-0.51,0.02,0.2,-0.008726646259971648,-0.007635815477475192,0.006544984694978736,-2.7813314711477464,-1.4752580940747821,2.744935118021839,0,-12.5,0,0,0,0,1220,1220,1220,1500,1500,1500
1747547517.0243542,-0.51,0.02,0.2,-0.008726646259971648,-0.007635815477475192,0.006544984694978736,-2.7813314711477464,-1.4752580940747821,2.744935118021839,0,-12.5,0,0,0,0,1180,1180,1220,1500,1500,1500
1747547517.123328,-0.39,-0.63,-0.04,-0.014180800172453928,0.003272492347489368,0.004363323129985824,-2.7857447591552424,-1.4764161901848636,2.7492018223658703,0,-12.5,0,0,0,0,1157,1165,1220,1500,1500,1500
1747547517.2229688,-0.58,-0.16,-0.05,0.01090830782496456,0.002181661564992912,0.014180800172453928,-2.7881290740941282,-1.476413581254925,2.7518419904566658,0,-12.5,0,0,0,0,1157,1165,1220,1500,1500,1500
1747547517.3079696,-0.58,-0.16,-0.05,0.01090830782496456,0.002181661564992912,0.014180800172453928,-2.7881290740941282,-1.476413581254925,2.7518419904566658,0,-12.5,0,0,0,0,1157,1165,1220,1500,1500,1500
1747547517.4065397,0.8,1.18,-1.12,0.004363323129985824,-0.009817477042468103,0.0,-2.7864409921371176,-1.4763820426086585,2.750154959789675,0,-12.5,0,0,0,0,1157,1165,1220,1500,1500,1500
1747547517.5065231,0.8,1.18,-1.12,0.004363323129985824,-0.009817477042468103,0.0,-2.7864409921371176,-1.4763820426086585,2.750154959789675,0,-12.5,0,0,0,0,1157,1165,1220,1500,1500,1500
1747547517.5908167,-0.3,-0.31,0.35000000000000003,0.0,-0.007635815477475192,-0.013089969389957472,-2.784755308146877,-1.4763503564535214,2.7484703295009534,0,-12.5,0,0,0,0,1157,1165,1220,1500,1500,1500
1747547517.6792536,-2.2,-0.49,1.03,-0.002181661564992912,-0.001090830782496456,-0.015271630954950384,-2.7854495639808454,-1.4762696481058866,2.7491672832296565,0,-12.5,0,0,0,0,1157,1165,1220,1500,1500,1500
1747547517.7910588,-2.2,-0.49,1.03,-0.002181661564992912,-0.001090830782496456,-0.015271630954950384,-2.7854495639808454,-1.4762696481058866,2.7491672832296565,0,-12.5,0,0,0,0,1157,1165,1220,1500,1500,1500
1747547517.891098,-2.94,-0.75,-0.27,0.001090830782496456,0.006544984694978736,0.017453292519943295,-2.7837990801455135,-1.4752891845468972,2.7474869629812253,0,-12.5,0,0,0,0,1157,1165,1220,1500,1500,1500
1747547517.990774,-2.94,-0.75,-0.27,0.001090830782496456,0.006544984694978736,0.017453292519943295,-2.7837990801455135,-1.4752891845468972,2.7474869629812253,0,-2.58895,0,0,0,0,1197,1205,1260,1500,1500,1500
1747547518.0736284,-3.37,-1.1400000000000001,0.98,-0.001090830782496456,0.011999138607461015,0.011999138607461015,-2.7837990801455135,-1.4752891845468972,2.7474869629812253,0,0,0,0,0,0,1237,1245,1300,1500,1500,1500
1747547518.1734004,0.04,0.79,-0.7000000000000001,0.004363323129985824,-0.003272492347489368,-0.00545415391248228,-2.78228028907468,-1.476319154764258,2.7459110844559476,0,0,0,0,0,0,1277,1285,1340,1500,1500,1500
1747547518.273378,0.04,0.79,-0.7000000000000001,0.004363323129985824,-0.003272492347489368,-0.00545415391248228,-2.78228028907468,-1.476319154764258,2.7459110844559476,0,0,0,0,0,0,1317,1325,1380,1500,1500,1500
1747547518.3738694,0.2,-0.02,-0.5,0.002181661564992912,0.004363323129985824,0.002181661564992912,-2.7807292330164533,-1.4753710210254043,2.7441583908859277,0,0,0,0,0,0,1357,1365,1420,1500,1500,1500
1747547518.4713588,0.09,-0.25,0.01,-0.009817477042468103,-0.001090830782496456,0.007635815477475192,-2.7831700171858316,-1.4763517785474929,2.7467144750342714,0,0,0,0,0,0,1397,1405,1460,1500,1500,1500
1747547518.5571983,0.09,-0.25,0.01,-0.009817477042468103,-0.001090830782496456,0.007635815477475192,-2.7831700171858316,-1.4763517785474929,2.7467144750342714,0,0,0,0,0,0,1437,1445,1500,1500,1500,1500
1747547518.6562603,-0.41000000000000003,0.01,0.03,0.0,0.0,-0.001090830782496456,-2.7815196461262715,-1.4753703954575292,2.74503412602296,0,0,0,0,0,0,1477,1485,1500,1500,1500,1500
1747547518.757507,-0.41000000000000003,0.01,0.03,0.0,0.0,-0.001090830782496456,-2.7815196461262715,-1.4753703954575292,2.74503412602296,0,0,0,0,0,0,1500,1500,1500,1500,1500,1500
1747547518.857168,-0.42,-0.15,0.06,-0.001090830782496456,0.0,0.002181661564992912,-2.7814891863883098,-1.4763197865952722,2.745034706145023,0,0,0,0,0,0,1500,1500,1500,1500,1500,1500
1747547518.9567392,-0.34,0.0,0.02,-0.002181661564992912,-0.002181661564992912,-0.001090830782496456,-2.7814891863883098,-1.4763197865952722,2.745034706145023,0,0,0,0,0,0,1500,1500,1500,1500,1500,1500
1747547519.0409048,-0.34,0.0,0.02,-0.002181661564992912,-0.002181661564992912,-0.001090830782496456,-2.7814891863883098,-1.4763197865952722,2.745034706145023,0,0,0,0,0,0,1500,1500,1500,1500,1500,1500
1747547519.1408079,-0.38,-0.03,0.06,0.002181661564992912,0.0,0.0,-2.780600643712378,-1.4762870948705953,2.7442325004319392,0,0.992251,0,0,0,0,1540,1540,1540,1500,1500,1500
1747547519.2401483,-0.38,-0.03,0.06,0.002181661564992912,0.0,0.0,-2.780600643712378,-1.4762870948705953,2.7442325004319392,0,1.892195,0,0,0,0,1580,1580,1580,1500,1500,1500
1747547519.324028,-0.37,0.02,0.04,-0.003272492347489368,-0.002181661564992912,0.0,-2.780600643712378,-1.4762870948705953,2.7442325004319392,0,2.496058,0,0,0,0,1609,1607,1593,1500,1500,1500
1747547519.4234838,-0.71,-0.15,0.32,-0.002181661564992912,-0.001090830782496456,-0.002181661564992912,-2.77984126160389,-1.4753385750851118,2.7433568461771904,0,3.395137,0,0,0,0,1630,1627,1609,1500,1500,1500
1747547519.5236862,-0.71,-0.15,0.32,-0.002181661564992912,-0.001090830782496456,-0.002181661564992912,-2.77984126160389,-1.4753385750851118,2.7433568461771904,0,3.503555,0,0,0,0,1633,1629,1610,1500,1500,1500
1747547519.6234014,-0.52,-0.05,0.09,-0.002181661564992912,-0.001090830782496456,-0.001090830782496456,-2.778923414501601,-1.4762548879660824,2.742556334867235,0,4.189844,0,0,0,0,1648,1644,1622,1500,1500,1500
1747547519.723168,-0.52,-0.05,0.09,-0.002181661564992912,-0.001090830782496456,-0.001090830782496456,-2.778923414501601,-1.4762548879660824,2.742556334867235,0,7.548422,0,0,0,0,1688,1684,1662,1500,1500,1500
1747547519.8072407,-0.18,-0.01,-0.01,0.003272492347489368,0.008726646259971648,-0.002181661564992912,-2.778923414501601,-1.4762548879660824,2.742556334867235,0,10.145942,0,0,0,0,1728,1724,1702,1500,1500,1500
1747547519.906866,-0.29,0.01,0.0,0.0,0.001090830782496456,-0.001090830782496456,-2.778923414501601,-1.4762548879660824,2.742556334867235,0,12.5,0,0,0,0,1768,1764,1740,1500,1500,1500
1747547520.007532,-0.29,0.01,0.0,0.0,0.001090830782496456,-0.001090830782496456,-2.778923414501601,-1.4762548879660824,2.742556334867235,0,12.5,0,0,0,0,1794,1788,1740,1500,1500,1500
1747547520.1085248,-0.38,0.5700000000000001,-0.07,-0.015271630954950384,0.008726646259971648,0.013089969389957472,-2.7697912290667888,-1.4760917323268044,2.7333442456250663,0,12.5,0,0,0,0,1794,1788,1740,1500,1500,1500
1747547520.20407,-2.69,0.2,1.9000000000000001,-0.003272492347489368,0.011999138607461015,0.018544123302439753,-2.7730496077142304,-1.476077314938685,2.736517891703417,0,12.5,0,0,0,0,1794,1788,1740,1500,1500,1500
1747547520.292037,-2.69,0.2,1.9000000000000001,-0.003272492347489368,0.011999138607461015,0.018544123302439753,-2.7730496077142304,-1.476077314938685,2.736517891703417,0,12.5,0,0,0,0,1794,1788,1740,1500,1500,1500
1747547520.391946,-1.8,-0.49,0.98,0.002181661564992912,0.0,-0.002181661564992912,-2.7731519564514504,-1.4752098378957088,2.736671983223899,0,12.5,0,0,0,0,1794,1788,1740,1500,1500,1500
1747547520.4910355,-1.8,-0.49,0.98,0.002181661564992912,0.0,-0.002181661564992912,-2.7731519564514504,-1.4752098378957088,2.736671983223899,0,12.5,0,0,0,0,1794,1788,1740,1500,1500,1500
1747547520.5905588,-0.43,-0.09,0.04,-0.007635815477475192,0.00545415391248228,0.011999138607461015,-2.7722671318559344,-1.4760775512716702,2.7356501702036806,0,12.5,0,0,0,0,1794,1788,1740,1500,1500,1500
1747547520.6857429,-1.9100000000000001,-0.86,0.47000000000000003,0.004363323129985824,-0.004363323129985824,-0.016362461737446838,-2.7739616077977587,-1.4751630104618219,2.7373126361845093,0,12.5,0,0,0,0,1794,1788,1740,1500,1500,1500
1747547520.7737865,-1.9100000000000001,-0.86,0.47000000000000003,0.004363323129985824,-0.004363323129985824,-0.016362461737446838,-2.7739616077977587,-1.4751630104618219,2.7373126361845093,0,12.5,0,0,0,0,1794,1788,1740,1500,1500,1500
1747547520.8741279,0.1,-0.32,0.65,-0.004363323129985824,0.006544984694978736,0.016362461737446838,-2.7722978119325816,-1.4751304788551791,2.7356499548258957,0,12.5,0,0,0,0,1794,1788,1740,1500,1500,1500
1747547520.973517,0.1,-0.32,0.65,-0.004363323129985824,0.006544984694978736,0.016362461737446838,-2.7722978119325816,-1.4751304788551791,2.7356499548258957,0,12.5,0,0,0,0,1794,1788,1740,1500,1500,1500
1747547521.056715,-0.5,0.47000000000000003,-0.19,-0.004363323129985824,0.002181661564992912,0.004363323129985824,-2.7722978119325816,-1.4751304788551791,2.7356499548258957,0,12.5,0,0,0,0,1794,1788,1740,1500,1500,1500
1747547521.155363,0.46,-0.48,-1.09,0.008726646259971648,-0.004363323129985824,0.004363323129985824,-2.7706364468366367,-1.4750978023260866,2.733989706467133,0,12.5,0,0,0,0,1794,1788,1740,1500,1500,1500
1747547521.25755,0.46,-0.48,-1.09,0.008726646259971648,-0.004363323129985824,0.004363323129985824,-2.7706364468366367,-1.4750978023260866,2.733989706467133,0,9.237504,0,0,0,0,1754,1748,1700,1500,1500,1500
1747547521.3568065,-2.25,-0.14,1.5,-0.006544984694978736,-0.003272492347489368,0.007635815477475192,-2.7739616077977587,-1.4751630104618219,2.7373126361845093,0,0,0,0,0,0,1714,1708,1660,1500,1500,1500
1747547521.4565122,-2.25,-0.14,1.5,-0.006544984694978736,-0.003272492347489368,0.007635815477475192,-2.7739616077977587,-1.4751630104618219,2.7373126361845093,0,0,0,0,0,0,1674,1668,1620,1500,1500,1500
1747547521.539902,-0.35000000000000003,-0.65,0.35000000000000003,-0.001090830782496456,0.001090830782496456,0.007635815477475192,-2.7739616077977587,-1.4751630104618219,2.7373126361845093,0,0,0,0,0,0,1634,1628,1580,1500,1500,1500
1747547521.640072,-0.26,-0.06,0.25,-0.001090830782496456,0.007635815477475192,-0.001090830782496456,-2.7724661160253024,-1.4752431773541186,2.7357291183205836,0,0,0,0,0,0,1594,1588,1540,1500,1500,1500
1747547521.7407491,-0.26,-0.06,0.25,-0.001090830782496456,0.007635815477475192,-0.001090830782496456,-2.7724661160253024,-1.4752431773541186,2.7357291183205836,0,0,0,0,0,0,1554,1548,1500,1500,1500,1500
1747547521.8237247,-0.25,0.11,0.02,0.001090830782496456,0.0,0.003272492347489368,-2.7733487228911193,-1.4752760597000418,2.736525311099439,0,0,0,0,0,0,1514,1508,1500,1500,1500,1500
1747547521.9236126,-0.25,0.11,0.02,0.001090830782496456,0.0,0.003272492347489368,-2.7733487228911193,-1.4752760597000418,2.736525311099439,0,0,0,0,0,0,1500,1500,1500,1500,1500,1500
1747547522.02411,-0.26,-0.06,0.0,0.0,0.0,0.001090830782496456,-2.771682560144317,-1.475243489722374,2.7348602719744934,0,0,0,0,0,0,1500,1500,1500,1500,1500,1500
1747547522.1239955,-0.36,0.0,0.01,0.0,-0.002181661564992912,0.002181661564992912,-2.771682560144317,-1.475243489722374,2.7348602719744934,0,0,0,0,0,0,1500,1500,1500,1500,1500,1500
1747547522.22302,-0.36,0.0,0.01,0.0,-0.002181661564992912,0.002181661564992912,-2.771682560144317,-1.475243489722374,2.7348602719744934,0,0,0,0,0,0,1500,1500,1500,1500,1500,1500
1747547522.3066297,-0.37,0.01,0.01,0.0,-0.001090830782496456,-0.002181661564992912,-2.771682560144317,-1.475243489722374,2.7348602719744934,0,0,0,0,0,0,1500,1500,1500,1500,1500,1500
1747547522.4067254,-0.37,0.01,0.01,0.0,-0.001090830782496456,-0.002181661564992912,-2.771682560144317,-1.475243489722374,2.7348602719744934,0,0,0,0,0,0,1500,1500,1500,1500,1500,1500
1747547522.507485,-0.36,0.01,0.01,0.003272492347489368,0.0,0.002181661564992912,-2.771682560144317,-1.475243489722374,2.7348602719744934,0,0,0,0,0,0,1500,1500,1500,1500,1500,1500
1747547522.6063282,-0.34,0.03,0.02,0.002181661564992912,-0.002181661564992912,0.002181661564992912,-2.771682560144317,-1.475243489722374,2.7348602719744934,0,0,0,0,0,0,1500,1500,1500,1500,1500,1500
1747547522.7068324,-0.34,0.03,0.02,0.002181661564992912,-0.002181661564992912,0.002181661564992912,-2.771682560144317,-1.475243489722374,2.7348602719744934,0,1.892195,0,0,0,0,1540,1540,1540,1500,1500,1500
1747547522.7894802,-0.36,0.01,0.04,-0.001090830782496456,0.006544984694978736,0.001090830782496456,-2.771682560144317,-1.475243489722374,2.7348602719744934,0,9.777455,0,0,0,0,1580,1580,1580,1500,1500,1500
1747547522.8889449,-0.35000000000000003,0.0,0.06,-0.002181661564992912,0.003272492347489368,0.002181661564992912,-2.771682560144317,-1.475243489722374,2.7348602719744934,0,11.2923,0,0,0,0,1620,1620,1620,1500,1500,1500
1747547522.9892764,-0.35000000000000003,0.0,0.06,-0.002181661564992912,0.003272492347489368,0.002181661564992912,-2.771682560144317,-1.475243489722374,2.7348602719744934,0,12.5,0,0,0,0,1660,1660,1660,1500,1500,1500
1747547523.0730007,-0.33,-0.09,-0.14,0.004363323129985824,-0.002181661564992912,-0.003272492347489368,-2.771682560144317,-1.475243489722374,2.7348602719744934,0,12.5,0,0,0,0,1700,1700,1700,1500,1500,1500
1747547523.1746557,-0.33,-0.09,-0.14,0.004363323129985824,-0.002181661564992912,-0.003272492347489368,-2.771682560144317,-1.475243489722374,2.7348602719744934,0,12.5,0,0,0,0,1740,1740,1740,1500,1500,1500
1747547523.274028,-0.61,0.14,0.03,-0.00545415391248228,0.0,-0.004363323129985824,-2.7693003413056116,-1.4752905127565865,2.7324764470762197,0,12.5,0,0,0,0,1780,1780,1740,1500,1500,1500
1747547523.3732116,-0.48,-0.2,0.05,0.011999138607461015,0.002181661564992912,-0.007635815477475192,-2.7701185397270245,-1.4763189178287137,2.7334935361467414,0,12.5,0,0,0,0,1794,1788,1740,1500,1500,1500
1747547523.4733357,-0.48,-0.2,0.05,0.011999138607461015,0.002181661564992912,-0.007635815477475192,-2.7701185397270245,-1.4763189178287137,2.7334935361467414,0,12.5,0,0,0,0,1794,1788,1740,1500,1500,1500
1747547523.5577843,-0.79,0.13,0.31,-0.003272492347489368,-0.001090830782496456,0.002181661564992912,-2.7720872109790933,-1.4755481429989274,2.7351691261983766,0,12.5,0,0,0,0,1794,1788,1740,1500,1500,1500
1747547523.6567218,-0.79,0.13,0.31,-0.003272492347489368,-0.001090830782496456,0.002181661564992912,-2.7720872109790933,-1.4755481429989274,2.7351691261983766,0,12.5,0,0,0,0,1794,1788,1740,1500,1500,1500
1747547523.7568855,0.89,-0.1,-1.33,0.0,0.0,0.013089969389957472,-2.7704125811800004,-1.4755155586117732,2.733495637338625,0,12.5,0,0,0,0,1794,1788,1740,1500,1500,1500
1747547523.8375924,1.71,0.21,-1.51,0.0,0.004363323129985824,0.002181661564992912,-2.771200288849955,-1.4755151670400708,2.7343686403019696,0,12.5,0,0,0,0,1794,1788,1740,1500,1500,1500
1747547523.939505,1.71,0.21,-1.51,0.0,0.004363323129985824,0.002181661564992912,-2.771200288849955,-1.4755151670400708,2.7343686403019696,0,12.5,0,0,0,0,1794,1788,1740,1500,1500,1500
1747547524.0237875,-0.61,0.37,0.04,0.002181661564992912,0.003272492347489368,0.004363323129985824,-2.770381624717206,-1.4764661690284586,2.7334959986045306,0,12.5,0,0,0,0,1794,1788,1740,1500,1500,1500
1747547524.1237047,-0.61,0.37,0.04,0.002181661564992912,0.003272492347489368,0.004363323129985824,-2.770381624717206,-1.4764661690284586,2.7334959986045306,0,12.5,0,0,0,0,1794,1788,1740,1500,1500,1500
1747547524.2249324,1.43,0.64,-0.91,0.002181661564992912,-0.001090830782496456,-0.007635815477475192,-2.7680157318284424,-1.4755623238105917,2.7310971830979582,0,12.5,0,0,0,0,1794,1788,1740,1500,1500,1500
1747547524.3068697,1.43,0.64,-0.91,0.002181661564992912,-0.001090830782496456,-0.007635815477475192,-2.7680157318284424,-1.4755623238105917,2.7310971830979582,0,12.5,0,0,0,0,1794,1788,1740,1500,1500,1500
1747547524.4065733,1.35,-0.08,-0.18,0.003272492347489368,-0.004363323129985824,-0.018544123302439753,-2.769594516918372,-1.4764665645359656,2.7326236539199487,0,12.5,0,0,0,0,1794,1788,1740,1500,1500,1500
1747547524.5069149,-0.07,-0.37,-0.28,0.001090830782496456,0.003272492347489368,0.004363323129985824,-2.764772891936231,-1.475529891240166,2.727684929703173,0,12.5,0,0,0,0,1794,1788,1740,1500,1500,1500
1747547524.5899923,-0.07,-0.37,-0.28,0.001090830782496456,0.003272492347489368,0.004363323129985824,-2.764772891936231,-1.475529891240166,2.727684929703173,0,12.5,0,0,0,0,1794,1788,1740,1500,1500,1500
1747547524.6900659,-0.86,0.21,0.78,0.002181661564992912,-0.003272492347489368,-0.00545415391248228,-2.764620294354103,-1.4754170896972987,2.727621506877838,0,0,0,0,0,0,1754,1748,1700,1500,1500,1500
1747547524.7900105,-2.04,-0.2,1.7,-0.004363323129985824,0.013089969389957472,0.006544984694978736,-2.765526826950539,-1.476480329227278,2.728555474874558,0,0,0,0,0,0,1714,1708,1660,1500,1500,1500
1747547524.8897808,-2.04,-0.2,1.7,-0.004363323129985824,0.013089969389957472,0.006544984694978736,-2.765526826950539,-1.476480329227278,2.728555474874558,0,0,0,0,0,0,1674,1668,1620,1500,1500,1500
1747547524.9894073,-0.34,-0.18,-0.14,-0.009817477042468103,-0.006544984694978736,0.009817477042468103,-2.764827160177419,-1.4756090335242709,2.727821729138925,0,0,0,0,0,0,1634,1628,1580,1500,1500,1500
1747547525.0741608,-0.34,-0.18,-0.14,-0.009817477042468103,-0.006544984694978736,0.009817477042468103,-2.764827160177419,-1.4756090335242709,2.727821729138925,0,0,0,0,0,0,1594,1588,1540,1500,1500,1500
1747547525.1735892,-0.04,0.29,-0.04,0.006544984694978736,0.004363323129985824,-0.008726646259971648,-2.7679235920629175,-1.4764334267409285,2.730953833097793,0,0,0,0,0,0,1554,1548,1500,1500,1500,1500
1747547525.2633185,-0.31,0.04,0.01,0.0,-0.001090830782496456,0.003272492347489368,-2.7695612814086394,-1.4754367284204903,2.7324765232407424,0,0,0,0,0,0,1514,1508,1500,1500,1500,1500
1747547525.3574603,-0.31,0.04,0.01,0.0,-0.001090830782496456,0.003272492347489368,-2.7695612814086394,-1.4754367284204903,2.7324765232407424,0,0,0,0,0,0,1500,1500,1500,1500,1500,1500
1747547525.4566865,-0.28,0.04,-0.02,-0.003272492347489368,0.001090830782496456,-0.001090830782496456,-2.7703465036383568,-1.4754363371715038,2.733347024877287,0,0,0,0,0,0,1500,1500,1500,1500,1500,1500
1747547525.5408206,-0.28,0.04,-0.02,-0.003272492347489368,0.001090830782496456,-0.001090830782496456,-2.7703465036383568,-1.4754363371715038,2.733347024877287,0,0.125293,0,0,0,0,1500,1500,1500,1500,1500,1500
1747547525.63938,-0.34,0.0,0.02,-0.001090830782496456,0.001090830782496456,0.001090830782496456,-2.7695612814086394,-1.4754367284204903,2.7324765232407424,0,12.5,0,0,0,0,1540,1540,1540,1500,1500,1500
1747547525.7355995,-0.37,0.01,0.0,-0.002181661564992912,0.007635815477475192,0.001090830782496456,-2.7695612814086394,-1.4754367284204903,2.7324765232407424,0,12.5,0,0,0,0,1580,1580,1580,1500,1500,1500
1747547525.8232877,-0.37,0.01,0.0,-0.002181661564992912,0.007635815477475192,0.001090830782496456,-2.7695612814086394,-1.4754367284204903,2.7324765232407424,0,12.5,0,0,0,0,1620,1620,1620,1500,1500,1500
1747547525.9234326,-0.33,-0.26,0.12,-0.00545415391248228,-0.001090830782496456,0.002181661564992912,-2.768678018748155,-1.4754035561907917,2.7316796805656733,0,12.5,0,0,0,0,1660,1660,1660,1500,1500,1500
1747547526.023833,-0.33,-0.26,0.12,-0.00545415391248228,-0.001090830782496456,0.002181661564992912,-2.768678018748155,-1.4754035561907917,2.7316796805656733,0,12.5,0,0,0,0,1700,1700,1700,1500,1500,1500
1747547526.1240203,-0.09,-0.28,-0.17,0.002181661564992912,-0.00545415391248228,-0.007635815477475192,-2.7679546311276493,-1.4754831419061567,2.7309535447216935,0,12.5,0,0,0,0,1740,1740,1740,1500,1500,1500
1747547526.2122297,-0.32,-0.16,-0.12,-0.008726646259971648,-0.002181661564992912,0.001090830782496456,-2.767169489021688,-1.4754834550584546,2.7300831234106715,0,12.5,0,0,0,0,1780,1780,1740,1500,1500,1500
1747547526.3065464,-0.32,-0.16,-0.12,-0.008726646259971648,-0.002181661564992912,0.001090830782496456,-2.767169489021688,-1.4754834550584546,2.7300831234106715,0,12.5,0,0,0,0,1794,1788,1740,1500,1500,1500
1747547526.407089,-0.98,0.34,-0.21,-0.008726646259971648,0.003272492347489368,0.016362461737446838,-2.7615559290263025,-1.476527254980144,2.7244125458746704,0,12.5,0,0,0,0,1794,1788,1740,1500,1500,1500
1747547526.506645,-0.98,0.34,-0.21,-0.008726646259971648,0.003272492347489368,0.016362461737446838,-2.7615559290263025,-1.476527254980144,2.7244125458746704,0,12.5,0,0,0,0,1794,1788,1740,1500,1500,1500
1747547526.589431,-0.06,-0.34,-0.12,0.001090830782496456,0.002181661564992912,-0.013089969389957472,-2.765681700067041,-1.476594083258075,2.728621296146813,0,12.5,0,0,0,0,1794,1788,1740,1500,1500,1500
1747547526.681924,-2.37,0.31,1.56,-0.007635815477475192,0.00545415391248228,0.002181661564992912,-2.765868389156387,-1.4757550311258942,2.7286873052153395,0,12.5,0,0,0,0,1794,1788,1740,1500,1500,1500
1747547526.7911081,-2.37,0.31,1.56,-0.007635815477475192,0.00545415391248228,0.002181661564992912,-2.765868389156387,-1.4757550311258942,2.7286873052153395,0,0.992251,0,0,0,0,1754,1748,1700,1500,1500,1500
1747547526.8900537,-2.04,-0.66,0.91,0.003272492347489368,-0.001090830782496456,-0.007635815477475192,-2.7657694941812303,-1.475721355755938,2.728760147445359,0,0,0,0,0,0,1714,1708,1660,1500,1500,1500
1747547526.9896128,-2.04,-0.66,0.91,0.003272492347489368,-0.001090830782496456,-0.007635815477475192,-2.7657694941812303,-1.475721355755938,2.728760147445359,0,0,0,0,0,0,1674,1668,1620,1500,1500,1500
1747547527.0730555,-0.44,0.61,-0.25,0.001090830782496456,-0.00545415391248228,-0.006544984694978736,-2.7675464989131564,-1.4757879330094705,2.7303642481152046,0,0,0,0,0,0,1634,1628,1580,1500,1500,1500
1747547527.1732328,-0.6900000000000001,0.06,0.25,0.0,0.007635815477475192,-0.003272492347489368,-2.7657694941812303,-1.475721355755938,2.728760147445359,0,-0.087315,0,0,0,0,1594,1588,1540,1500,1500,1500
1747547527.273274,-0.6900000000000001,0.06,0.25,0.0,0.007635815477475192,-0.003272492347489368,-2.7657694941812303,-1.475721355755938,2.728760147445359,0,-12.5,0,0,0,0,1554,1548,1500,1500,1500,1500
1747547527.3737974,-0.29,0.05,0.05,-0.002181661564992912,0.003272492347489368,0.003272492347489368,-2.7640626556567955,-1.4766404315558441,2.727085897576448,0,-12.5,0,0,0,-0.001252,1514,1508,1460,1500,1500,1500
1747547527.4651349,-0.29,-0.12,0.04,0.0,0.0,-0.002181661564992912,-2.7640626556567955,-1.4766404315558441,2.727085897576448,0,-12.5,0,0,0,-0.001252,1474,1468,1420,1500,1500,1500
1747547527.5567663,-0.29,-0.12,0.04,0.0,0.0,-0.002181661564992912,-2.7640626556567955,-1.4766404315558441,2.727085897576448,0,-12.5,0,0,0,-0.001252,1434,1428,1380,1500,1500,1500
1747547527.6567621,-0.32,0.0,0.01,-0.00545415391248228,0.00545415391248228,0.001090830782496456,-2.7640626556567955,-1.4766404315558441,2.727085897576448,0,-12.5,0,0,0,-0.001252,1394,1388,1340,1500,1500,1500
1747547527.7567852,-0.32,0.0,0.01,-0.00545415391248228,0.00545415391248228,0.001090830782496456,-2.7640626556567955,-1.4766404315558441,2.727085897576448,0,-12.5,0,0,0,-0.001252,1354,1348,1300,1500,1500,1500
1747547527.8401673,-0.01,0.05,-0.08,0.00545415391248228,0.003272492347489368,-0.006544984694978736,-2.754192365087661,-1.4765510036951215,2.7171333494511116,0,-12.5,0,0,0,-0.001252,1314,1308,1260,1500,1500,1500
1747547527.93957,-0.01,0.05,-0.08,0.00545415391248228,0.003272492347489368,-0.006544984694978736,-2.754192365087661,-1.4765510036951215,2.7171333494511116,0,-12.5,0,0,0,-0.001252,1274,1268,1220,1500,1500,1500
1747547528.0354278,-0.28,-0.14,-0.12,-0.001090830782496456,-0.00545415391248228,0.00545415391248228,-2.7592912360555206,-1.4766872783309075,2.722057222336863,0,-12.5,0,0,0,-0.001252,1234,1228,1220,1500,1500,1500
1747547528.1233761,-0.32,0.08,0.11,-0.003272492347489368,0.003272492347489368,0.014180800172453928,-2.760077235056859,-1.4766871197577731,2.722928441199838,0,-12.5,0,0,0,-0.001252,1194,1188,1220,1500,1500,1500
1747547528.223198,-0.32,0.08,0.11,-0.003272492347489368,0.003272492347489368,0.014180800172453928,-2.760077235056859,-1.4766871197577731,2.722928441199838,0,-12.5,0,0,0,-0.001252,1157,1165,1220,1500,1500,1500
1747547528.3094687,-1.2,-0.48,1.01,-0.004363323129985824,-0.002181661564992912,-0.004363323129985824,-2.757554422767303,-1.4756674528214382,2.720461736269147,0,-12.5,0,0,0,-0.001252,1157,1165,1220,1500,1500,1500
1747547528.409851,-1.2,-0.48,1.01,-0.004363323129985824,-0.002181661564992912,-0.004363323129985824,-2.757554422767303,-1.4756674528214382,2.720461736269147,0,-12.5,0,0,0,-0.001252,1157,1165,1220,1500,1500,1500
1747547528.5064938,0.9500000000000001,0.56,-0.38,-0.003272492347489368,-0.011999138607461015,-0.014180800172453928,-2.7591921942417716,-1.4766531912334397,2.722129761688073,0,-12.5,0,0,0,-0.001252,1157,1165,1220,1500,1500,1500
1747547528.5907388,3.0500000000000003,1.41,-0.86,0.003272492347489368,-0.008726646259971648,-0.017453292519943295,-2.758406818856525,-1.4766532704914836,2.721259162773894,0,-12.5,0,0,0,-0.001252,1157,1165,1220,1500,1500,1500
1747547528.6898198,3.0500000000000003,1.41,-0.86,0.003272492347489368,-0.008726646259971648,-0.017453292519943295,-2.758406818856525,-1.4766532704914836,2.721259162773894,0,-12.5,0,0,0,-0.001252,1157,1165,1220,1500,1500,1500
1747547528.7898455,0.25,-0.49,-0.06,-0.004363323129985824,0.003272492347489368,0.004363323129985824,-2.756022519244867,-1.4757464737858321,2.718841817554148,0,-12.5,0,0,0,-0.001252,1157,1165,1220,1500,1500,1500
1747547528.8897874,0.25,-0.49,-0.06,-0.004363323129985824,0.003272492347489368,0.004363323129985824,-2.756022519244867,-1.4757464737858321,2.718841817554148,0,-12.5,0,0,0,-0.001252,1157,1165,1220,1500,1500,1500
1747547528.9894388,-2.06,-0.73,-0.92,-0.00545415391248228,0.013089969389957472,0.008726646259971648,-2.7602660987252334,-1.4768803802394346,2.7231107375975405,0,-12.5,0,0,0,-0.001252,1157,1165,1220,1500,1500,1500
1747547529.0729015,0.42,-0.37,0.88,-0.00545415391248228,0.008726646259971648,0.020725784867432664,-2.755306555323934,-1.4759042407260745,2.718205638749312,0,-12.5,0,0,0,-0.001252,1157,1165,1220,1500,1500,1500
1747547529.1734238,0.42,-0.37,0.88,-0.00545415391248228,0.008726646259971648,0.020725784867432664,-2.755306555323934,-1.4759042407260745,2.718205638749312,0,-12.5,0,0,0,0,1157,1165,1220,1500,1500,1500
1747547529.2736766,-1.08,-0.13,0.11,0.007635815477475192,0.002181661564992912,0.013089969389957472,-2.759476458873565,-1.4768806185872616,2.7222358698004485,0,-0.043231,0,0,0,0,1197,1205,1260,1500,1500,1500
1747547529.3728235,1.68,1.41,-0.07,0.0,0.001090830782496456,0.00545415391248228,-2.7604423300446954,-1.4760386430257832,2.723166058793022,0,0,0,0,0,0,1237,1245,1300,1500,1500,1500
1747547529.4730303,1.68,1.41,-0.07,0.0,0.001090830782496456,0.00545415391248228,-2.7604423300446954,-1.4760386430257832,2.723166058793022,0,0,0,0,0,0,1277,1285,1340,1500,1500,1500
1747547529.5569851,0.74,-0.15,-1.12,0.002181661564992912,0.00545415391248228,-0.008726646259971648,-2.7562668520474087,-1.477971097275776,2.7190537414244527,0,0,0,0,0,0,1317,1325,1380,1500,1500,1500
1747547529.6569982,0.74,-0.15,-1.12,0.002181661564992912,0.00545415391248228,-0.008726646259971648,-2.7562668520474087,-1.477971097275776,2.7190537414244527,0,0,0,0,0,0,1357,1365,1420,1500,1500,1500
1747547529.7562,-0.89,-0.29,0.6900000000000001,-0.004363323129985824,0.0,0.002181661564992912,-2.7562668520474087,-1.477971097275776,2.7190537414244527,0,0,0,0,0,0,1397,1405,1460,1500,1500,1500
1747547529.857028,-0.33,0.14,0.06,-0.00545415391248228,-0.003272492347489368,0.006544984694978736,-2.7563977760729497,-1.4770402882662699,2.718981293692898,0,0,0,0,0,0,1437,1445,1500,1500,1500,1500
1747547529.956071,-0.33,0.14,0.06,-0.00545415391248228,-0.003272492347489368,0.006544984694978736,-2.7563977760729497,-1.4770402882662699,2.718981293692898,0,0,0,0,0,0,1477,1485,1500,1500,1500,1500
1747547530.040159,-0.43,-0.09,0.0,-0.002181661564992912,0.0,0.002181661564992912,-2.7571884089587493,-1.4770400495137226,2.719857146672933,0,0,0,0,0,0,1500,1500,1500,1500,1500,1500
1747547530.1400228,-0.43,-0.09,0.0,-0.002181661564992912,0.0,0.002181661564992912,-2.7571884089587493,-1.4770400495137226,2.719857146672933,0,0,0,0,0,0,1500,1500,1500,1500,1500,1500
1747547530.2395291,-0.31,0.08,-0.01,0.0,0.0,0.0,-2.7571884089587493,-1.4770400495137226,2.719857146672933,0,0,0,0,0,0,1500,1500,1500,1500,1500,1500
1747547530.323664,-0.37,0.03,0.02,0.0,-0.003272492347489368,-0.001090830782496456,-2.757220051532431,-1.4760843264005825,2.7198569288939543,0,0,0,0,0,0,1500,1500,1500,1500,1500,1500
1747547530.4233816,-0.37,0.03,0.02,0.0,-0.003272492347489368,-0.001090830782496456,-2.757220051532431,-1.4760843264005825,2.7198569288939543,0,0,0,0,0,0,1500,1500,1500,1500,1500,1500
1747547530.5221705,-0.38,0.0,0.07,-0.002181661564992912,0.004363323129985824,0.002181661564992912,-2.7579392450597124,-1.4769604990818528,2.7206107098760666,0,0,0,0,0,0,1500,1500,1500,1500,1500,1500
1747547530.6229608,-0.38,0.0,0.07,-0.002181661564992912,0.004363323129985824,0.002181661564992912,-2.7579392450597124,-1.4769604990818528,2.7206107098760666,0,0,0,0,0,0,1500,1500,1500,1500,1500,1500
1747547530.7227771,-0.34,0.03,0.0,0.0,0.004363323129985824,0.0,-2.7579392450597124,-1.4769604990818528,2.7206107098760666,0,0,0,0,0,0,1500,1500,1500,1500,1500,1500
1747547530.806606,-0.36,0.0,0.01,-0.001090830782496456,0.002181661564992912,-0.002181661564992912,-2.7579392450597124,-1.4769604990818528,2.7206107098760666,0,0,0,0,0,0,1500,1500,1500,1500,1500,1500
1747547530.9067717,-0.36,0.0,0.01,-0.001090830782496456,0.002181661564992912,-0.002181661564992912,-2.7579392450597124,-1.4769604990818528,2.7206107098760666,0,0,0,0,0,0,1500,1500,1500,1500,1500,1500
1747547531.007084,-0.35000000000000003,-0.01,0.0,0.0,-0.00545415391248228,0.0,-2.7579392450597124,-1.4769604990818528,2.7206107098760666,0,0,0,0,0,0,1500,1500,1500,1500,1500,1500
1747547531.0895357,-0.35000000000000003,-0.01,0.0,0.0,-0.00545415391248228,0.0,-2.7579392450597124,-1.4769604990818528,2.7206107098760666,0,0,0,0,0,0,1500,1500,1500,1500,1500,1500
1747547531.189635,-0.35000000000000003,0.01,0.02,-0.001090830782496456,-0.009817477042468103,-0.001090830782496456,-2.7579392450597124,-1.4769604990818528,2.7206107098760666,0,0,0,0,0,0,1500,1500,1500,1500,1500,1500
1747547531.290195,-0.36,0.01,0.02,-0.002181661564992912,0.003272492347489368,0.0,-2.7579392450597124,-1.4769604990818528,2.7206107098760666,0,0,0,0,0,0,1500,1500,1500,1500,1500,1500
1747547531.3899977,-0.36,0.01,0.02,-0.002181661564992912,0.003272492347489368,0.0,-2.7579392450597124,-1.4769604990818528,2.7206107098760666,0,0,0,0,0,0,1500,1500,1500,1500,1500,1500
1747547531.4899712,-0.35000000000000003,0.01,0.01,0.001090830782496456,0.002181661564992912,0.001090830782496456,-2.7579392450597124,-1.4769604990818528,2.7206107098760666,0,0,0,0,0,0,1500,1500,1500,1500,1500,1500
1747547531.5734127,-0.35000000000000003,0.01,0.01,0.001090830782496456,0.002181661564992912,0.001090830782496456,-2.7579392450597124,-1.4769604990818528,2.7206107098760666,0,0,0,0,0,0,1500,1500,1500,1500,1500,1500
1747547531.6734176,-0.33,0.02,-0.03,0.001090830782496456,0.0,0.002181661564992912,-2.7579392450597124,-1.4769604990818528,2.7206107098760666,0,0,0,0,0,0,1500,1500,1500,1500,1500,1500
1747547531.7728376,-0.36,0.01,0.0,-0.001090830782496456,-0.001090830782496456,0.001090830782496456,-2.7579392450597124,-1.4769604990818528,2.7206107098760666,0,0,0,0,0,0,1500,1500,1500,1500,1500,1500
1747547531.8733084,-0.36,0.01,0.0,-0.001090830782496456,-0.001090830782496456,0.001090830782496456,-2.7579392450597124,-1.4769604990818528,2.7206107098760666,0,0,0,0,0,0,1500,1500,1500,1500,1500,1500
1747547531.9735107,-0.36,0.01,0.0,0.001090830782496456,0.001090830782496456,-0.002181661564992912,-2.7579392450597124,-1.4769604990818528,2.7206107098760666,0,0,0,0,0,0,1500,1500,1500,1500,1500,1500
1747547532.0570762,-0.34,0.01,0.01,0.001090830782496456,0.0,0.001090830782496456,-2.7579392450597124,-1.4769604990818528,2.7206107098760666,0,0,0,0,0,0,1500,1500,1500,1500,1500,1500
1747547532.1563876,-0.34,0.01,0.01,0.001090830782496456,0.0,0.001090830782496456,-2.7579392450597124,-1.4769604990818528,2.7206107098760666,0,0,0,0,0,0,1500,1500,1500,1500,1500,1500
1747547532.274547,-0.35000000000000003,0.01,0.01,0.0,-0.003272492347489368,0.0,-2.7579392450597124,-1.4769604990818528,2.7206107098760666,0,0,0,0,0,0,1500,1500,1500,1500,1500,1500
1747547532.3731174,-0.35000000000000003,0.0,0.0,-0.002181661564992912,-0.001090830782496456,-0.002181661564992912,-2.7579392450597124,-1.4769604990818528,2.7206107098760666,0,0,0,0,0,0,1500,1500,1500,1500,1500,1500
1747547532.4734452,-0.35000000000000003,0.0,0.0,-0.002181661564992912,-0.001090830782496456,-0.002181661564992912,-2.7579392450597124,-1.4769604990818528,2.7206107098760666,0,0,0,0,0,0,1500,1500,1500,1500,1500,1500
1747547532.5564504,-0.34,-0.01,0.01,0.001090830782496456,0.0,0.002181661564992912,-2.7579392450597124,-1.4769604990818528,2.7206107098760666,0,0,0,0,0,0,1500,1500,1500,1500,1500,1500
1747547532.6568015,-0.34,-0.01,0.01,0.001090830782496456,0.0,0.002181661564992912,-2.7579392450597124,-1.4769604990818528,2.7206107098760666,0,-0.673882,0,0,0,0,1460,1460,1460,1500,1500,1500
1747547532.7570825,-0.34,0.01,0.01,0.0,-0.002181661564992912,-0.001090830782496456,-2.7579392450597124,-1.4769604990818528,2.7206107098760666,0,-2.22685,0,0,0,0,1420,1420,1420,1500,1500,1500
1747547532.839508,-0.34,0.01,0.01,0.0,-0.002181661564992912,-0.001090830782496456,-2.7579392450597124,-1.4769604990818528,2.7206107098760666,0,-1.440882,0,0,0,0,1407,1408,1420,1500,1500,1500
1747547532.9398007,-0.35000000000000003,0.01,0.0,-0.001090830782496456,0.0,0.001090830782496456,-2.7579392450597124,-1.4769604990818528,2.7206107098760666,0,-0.879209,0,0,0,0,1426,1428,1436,1500,1500,1500
1747547533.0250394,-0.55,0.1,0.02,0.006544984694978736,-0.001090830782496456,-0.004363323129985824,-2.758687494406813,-1.4768808569356917,2.7213616838982255,0,-0.879209,0,0,0,0,1426,1428,1436,1500,1500,1500
1747547533.1241605,-0.55,0.1,0.02,0.006544984694978736,-0.001090830782496456,-0.004363323129985824,-2.758687494406813,-1.4768808569356917,2.7213616838982255,0,0,0,0,0,0,1466,1468,1476,1500,1500,1500
1747547533.2232175,-0.49,-0.05,0.05,0.004363323129985824,0.0,-0.002181661564992912,-2.7594331694879473,-1.4768011233071796,2.722110081226044,0,0,0,0,0,0,1500,1500,1500,1500,1500,1500
1747547533.3070667,-0.49,-0.05,0.05,0.004363323129985824,0.0,-0.002181661564992912,-2.7594331694879473,-1.4768011233071796,2.722110081226044,0,0,0,0,0,0,1500,1500,1500,1500,1500,1500
1747547533.4063132,-0.38,0.12,0.12,-0.001090830782496456,-0.002181661564992912,0.001090830782496456,-2.7594331694879473,-1.4768011233071796,2.722110081226044,0,0,0,0,0,0,1500,1500,1500,1500,1500,1500
1747547533.5068195,-0.28,0.01,-0.02,-0.003272492347489368,0.0,-0.002181661564992912,-2.7603200673447343,-1.4768351845016838,2.7229106190962074,0,0,0,0,0,0,1500,1500,1500,1500,1500,1500
1747547533.5895746,-0.28,0.01,-0.02,-0.003272492347489368,0.0,-0.002181661564992912,-2.7603200673447343,-1.4768351845016838,2.7229106190962074,0,0,0,0,0,0,1500,1500,1500,1500,1500,1500
1747547533.690056,-0.35000000000000003,0.0,-0.02,-0.002181661564992912,-0.003272492347489368,0.0,-2.7603515938433105,-1.4758812822761855,2.7229103297585078,0,0,0,0,0,0,1500,1500,1500,1500,1500,1500
1747547533.7808697,-0.35000000000000003,0.02,0.0,-0.006544984694978736,0.001090830782496456,0.0,-2.7603515938433105,-1.4758812822761855,2.7229103297585078,0,0,0,0,0,0,1500,1500,1500,1500,1500,1500
1747547533.8731613,-0.35000000000000003,0.02,0.0,-0.006544984694978736,0.001090830782496456,0.0,-2.7603515938433105,-1.4758812822761855,2.7229103297585078,0,0,0,0,0,0,1500,1500,1500,1500,1500,1500
1747547533.9727488,-0.35000000000000003,0.0,0.0,0.0,-0.001090830782496456,-0.001090830782496456,-2.7603515938433105,-1.4758812822761855,2.7229103297585078,0,0,0,0,0,0,1500,1500,1500,1500,1500,1500
1747547534.0560634,-0.35000000000000003,0.0,0.0,0.0,-0.001090830782496456,-0.001090830782496456,-2.7603515938433105,-1.4758812822761855,2.7229103297585078,0,0,0,0,0,0,1500,1500,1500,1500,1500,1500
1747547534.156733,-0.36,0.03,0.0,-0.002181661564992912,0.001090830782496456,0.0,-2.7603515938433105,-1.4758812822761855,2.7229103297585078,0,0,0,0,0,0,1500,1500,1500,1500,1500,1500
1747547534.2535503,-0.33,0.02,0.03,-0.002181661564992912,-0.001090830782496456,0.001090830782496456,-2.7603515938433105,-1.4758812822761855,2.7229103297585078,0,0,0,0,0,0,1500,1500,1500,1500,1500,1500
1747547534.3397322,-0.33,0.02,0.03,-0.002181661564992912,-0.001090830782496456,0.001090830782496456,-2.7603515938433105,-1.4758812822761855,2.7229103297585078,0,0,0,0,0,0,1500,1500,1500,1500,1500,1500
1747547534.4396257,-0.35000000000000003,0.0,0.0,-0.001090830782496456,0.002181661564992912,-0.001090830782496456,-2.7603515938433105,-1.4758812822761855,2.7229103297585078,0,0,0,0,0,0,1500,1500,1500,1500,1500,1500
1747547534.5397768,-0.35000000000000003,0.0,0.0,-0.001090830782496456,0.002181661564992912,-0.001090830782496456,-2.7603515938433105,-1.4758812822761855,2.7229103297585078,0,0,0,0,0,0,1500,1500,1500,1500,1500,1500
1747547534.639483,-0.38,0.01,0.01,0.0,-0.003272492347489368,-0.001090830782496456,-2.7603515938433105,-1.4758812822761855,2.7229103297585078,0,0,0,0,0,0,1500,1500,1500,1500,1500,1500
1747547534.7396245,-0.35000000000000003,0.02,0.04,0.002181661564992912,-0.002181661564992912,0.001090830782496456,-2.7603515938433105,-1.4758812822761855,2.7229103297585078,0,0,0,0,0,0,1500,1500,1500,1500,1500,1500
1747547534.8233724,-0.35000000000000003,0.02,0.04,0.002181661564992912,-0.002181661564992912,0.001090830782496456,-2.7603515938433105,-1.4758812822761855,2.7229103297585078,0,0,0,0,0,0,1500,1500,1500,1500,1500,1500
1747547534.9229007,-0.32,0.01,0.0,0.0,0.003272492347489368,0.002181661564992912,-2.7603515938433105,-1.4758812822761855,2.7229103297585078,0,0,0,0,0,0,1500,1500,1500,1500,1500,1500
1747547535.0229506,-0.32,0.01,0.0,0.0,0.003272492347489368,0.002181661564992912,-2.7603515938433105,-1.4758812822761855,2.7229103297585078,0,0,0,0,0,0,1500,1500,1500,1500,1500,1500
1747547535.1240258,-0.36,0.01,0.01,0.001090830782496456,0.0,-0.001090830782496456,-2.7603515938433105,-1.4758812822761855,2.7229103297585078,0,-0.022363,0,0,0,0,1500,1500,1500,1500,1500,1500
1747547535.2230456,-0.33,0.01,0.01,0.0,0.0,-0.001090830782496456,-2.7603515938433105,-1.4758812822761855,2.7229103297585078,0,-0.031945,0,0,0,0,1500,1500,1500,1500,1500,1500
1747547535.3063583,-0.33,0.01,0.01,0.0,0.0,-0.001090830782496456,-2.7603515938433105,-1.4758812822761855,2.7229103297585078,0,-0.070916,0,0,0,0,1500,1500,1500,1500,1500,1500
1747547535.4065027,-0.35000000000000003,0.01,0.05,0.002181661564992912,-0.001090830782496456,-0.001090830782496456,-2.7603515938433105,-1.4758812822761855,2.7229103297585078,0,-0.221491,0,0,0,0,1460,1500,1500,1500,1500,1500
1747547535.5066767,-0.35000000000000003,0.01,0.05,0.002181661564992912,-0.001090830782496456,-0.001090830782496456,-2.7603515938433105,-1.4758812822761855,2.7229103297585078,0,-0.279849,0,0,0,0,1453,1460,1500,1500,1500,1500
1747547535.589404,-0.35000000000000003,0.0,0.0,-0.001090830782496456,-0.003272492347489368,0.0,-2.7603515938433105,-1.4758812822761855,2.7229103297585078,0,-0.417013,0,0,0,0,1446,1447,1460,1500,1500,1500
1747547535.6893013,-0.39,0.02,0.04,-0.003272492347489368,-0.003272492347489368,-0.001090830782496456,-2.7603515938433105,-1.4758812822761855,2.7229103297585078,0,-0.773137,0,0,0,0,1431,1432,1440,1500,1500,1500
1747547535.789928,-0.39,0.02,0.04,-0.003272492347489368,-0.003272492347489368,-0.001090830782496456,-2.7603515938433105,-1.4758812822761855,2.7229103297585078,0,-0.879209,0,0,0,0,1426,1428,1436,1500,1500,1500
1747547535.8892214,-0.31,0.29,-0.06,0.0,-0.004363323129985824,-0.003272492347489368,-2.7603515938433105,-1.4758812822761855,2.7229103297585078,0,-0.879209,0,0,0,0,1426,1428,1436,1500,1500,1500
1747547535.9853265,-0.43,0.01,0.02,-0.001090830782496456,0.0,0.001090830782496456,-2.7603515938433105,-1.4758812822761855,2.7229103297585078,0,-0.879209,0,0,0,0,1426,1428,1436,1500,1500,1500
1747547536.073662,-0.43,0.01,0.02,-0.001090830782496456,0.0,0.001090830782496456,-2.7603515938433105,-1.4758812822761855,2.7229103297585078,0,-0.879209,0,0,0,0,1426,1428,1436,1500,1500,1500
1747547536.1743853,-0.37,0.05,0.04,-0.002181661564992912,-0.003272492347489368,0.0,-2.7603515938433105,-1.4758812822761855,2.7229103297585078,0,-0.879209,0,0,0,0,1426,1428,1436,1500,1500,1500
1747547536.272865,-0.37,0.05,0.04,-0.002181661564992912,-0.003272492347489368,0.0,-2.7603515938433105,-1.4758812822761855,2.7229103297585078,0,-0.879209,0,0,0,0,1426,1428,1436,1500,1500,1500
1747547536.3741589,-0.37,0.05,0.01,-0.001090830782496456,-0.006544984694978736,-0.003272492347489368,-2.7603515938433105,-1.4758812822761855,2.7229103297585078,0,-0.879209,0,0,0,0,1426,1428,1436,1500,1500,1500
1747547536.4747863,-0.37,0.05,0.02,0.0,0.001090830782496456,0.0,-2.7603515938433105,-1.4758812822761855,2.7229103297585078,0,-0.934801,0,0,0,0,1423,1425,1434,1500,1500,1500
1747547536.5572207,-0.37,0.05,0.02,0.0,0.001090830782496456,0.0,-2.7603515938433105,-1.4758812822761855,2.7229103297585078,0,-1.304137,0,0,0,0,1411,1413,1423,1500,1500,1500
1747547536.658729,-0.38,-0.03,0.01,0.0,-0.001090830782496456,0.001090830782496456,-2.7603515938433105,-1.4758812822761855,2.7229103297585078,0,-4.432054,0,0,0,0,1371,1373,1383,1500,1500,1500
1747547536.7580566,-0.38,-0.03,0.01,0.0,-0.001090830782496456,0.001090830782496456,-2.7603515938433105,-1.4758812822761855,2.7229103297585078,0,-6.767632,0,0,0,0,1331,1333,1343,1500,1500,1500
1747547536.8565621,-0.33,-0.18,-0.06,0.0,-0.002181661564992912,0.007635815477475192,-2.7603515938433105,-1.4758812822761855,2.7229103297585078,0,-7.388752,0,0,0,0,1291,1293,1303,1500,1500,1500
1747547536.9573073,-0.4,-0.05,-0.02,0.003272492347489368,0.006544984694978736,-0.002181661564992912,-2.761093438520607,-1.4758021495090148,2.723654948964024,0,-8.885955,0,0,0,0,1251,1253,1275,1500,1500,1500
1747547537.039947,-0.4,-0.05,-0.02,0.003272492347489368,0.006544984694978736,-0.002181661564992912,-2.761093438520607,-1.4758021495090148,2.723654948964024,0,-12.29445,0,0,0,0,1211,1213,1235,1500,1500,1500
1747547537.1393776,-0.17,-0.24,-0.16,0.004363323129985824,0.00545415391248228,0.0,-2.7625381104126236,-1.476595350601402,2.7251368388467045,0,-12.5,0,0,0,0,1171,1173,1220,1500,1500,1500
1747547537.2399414,-0.17,-0.24,-0.16,0.004363323129985824,0.00545415391248228,0.0,-2.7625381104126236,-1.476595350601402,2.7251368388467045,0,-12.5,0,0,0,0,1157,1165,1220,1500,1500,1500
1747547537.3242002,-1.23,-0.85,1.22,-0.003272492347489368,0.002181661564992912,0.00545415391248228,-2.765147372581118,-1.4767424779689233,2.727741111064545,0,-12.5,0,0,0,0,1157,1165,1220,1500,1500,1500
1747547537.4237237,3.2800000000000002,0.91,-0.08,0.007635815477475192,0.015271630954950384,0.003272492347489368,-2.765092586371026,-1.4766628612059114,2.7276038526537727,0,-12.5,0,0,0,0,1157,1165,1220,1500,1500,1500
