time,ay,ax,az,gy,gx,gz,roll,pitch,yaw,cmd_fx,cmd_fy,cmd_fz,cmd_tx,cmd_ty,cmd_tz,pwm_1,pwm_2,pwm_3,pwm_4,pwm_5,pwm_6
1748736250.7414227,0.0,0.0,0.0,0.0,0.0,0.0,0.0,0.0,0.0,0,0,0,0,0,0,1500,1500,1500,1500,1500,1500
1748736250.8385453,-0.01,0.02,0.0,-0.002181661564992912,0.002181661564992912,-0.001090830782496456,0.004615273949758224,0.7220180513781771,1.6001434732455961,0,0,0,0,0,0,1500,1500,1500,1500,1500,1500
1748736250.9385374,-0.01,0.02,0.0,-0.002181661564992912,0.002181661564992912,-0.001090830782496456,0.004615273949758224,0.7220180513781771,1.6001434732455961,0,0,0,0,0,0,1500,1500,1500,1500,1500,1500
1748736251.0214338,-0.01,0.0,0.03,-0.001090830782496456,-0.00545415391248228,0.0,0.004615273949758224,0.7220180513781771,1.6001434732455961,0,0,0,0,0,0,1500,1500,1500,1500,1500,1500
1748736251.1213412,-0.01,0.0,0.03,-0.001090830782496456,-0.00545415391248228,0.0,0.004615273949758224,0.7220180513781771,1.6001434732455961,0,0,0,0,0,0,1500,1500,1500,1500,1500,1500
1748736251.222542,-0.01,0.0,0.03,0.001090830782496456,-0.001090830782496456,-0.001090830782496456,0.004615273949758224,0.7220180513781771,1.6001434732455961,0,0,0,0,0,0,1500,1500,1500,1500,1500,1500
1748736251.3049567,0.0,-0.01,0.03,0.0,-0.003272492347489368,0.002181661564992912,0.004615273949758224,0.7220180513781771,1.6001434732455961,0,0,0,0,0,0,1500,1500,1500,1500,1500,1500
1748736251.406049,0.0,-0.01,0.03,0.0,-0.003272492347489368,0.002181661564992912,0.004615273949758224,0.7220180513781771,1.6001434732455961,0,0,0,0,0,0,1500,1500,1500,1500,1500,1500
1748736251.505217,-0.02,0.0,0.0,-0.001090830782496456,0.002181661564992912,0.002181661564992912,0.004615273949758224,0.7220180513781771,1.6001434732455961,0,0,0,0,0,0,1500,1500,1500,1500,1500,1500
1748736251.6052375,0.0,0.01,0.01,0.0,-0.002181661564992912,0.0,0.004615273949758224,0.7220180513781771,1.6001434732455961,0,0,0,0,0,0,1500,1500,1500,1500,1500,1500
1748736251.7050872,0.0,0.01,0.01,0.0,-0.002181661564992912,0.0,0.004615273949758224,0.7220180513781771,1.6001434732455961,0,0,0,0,0,0,1500,1500,1500,1500,1500,1500
1748736251.7875295,0.0,-0.03,0.03,0.0,0.004363323129985824,0.002181661564992912,0.004615273949758224,0.7220180513781771,1.6001434732455961,0,0,0,0,0,0,1500,1500,1500,1500,1500,1500
1748736251.8889232,0.0,-0.03,0.03,0.0,0.004363323129985824,0.002181661564992912,0.004615273949758224,0.7220180513781771,1.6001434732455961,0,0,0,0,0,0,1500,1500,1500,1500,1500,1500
1748736251.9877357,0.01,-0.03,0.04,0.003272492347489368,0.002181661564992912,0.0,0.004615273949758224,0.7220180513781771,1.6001434732455961,0,0,0,0,0,0,1500,1500,1500,1500,1500,1500
1748736252.0714242,0.01,-0.03,0.04,0.003272492347489368,0.002181661564992912,0.0,0.004615273949758224,0.7220180513781771,1.6001434732455961,0,0,0,0,0,0,1500,1500,1500,1500,1500,1500
1748736252.1718404,-0.01,-0.02,0.01,-0.002181661564992912,-0.002181661564992912,0.001090830782496456,0.004615273949758224,0.7220180513781771,1.6001434732455961,0,0,0,0,0,0,1500,1500,1500,1500,1500,1500
1748736252.2550852,0.0,0.0,0.0,0.001090830782496456,0.003272492347489368,0.0,0.004615273949758224,0.7220180513781771,1.6001434732455961,0,0,0,0,0,0,1500,1500,1500,1500,1500,1500
1748736252.3554788,0.0,0.0,0.0,0.001090830782496456,0.003272492347489368,0.0,0.004615273949758224,0.7220180513781771,1.6001434732455961,0,0,0,0,0,0,1500,1500,1500,1500,1500,1500
1748736252.455339,0.0,0.02,0.04,0.0,0.002181661564992912,0.001090830782496456,0.004615273949758224,0.7220180513781771,1.6001434732455961,0,0,0,0,0,0,1500,1500,1500,1500,1500,1500
1748736252.5382624,0.0,0.02,0.04,0.0,0.002181661564992912,0.001090830782496456,0.004615273949758224,0.7220180513781771,1.6001434732455961,0,0,0,0,0,0,1500,1500,1500,1500,1500,1500
1748736252.6377654,0.0,0.0,0.0,0.0,-0.003272492347489368,0.001090830782496456,0.004615273949758224,0.7220180513781771,1.6001434732455961,0,0,0,0,0,0,1500,1500,1500,1500,1500,1500
1748736252.738694,-0.01,0.0,0.03,-0.002181661564992912,0.0,0.0,0.004615273949758224,0.7220180513781771,1.6001434732455961,0,0,0,0,0,0,1500,1500,1500,1500,1500,1500
1748736252.8379405,-0.01,0.0,0.03,-0.002181661564992912,0.0,0.0,0.004615273949758224,0.7220180513781771,1.6001434732455961,0,0,0,0,0,0,1500,1500,1500,1500,1500,1500
1748736252.9384654,0.0,-0.02,0.02,0.0,0.001090830782496456,-0.001090830782496456,0.004615273949758224,0.7220180513781771,1.6001434732455961,0,0,0,0,0,0,1500,1500,1500,1500,1500,1500
1748736253.02156,0.0,-0.02,0.02,0.0,0.001090830782496456,-0.001090830782496456,0.004615273949758224,0.7220180513781771,1.6001434732455961,0,0,0,0,0,0,1500,1500,1500,1500,1500,1500
1748736253.1217663,0.0,0.01,0.0,0.0,-0.003272492347489368,0.001090830782496456,0.004615273949758224,0.7220180513781771,1.6001434732455961,0,0,0,0,0,0,1500,1500,1500,1500,1500,1500
1748736253.2218676,-0.02,0.06,-0.03,0.0,-0.002181661564992912,0.001090830782496456,0.004615273949758224,0.7220180513781771,1.6001434732455961,0,0,0,0,0,0,1500,1500,1500,1500,1500,1500
1748736253.305328,-0.02,0.06,-0.03,0.0,-0.002181661564992912,0.001090830782496456,0.004615273949758224,0.7220180513781771,1.6001434732455961,0,0,0,0,0,0,1500,1500,1500,1500,1500,1500
1748736253.4054263,0.0,-0.01,0.02,0.001090830782496456,0.003272492347489368,0.0,0.004615273949758224,0.7220180513781771,1.6001434732455961,0,0,0,0,0,0,1500,1500,1500,1500,1500,1500
1748736253.5010207,-0.02,-0.02,0.03,0.0,0.003272492347489368,0.001090830782496456,0.004615273949758224,0.7220180513781771,1.6001434732455961,0,0,0,0,0,0,1500,1500,1500,1500,1500,1500
1748736253.5885494,-0.02,-0.02,0.03,0.0,0.003272492347489368,0.001090830782496456,0.004615273949758224,0.7220180513781771,1.6001434732455961,0,0,0,0,0,0,1500,1500,1500,1500,1500,1500
1748736253.6883333,0.0,-0.01,0.03,0.001090830782496456,0.001090830782496456,-0.003272492347489368,0.004615273949758224,0.7220180513781771,1.6001434732455961,0,0,0,0,0,0,1500,1500,1500,1500,1500,1500
1748736253.7717645,0.0,-0.01,0.03,0.001090830782496456,0.001090830782496456,-0.003272492347489368,0.004615273949758224,0.7220180513781771,1.6001434732455961,0,0,0,0,0,0,1500,1500,1500,1500,1500,1500
1748736253.8717093,0.01,0.03,0.01,0.001090830782496456,0.002181661564992912,-0.001090830782496456,0.004615273949758224,0.7220180513781771,1.6001434732455961,0,0,0,0,0,0,1500,1500,1500,1500,1500,1500
1748736253.9720302,0.0,0.03,0.01,0.002181661564992912,-0.001090830782496456,0.001090830782496456,0.004615273949758224,0.7220180513781771,1.6001434732455961,0,0,0,0,0,0,1500,1500,1500,1500,1500,1500
1748736254.0551918,0.0,0.03,0.01,0.002181661564992912,-0.001090830782496456,0.001090830782496456,0.004615273949758224,0.7220180513781771,1.6001434732455961,0,0,0,0,0,0,1500,1500,1500,1500,1500,1500
1748736254.1555018,0.01,0.0,0.0,-0.001090830782496456,0.004363323129985824,0.0,0.004615273949758224,0.7220180513781771,1.6001434732455961,0,0,0,0,0,0,1500,1500,1500,1500,1500,1500
1748736254.2542524,0.01,0.0,0.0,-0.001090830782496456,0.004363323129985824,0.0,0.004615273949758224,0.7220180513781771,1.6001434732455961,0,0,0,0,0,0,1500,1500,1500,1500,1500,1500
1748736254.3553267,-0.02,-0.04,0.06,0.001090830782496456,0.001090830782496456,0.001090830782496456,0.004615273949758224,0.7220180513781771,1.6001434732455961,0,0,0,0,0,0,1500,1500,1500,1500,1500,1500
1748736254.4552484,-0.02,-0.04,0.06,0.001090830782496456,0.001090830782496456,0.001090830782496456,0.004615273949758224,0.7220180513781771,1.6001434732455961,0,0,0,0,0,0,1500,1500,1500,1500,1500,1500
1748736254.5385575,-0.02,-0.01,0.04,0.003272492347489368,-0.004363323129985824,0.001090830782496456,0.004615273949758224,0.7220180513781771,1.6001434732455961,0,0,0,0,0,0,1500,1500,1500,1500,1500,1500
1748736254.638832,-0.01,-0.02,0.04,0.003272492347489368,-0.004363323129985824,0.0,0.004615273949758224,0.7220180513781771,1.6001434732455961,0,0,0,0,0,0,1500,1500,1500,1500,1500,1500
1748736254.738423,-0.01,-0.02,0.04,0.003272492347489368,-0.004363323129985824,0.0,0.004615273949758224,0.7220180513781771,1.6001434732455961,0,0,0,0,0,0,1500,1500,1500,1500,1500,1500
1748736254.838881,0.0,-0.02,0.02,0.002181661564992912,-0.001090830782496456,0.0,0.004615273949758224,0.7220180513781771,1.6001434732455961,0,0,0,0,0,0,1500,1500,1500,1500,1500,1500
1748736254.9383757,-0.01,-0.03,0.02,-0.001090830782496456,-0.002181661564992912,0.13962634015954636,0.004615273949758224,0.7220180513781771,1.6001434732455961,0,0,0,0,0,0,1500,1500,1500,1500,1500,1500
1748736255.0221717,-0.01,-0.03,0.02,-0.001090830782496456,-0.002181661564992912,0.13962634015954636,0.004615273949758224,0.7220180513781771,1.6001434732455961,0,0,0,0,0,0,1500,1500,1500,1500,1500,1500
1748736255.1211696,-0.01,-0.01,0.02,0.0,-0.002181661564992912,0.002181661564992912,0.004615273949758224,0.7220180513781771,1.6001434732455961,0,0,0,0,0,0,1500,1500,1500,1500,1500,1500
1748736255.2212014,-0.01,-0.01,0.02,0.0,-0.002181661564992912,0.002181661564992912,0.004615273949758224,0.7220180513781771,1.6001434732455961,0,0,0,0,0,0,1500,1500,1500,1500,1500,1500
1748736255.305298,-0.02,0.0,0.03,0.002181661564992912,0.002181661564992912,-0.001090830782496456,0.004615273949758224,0.7220180513781771,1.6001434732455961,0,0,0,0,0,0,1500,1500,1500,1500,1500,1500
1748736255.4052773,-0.02,0.0,0.03,0.002181661564992912,0.002181661564992912,-0.001090830782496456,0.004615273949758224,0.7220180513781771,1.6001434732455961,0,0,0,0,0,0,1500,1500,1500,1500,1500,1500
1748736255.503862,0.0,0.0,0.03,0.0,0.0,-0.001090830782496456,0.004615273949758224,0.7220180513781771,1.6001434732455961,0,0,0,0,0,0,1500,1500,1500,1500,1500,1500
1748736255.605045,0.0,0.0,0.01,0.0,0.001090830782496456,-0.001090830782496456,0.004615273949758224,0.7220180513781771,1.6001434732455961,0,0,0,0,0,0,1500,1500,1500,1500,1500,1500
1748736255.7051451,0.0,0.0,0.01,0.0,0.001090830782496456,-0.001090830782496456,0.004615273949758224,0.7220180513781771,1.6001434732455961,0,0,0,0,0,0,1500,1500,1500,1500,1500,1500
1748736255.788378,0.0,0.0,0.02,-0.002181661564992912,0.002181661564992912,0.0,0.004615273949758224,0.7220180513781771,1.6001434732455961,0,0,0,0,0,0,1500,1500,1500,1500,1500,1500
1748736255.887616,0.0,-0.02,0.02,0.002181661564992912,0.003272492347489368,-0.002181661564992912,0.004615273949758224,0.7220180513781771,1.6001434732455961,0,0,0,0,0,0,1500,1500,1500,1500,1500,1500
1748736255.9877393,0.0,-0.02,0.02,0.002181661564992912,0.003272492347489368,-0.002181661564992912,0.004615273949758224,0.7220180513781771,1.6001434732455961,0,0,0,0,0,0,1500,1500,1500,1500,1500,1500
1748736256.0724418,0.0,0.0,0.01,0.001090830782496456,0.001090830782496456,0.001090830782496456,0.004615273949758224,0.7220180513781771,1.6001434732455961,0,0,0,0,0,0,1500,1500,1500,1500,1500,1500
1748736256.1716187,0.0,0.0,0.01,0.001090830782496456,0.001090830782496456,0.001090830782496456,0.004615273949758224,0.7220180513781771,1.6001434732455961,0,0,0,0,0,0,1500,1500,1500,1500,1500,1500
1748736256.2716205,-0.01,0.0,0.0,0.002181661564992912,-0.004363323129985824,0.001090830782496456,0.004615273949758224,0.7220180513781771,1.6001434732455961,0,0,0,0,0,0,1500,1500,1500,1500,1500,1500
1748736256.3719823,-0.01,0.01,0.03,0.0,0.003272492347489368,-0.001090830782496456,0.004615273949758224,0.7220180513781771,1.6001434732455961,0,0,0,0,0,0,1500,1500,1500,1500,1500,1500
1748736256.4712384,-0.01,0.01,0.03,0.0,0.003272492347489368,-0.001090830782496456,0.004615273949758224,0.7220180513781771,1.6001434732455961,0,0,0,0,0,0,1500,1500,1500,1500,1500,1500
1748736256.5550199,-0.02,0.0,0.03,-0.003272492347489368,0.001090830782496456,0.0,0.004615273949758224,0.7220180513781771,1.6001434732455961,0,0,0,0,0,0,1500,1500,1500,1500,1500,1500
1748736256.6540196,-0.02,0.0,0.03,-0.003272492347489368,0.001090830782496456,0.0,0.004615273949758224,0.7220180513781771,1.6001434732455961,0,0,0,0,0,0,1500,1500,1500,1500,1500,1500
1748736256.7550766,0.0,0.0,-0.01,0.002181661564992912,0.0,-0.001090830782496456,0.004615273949758224,0.7220180513781771,1.6001434732455961,0,0,0,0,0,0,1500,1500,1500,1500,1500,1500
1748736256.8551989,0.0,0.01,0.0,0.001090830782496456,-0.001090830782496456,0.0,0.004615273949758224,0.7220180513781771,1.6001434732455961,0,0,0,0,0,0,1500,1500,1500,1500,1500,1500
1748736256.953682,0.0,0.01,0.0,0.001090830782496456,-0.001090830782496456,0.0,0.004615273949758224,0.7220180513781771,1.6001434732455961,0,0,0,0,0,0,1500,1500,1500,1500,1500,1500
1748736257.0376716,0.0,0.01,0.0,0.001090830782496456,0.001090830782496456,0.001090830782496456,0.004615273949758224,0.7220180513781771,1.6001434732455961,0,0,0,0,0,0,1500,1500,1500,1500,1500,1500
1748736257.1381292,0.0,0.01,0.0,0.001090830782496456,0.001090830782496456,0.001090830782496456,0.004615273949758224,0.7220180513781771,1.6001434732455961,0,0,0,0,0,0,1500,1500,1500,1500,1500,1500
1748736257.237936,0.0,0.0,0.03,0.0,0.001090830782496456,0.001090830782496456,0.004615273949758224,0.7220180513781771,1.6001434732455961,0,0,0,0,0,0,1500,1500,1500,1500,1500,1500
1748736257.320798,0.0,-0.02,0.02,0.001090830782496456,0.001090830782496456,0.002181661564992912,0.004615273949758224,0.7220180513781771,1.6001434732455961,0,0,0,0,0,0,1500,1500,1500,1500,1500,1500
1748736257.4208305,0.0,-0.02,0.02,0.001090830782496456,0.001090830782496456,0.002181661564992912,0.004615273949758224,0.7220180513781771,1.6001434732455961,0,0,0,0,0,0,1500,1500,1500,1500,1500,1500
1748736257.5211427,0.0,-0.04,0.03,0.001090830782496456,-0.004363323129985824,0.001090830782496456,0.004615273949758224,0.7220180513781771,1.6001434732455961,0,0,0,0,0,0,1500,1500,1500,1500,1500,1500
1748736257.6175756,0.0,0.0,0.03,0.002181661564992912,0.004363323129985824,0.0,0.004615273949758224,0.7220180513781771,1.6001434732455961,0,0,0,0,0,0,1500,1500,1500,1500,1500,1500
1748736257.7209668,0.0,0.0,0.03,0.002181661564992912,0.004363323129985824,0.0,0.004615273949758224,0.7220180513781771,1.6001434732455961,0,0,0,0,0,0,1500,1500,1500,1500,1500,1500
1748736257.805205,-0.01,0.02,0.02,-0.002181661564992912,0.001090830782496456,0.002181661564992912,0.004615273949758224,0.7220180513781771,1.6001434732455961,0,0,0,0,0,0,1500,1500,1500,1500,1500,1500
1748736257.905049,-0.01,0.02,0.02,-0.002181661564992912,0.001090830782496456,0.002181661564992912,0.004615273949758224,0.7220180513781771,1.6001434732455961,0,0,0,0,0,0,1500,1500,1500,1500,1500,1500
1748736258.0050066,-0.02,-0.03,0.02,-0.001090830782496456,0.002181661564992912,-0.002181661564992912,0.004615273949758224,0.7220180513781771,1.6001434732455961,0,0,0,0,0,0,1500,1500,1500,1500,1500,1500
1748736258.1037943,-0.02,-0.02,0.01,-0.001090830782496456,-0.002181661564992912,-0.002181661564992912,0.004615273949758224,0.7220180513781771,1.6001434732455961,0,0,0,0,0,0,1500,1500,1500,1500,1500,1500
1748736258.2051067,-0.02,-0.02,0.01,-0.001090830782496456,-0.002181661564992912,-0.002181661564992912,0.004615273949758224,0.7220180513781771,1.6001434732455961,0,0,0,0,0,0,1500,1500,1500,1500,1500,1500
1748736258.2887356,0.0,0.02,0.0,-0.001090830782496456,0.001090830782496456,0.0,0.004615273949758224,0.7220180513781771,1.6001434732455961,0,0,0,0,0,0,1500,1500,1500,1500,1500,1500
1748736258.3880665,0.0,0.02,0.0,-0.001090830782496456,0.001090830782496456,0.0,0.004615273949758224,0.7220180513781771,1.6001434732455961,0,0,0,0,0,0,1500,1500,1500,1500,1500,1500
1748736258.4876857,0.0,0.02,-0.01,-0.002181661564992912,0.001090830782496456,0.001090830782496456,0.004615273949758224,0.7220180513781771,1.6001434732455961,0,0,0,0,0,0,1500,1500,1500,1500,1500,1500
1748736258.5712464,0.0,-0.04,0.05,-0.002181661564992912,0.0,-0.002181661564992912,0.004615273949758224,0.7220180513781771,1.6001434732455961,0,0,0,0,0,0,1500,1500,1500,1500,1500,1500
1748736258.6719005,0.0,-0.04,0.05,-0.002181661564992912,0.0,-0.002181661564992912,0.004615273949758224,0.7220180513781771,1.6001434732455961,0,0,0,0,0,0,1500,1500,1500,1500,1500,1500
1748736258.7715838,-0.02,-0.05,0.03,-0.002181661564992912,-0.004363323129985824,0.002181661564992912,0.004615273949758224,0.7220180513781771,1.6001434732455961,0,0,0,0,0,0,1500,1500,1500,1500,1500,1500
1748736258.8718061,-0.02,-0.05,0.03,-0.002181661564992912,-0.004363323129985824,0.002181661564992912,0.004615273949758224,0.7220180513781771,1.6001434732455961,0,0,0,0,0,0,1500,1500,1500,1500,1500,1500
1748736258.9714363,-0.02,0.0,0.0,0.0,0.004363323129985824,0.002181661564992912,0.004615273949758224,0.7220180513781771,1.6001434732455961,0,0,0,0,0,0,1500,1500,1500,1500,1500,1500
1748736259.0537372,-0.02,0.0,-0.01,0.001090830782496456,0.001090830782496456,0.0,0.004615273949758224,0.7220180513781771,1.6001434732455961,0,0,0,0,0,0,1500,1500,1500,1500,1500,1500
1748736259.1591303,-0.02,0.0,-0.01,0.001090830782496456,0.001090830782496456,0.0,0.004615273949758224,0.7220180513781771,1.6001434732455961,0,0,0,0,0,0,1500,1500,1500,1500,1500,1500
1748736259.255273,-0.03,0.01,0.0,-0.002181661564992912,-0.003272492347489368,-0.002181661564992912,0.004615273949758224,0.7220180513781771,1.6001434732455961,0,0,0,0,0,0,1500,1500,1500,1500,1500,1500
1748736259.355122,-0.03,0.01,0.0,-0.002181661564992912,-0.003272492347489368,-0.002181661564992912,0.004615273949758224,0.7220180513781771,1.6001434732455961,0,0,0,0,0,0,1500,1500,1500,1500,1500,1500
1748736259.4547224,0.0,-0.02,0.02,0.002181661564992912,0.0,0.0,0.004615273949758224,0.7220180513781771,1.6001434732455961,0,0,0,0,0,0,1500,1500,1500,1500,1500,1500
1748736259.5372894,-0.02,0.0,0.02,0.001090830782496456,0.001090830782496456,0.002181661564992912,0.004615273949758224,0.7220180513781771,1.6001434732455961,0,0,0,0,0,0,1500,1500,1500,1500,1500,1500
1748736259.637975,-0.02,0.0,0.02,0.001090830782496456,0.001090830782496456,0.002181661564992912,0.004615273949758224,0.7220180513781771,1.6001434732455961,0,0,0,0,0,0,1500,1500,1500,1500,1500,1500
1748736259.7377577,-0.01,0.0,0.01,0.002181661564992912,0.001090830782496456,0.0,0.004615273949758224,0.7220180513781771,1.6001434732455961,0,0,0,0,0,0,1500,1500,1500,1500,1500,1500
1748736259.821268,-0.01,0.0,0.01,0.002181661564992912,0.001090830782496456,0.0,0.004615273949758224,0.7220180513781771,1.6001434732455961,0,0,0,0,0,0,1500,1500,1500,1500,1500,1500
1748736259.9220312,0.0,0.01,-0.01,0.002181661564992912,0.0,0.001090830782496456,0.004615273949758224,0.7220180513781771,1.6001434732455961,0,0,0,0,0,0,1500,1500,1500,1500,1500,1500
1748736260.0051887,-0.03,0.0,0.0,0.001090830782496456,0.002181661564992912,-0.001090830782496456,0.004615273949758224,0.7220180513781771,1.6001434732455961,0,0,0,0,0,0,1500,1500,1500,1500,1500,1500
1748736260.1045148,-0.03,0.0,0.0,0.001090830782496456,0.002181661564992912,-0.001090830782496456,0.004615273949758224,0.7220180513781771,1.6001434732455961,0,0,0,0,0,0,1500,1500,1500,1500,1500,1500
1748736260.205175,0.0,0.0,0.04,-0.003272492347489368,-0.001090830782496456,-0.001090830782496456,0.004615273949758224,0.7220180513781771,1.6001434732455961,0,0,0,0,0,0,1500,1500,1500,1500,1500,1500
1748736260.2888505,0.0,0.0,0.04,-0.003272492347489368,-0.001090830782496456,-0.001090830782496456,0.004615273949758224,0.7220180513781771,1.6001434732455961,0,0,0,0,0,0,1500,1500,1500,1500,1500,1500
1748736260.388365,,,,0.001090830782496456,-0.001090830782496456,-0.001090830782496456,0.004615273949758224,0.7220180513781771,1.6001434732455961,0,0,0,0,0,0,1500,1500,1500,1500,1500,1500
1748736260.4878516,-0.02,0.0,0.0,-0.001090830782496456,-0.002181661564992912,-0.001090830782496456,0.004615273949758224,0.7220180513781771,1.6001434732455961,0,0,0,0,0,0,1500,1500,1500,1500,1500,1500
1748736260.570819,-0.02,0.0,0.0,-0.001090830782496456,-0.002181661564992912,-0.001090830782496456,0.004615273949758224,0.7220180513781771,1.6001434732455961,0,0,0,0,0,0,1500,1500,1500,1500,1500,1500
1748736260.6718242,-0.01,0.0,0.01,0.001090830782496456,-0.004363323129985824,-0.002181661564992912,0.004615273949758224,0.7220180513781771,1.6001434732455961,0,0,0,0,0,0,1500,1500,1500,1500,1500,1500
1748736260.7718692,-0.01,0.0,0.01,0.001090830782496456,-0.004363323129985824,-0.002181661564992912,0.004615273949758224,0.7220180513781771,1.6001434732455961,0,0,0,0,0,0,1500,1500,1500,1500,1500,1500
1748736260.8714452,0.0,0.01,0.03,-0.001090830782496456,-0.001090830782496456,0.001090830782496456,0.004615273949758224,0.7220180513781771,1.6001434732455961,0,0,0,0,0,0,1500,1500,1500,1500,1500,1500
1748736260.9710858,-0.01,-0.02,0.04,-0.002181661564992912,-0.001090830782496456,0.0,0.004615273949758224,0.7220180513781771,1.6001434732455961,0,0,0,0,0,0,1500,1500,1500,1500,1500,1500
1748736261.0553043,-0.01,-0.02,0.04,-0.002181661564992912,-0.001090830782496456,0.0,0.004615273949758224,0.7220180513781771,1.6001434732455961,0,0,0,0,0,0,1500,1500,1500,1500,1500,1500
1748736261.1536784,0.0,0.0,0.0,0.002181661564992912,-0.001090830782496456,0.0,0.004615273949758224,0.7220180513781771,1.6001434732455961,0,0,0,0,0,0,1500,1500,1500,1500,1500,1500
1748736261.2535553,0.0,0.0,0.0,0.002181661564992912,-0.001090830782496456,0.0,0.004615273949758224,0.7220180513781771,1.6001434732455961,0,0,0,0,0,0,1500,1500,1500,1500,1500,1500
1748736261.3550665,0.0,0.01,0.01,0.0,-0.002181661564992912,-0.002181661564992912,0.004615273949758224,0.7220180513781771,1.6001434732455961,0,0,0,0,0,0,1500,1500,1500,1500,1500,1500
1748736261.4551024,0.0,0.0,0.0,0.002181661564992912,0.002181661564992912,0.003272492347489368,0.004615273949758224,0.7220180513781771,1.6001434732455961,0,0,0,0,0,0,1500,1500,1500,1500,1500,1500
1748736261.5377474,0.0,0.0,0.0,0.002181661564992912,0.002181661564992912,0.003272492347489368,0.004615273949758224,0.7220180513781771,1.6001434732455961,0,0,0,0,0,0,1500,1500,1500,1500,1500,1500
1748736261.638022,0.0,0.0,0.03,-0.002181661564992912,0.001090830782496456,0.0,0.004615273949758224,0.7220180513781771,1.6001434732455961,0,0,0,0,0,0,1500,1500,1500,1500,1500,1500
1748736261.7375662,0.0,0.0,0.03,-0.002181661564992912,0.001090830782496456,0.0,0.004615273949758224,0.7220180513781771,1.6001434732455961,0,0,0,0,0,0,1500,1500,1500,1500,1500,1500
1748736261.821738,-0.02,-0.02,0.03,-0.003272492347489368,-0.004363323129985824,0.001090830782496456,0.004615273949758224,0.7220180513781771,1.6001434732455961,0,0,0,0,0,0,1500,1500,1500,1500,1500,1500
1748736261.9216318,-0.01,-0.02,0.0,-0.002181661564992912,0.001090830782496456,-0.001090830782496456,0.004615273949758224,0.7220180513781771,1.6001434732455961,0,0,0,0,0,0,1500,1500,1500,1500,1500,1500
1748736262.0213163,-0.01,-0.02,0.0,-0.002181661564992912,0.001090830782496456,-0.001090830782496456,0.004615273949758224,0.7220180513781771,1.6001434732455961,0,0,0,0,0,0,1500,1500,1500,1500,1500,1500
1748736262.1214843,0.01,0.01,0.0,0.0,-0.003272492347489368,0.001090830782496456,0.004615273949758224,0.7220180513781771,1.6001434732455961,0,0,0,0,0,0,1500,1500,1500,1500,1500,1500
1748736262.21369,0.0,0.03,0.02,-0.001090830782496456,0.0,0.001090830782496456,0.004615273949758224,0.7220180513781771,1.6001434732455961,0,0,0,0,0,0,1500,1500,1500,1500,1500,1500
1748736262.304818,0.0,0.03,0.02,-0.001090830782496456,0.0,0.001090830782496456,0.004615273949758224,0.7220180513781771,1.6001434732455961,0,0,0,0,0,0,1500,1500,1500,1500,1500,1500
1748736262.4045982,0.0,-0.01,0.02,0.0,-0.001090830782496456,0.003272492347489368,0.004615273949758224,0.7220180513781771,1.6001434732455961,0,0,0,0,0,0,1500,1500,1500,1500,1500,1500
1748736262.5039597,0.0,-0.01,0.02,0.0,-0.001090830782496456,0.003272492347489368,0.004615273949758224,0.7220180513781771,1.6001434732455961,0,0,0,0,0,0,1500,1500,1500,1500,1500,1500
1748736262.6041956,-0.01,-0.01,0.05,-0.003272492347489368,-0.00545415391248228,0.0,0.004615273949758224,0.7220180513781771,1.6001434732455961,0,0,0,0,0,0,1500,1500,1500,1500,1500,1500
1748736262.6952372,-0.02,-0.02,0.01,0.0,-0.00545415391248228,0.0,0.004615273949758224,0.7220180513781771,1.6001434732455961,0,0,0,0,0,0,1500,1500,1500,1500,1500,1500
1748736262.7877095,-0.02,-0.02,0.01,0.0,-0.00545415391248228,0.0,0.004615273949758224,0.7220180513781771,1.6001434732455961,0,0,0,0,0,0,1500,1500,1500,1500,1500,1500
1748736262.8873374,0.0,0.0,0.02,-0.002181661564992912,0.002181661564992912,-0.002181661564992912,0.004615273949758224,0.7220180513781771,1.6001434732455961,0,0,0,0,0,0,1500,1500,1500,1500,1500,1500
1748736262.9878232,0.0,0.0,0.02,-0.002181661564992912,0.002181661564992912,-0.002181661564992912,0.004615273949758224,0.7220180513781771,1.6001434732455961,0,0,0,0,0,0,1500,1500,1500,1500,1500,1500
1748736263.0719419,0.0,0.0,0.02,0.001090830782496456,0.004363323129985824,0.001090830782496456,0.004615273949758224,0.7220180513781771,1.6001434732455961,0,0,0,0,0,0,1500,1500,1500,1500,1500,1500
1748736263.1696968,-0.01,0.01,0.02,0.002181661564992912,-0.002181661564992912,-0.001090830782496456,0.004615273949758224,0.7220180513781771,1.6001434732455961,0,0,0,0,0,0,1500,1500,1500,1500,1500,1500
1748736263.271163,-0.01,0.01,0.02,0.002181661564992912,-0.002181661564992912,-0.001090830782496456,0.004615273949758224,0.7220180513781771,1.6001434732455961,0,0,0,0,0,0,1500,1500,1500,1500,1500,1500
1748736263.3707376,-0.01,-0.02,0.02,0.002181661564992912,0.001090830782496456,-0.001090830782496456,0.004615273949758224,0.7220180513781771,1.6001434732455961,0,0,0,0,0,0,1500,1500,1500,1500,1500,1500
1748736263.4710941,-0.01,-0.02,0.02,0.002181661564992912,0.001090830782496456,-0.001090830782496456,0.004615273949758224,0.7220180513781771,1.6001434732455961,0,0,0,0,0,0,1500,1500,1500,1500,1500,1500
1748736263.5542653,0.01,-0.03,0.0,0.0,0.001090830782496456,0.001090830782496456,0.004615273949758224,0.7220180513781771,1.6001434732455961,0,0,0,0,0,0,1500,1500,1500,1500,1500,1500
1748736263.6460686,0.0,0.0,-0.02,0.0,0.0,0.0,0.004615273949758224,0.7220180513781771,1.6001434732455961,0,0,0,0,0,0,1500,1500,1500,1500,1500,1500
1748736263.755069,0.0,0.0,-0.02,0.0,0.0,0.0,0.004615273949758224,0.7220180513781771,1.6001434732455961,0,0,0,0,0,0,1500,1500,1500,1500,1500,1500
1748736263.8536766,-0.01,0.01,0.0,0.0,0.001090830782496456,-0.002181661564992912,0.004615273949758224,0.7220180513781771,1.6001434732455961,0,0,0,0,0,0,1500,1500,1500,1500,1500,1500
1748736263.9552965,-0.01,0.01,0.0,0.0,0.001090830782496456,-0.002181661564992912,0.004615273949758224,0.7220180513781771,1.6001434732455961,0,0,0,0,0,0,1500,1500,1500,1500,1500,1500
1748736264.0378647,0.0,0.02,0.0,0.001090830782496456,-0.002181661564992912,0.0,0.004615273949758224,0.7220180513781771,1.6001434732455961,0,0,0,0,0,0,1500,1500,1500,1500,1500,1500
1748736264.1374674,-0.02,-0.03,0.05,0.0,0.003272492347489368,-0.001090830782496456,0.004615273949758224,0.7220180513781771,1.6001434732455961,0,0,0,0,0,0,1500,1500,1500,1500,1500,1500
1748736264.2375853,-0.02,-0.03,0.05,0.0,0.003272492347489368,-0.001090830782496456,0.004615273949758224,0.7220180513781771,1.6001434732455961,0,0,0,0,0,0,1500,1500,1500,1500,1500,1500
1748736264.3212507,0.0,0.0,0.01,0.0,-0.001090830782496456,0.0,0.004615273949758224,0.7220180513781771,1.6001434732455961,0,0,0,0,0,0,1500,1500,1500,1500,1500,1500
1748736264.4206836,0.0,0.0,0.01,0.0,-0.001090830782496456,0.0,0.004615273949758224,0.7220180513781771,1.6001434732455961,0,0,0,0,0,0,1500,1500,1500,1500,1500,1500
1748736264.5219274,-0.01,0.0,-0.01,0.0,0.003272492347489368,0.001090830782496456,0.004615273949758224,0.7220180513781771,1.6001434732455961,0,0,0,0,0,0,1500,1500,1500,1500,1500,1500
1748736264.6204925,0.0,0.0,0.0,-0.001090830782496456,0.0,0.0,0.004615273949758224,0.7220180513781771,1.6001434732455961,0,0,0,0,0,0,1500,1500,1500,1500,1500,1500
1748736264.7210026,0.0,0.0,0.0,-0.001090830782496456,0.0,0.0,0.004615273949758224,0.7220180513781771,1.6001434732455961,0,0,0,0,0,0,1500,1500,1500,1500,1500,1500
1748736264.8049822,-0.02,-0.02,0.0,0.0,0.0,0.003272492347489368,0.004615273949758224,0.7220180513781771,1.6001434732455961,0,0,0,0,0,0,1500,1500,1500,1500,1500,1500
1748736264.9039705,-0.02,-0.02,0.0,0.0,0.0,0.003272492347489368,0.004615273949758224,0.7220180513781771,1.6001434732455961,0,0,0,0,0,0,1500,1500,1500,1500,1500,1500
1748736265.0037386,-0.01,-0.01,0.03,0.0,0.0,0.0,0.004615273949758224,0.7220180513781771,1.6001434732455961,0,0,0,0,0,0,1500,1500,1500,1500,1500,1500
1748736265.1036599,0.0,0.0,0.0,-0.001090830782496456,0.002181661564992912,0.0,0.004615273949758224,0.7220180513781771,1.6001434732455961,0,0,0,0,0,0,1500,1500,1500,1500,1500,1500
1748736265.2044437,0.0,0.0,0.0,-0.001090830782496456,0.002181661564992912,0.0,0.004615273949758224,0.7220180513781771,1.6001434732455961,0,0,0,0,0,0,1500,1500,1500,1500,1500,1500
1748736265.2874875,0.01,0.02,-0.01,-0.002181661564992912,0.00545415391248228,0.0,0.004615273949758224,0.7220180513781771,1.6001434732455961,0,0,0,0,0,0,1500,1500,1500,1500,1500,1500
1748736265.3874145,0.01,0.02,-0.01,-0.002181661564992912,0.00545415391248228,0.0,0.004615273949758224,0.7220180513781771,1.6001434732455961,0,0,0,0,0,0,1500,1500,1500,1500,1500,1500
1748736265.4884646,-0.01,0.0,0.02,0.0,0.001090830782496456,0.0,0.004615273949758224,0.7220180513781771,1.6001434732455961,0,0,0,0,0,0,1500,1500,1500,1500,1500,1500
1748736265.587563,-0.02,-0.02,0.04,0.0,-0.004363323129985824,0.0,0.004615273949758224,0.7220180513781771,1.6001434732455961,0,0,0,0,0,0,1500,1500,1500,1500,1500,1500
1748736265.6883721,-0.02,-0.02,0.04,0.0,-0.004363323129985824,0.0,0.004615273949758224,0.7220180513781771,1.6001434732455961,0,0,0,0,0,0,1500,1500,1500,1500,1500,1500
1748736265.7706678,0.0,-0.01,0.03,-0.001090830782496456,0.001090830782496456,-0.002181661564992912,0.004615273949758224,0.7220180513781771,1.6001434732455961,0,0,0,0,0,0,1500,1500,1500,1500,1500,1500
1748736265.8688643,-0.01,-0.01,0.04,0.001090830782496456,0.002181661564992912,0.0,0.004615273949758224,0.7220180513781771,1.6001434732455961,0,0,0,0,0,0,1500,1500,1500,1500,1500,1500
1748736265.971881,-0.01,-0.01,0.04,0.001090830782496456,0.002181661564992912,0.0,0.004615273949758224,0.7220180513781771,1.6001434732455961,0,0,0,0,0,0,1500,1500,1500,1500,1500,1500
1748736266.0539124,-0.01,0.03,0.02,0.002181661564992912,0.0,0.001090830782496456,0.004615273949758224,0.7220180513781771,1.6001434732455961,0,0,0,0,0,0,1500,1500,1500,1500,1500,1500
1748736266.153951,-0.01,0.03,0.02,0.002181661564992912,0.0,0.001090830782496456,0.004615273949758224,0.7220180513781771,1.6001434732455961,0,0,0,0,0,0,1500,1500,1500,1500,1500,1500
1748736266.2552886,0.0,0.0,0.0,0.0,0.003272492347489368,0.002181661564992912,0.004615273949758224,0.7220180513781771,1.6001434732455961,0,0,0,0,0,0,1500,1500,1500,1500,1500,1500
1748736266.349711,0.0,-0.02,0.02,0.003272492347489368,0.001090830782496456,0.0,0.004615273949758224,0.7220180513781771,1.6001434732455961,0,0,0,0,0,0,1500,1500,1500,1500,1500,1500
1748736266.4551013,0.0,-0.02,0.02,0.003272492347489368,0.001090830782496456,0.0,0.004615273949758224,0.7220180513781771,1.6001434732455961,0,0,0,0,0,0,1500,1500,1500,1500,1500,1500
1748736266.5381818,0.0,-0.01,0.05,0.0,-0.002181661564992912,-0.001090830782496456,0.004615273949758224,0.7220180513781771,1.6001434732455961,0,0,0,0,0,0,1500,1500,1500,1500,1500,1500
1748736266.6377394,0.0,-0.01,0.05,0.0,-0.002181661564992912,-0.001090830782496456,0.004615273949758224,0.7220180513781771,1.6001434732455961,0,0,0,0,0,0,1500,1500,1500,1500,1500,1500
1748736266.7371638,0.0,-0.04,0.01,0.0,0.0,0.001090830782496456,0.004615273949758224,0.7220180513781771,1.6001434732455961,0,0,0,0,0,0,1500,1500,1500,1500,1500,1500
1748736266.8377883,0.0,0.02,0.02,-0.003272492347489368,0.0,-0.001090830782496456,0.004615273949758224,0.7220180513781771,1.6001434732455961,0,0,0,0,0,0,1500,1500,1500,1500,1500,1500
1748736266.9380476,0.0,0.02,0.02,-0.003272492347489368,0.0,-0.001090830782496456,0.004615273949758224,0.7220180513781771,1.6001434732455961,0,0,0,0,0,0,1500,1500,1500,1500,1500,1500
1748736267.0217285,-0.01,0.0,0.0,0.003272492347489368,-0.002181661564992912,0.0,0.004615273949758224,0.7220180513781771,1.6001434732455961,0,0,0,0,0,0,1500,1500,1500,1500,1500,1500
1748736267.121322,-0.01,0.0,0.0,0.003272492347489368,-0.002181661564992912,0.0,0.004615273949758224,0.7220180513781771,1.6001434732455961,0,0,0,0,0,0,1500,1500,1500,1500,1500,1500
1748736267.2206228,-0.01,-0.02,0.03,0.002181661564992912,-0.003272492347489368,0.001090830782496456,0.004615273949758224,0.7220180513781771,1.6001434732455961,0,0,0,0,0,0,1500,1500,1500,1500,1500,1500
1748736267.3050823,-0.01,-0.02,0.0,0.0,0.004363323129985824,0.0,0.004615273949758224,0.7220180513781771,1.6001434732455961,0,0,0,0,0,0,1500,1500,1500,1500,1500,1500
1748736267.4042945,-0.01,-0.02,0.0,0.0,0.004363323129985824,0.0,0.004615273949758224,0.7220180513781771,1.6001434732455961,0,0,0,0,0,0,1500,1500,1500,1500,1500,1500
1748736267.5043352,0.0,-0.01,0.02,0.0,-0.001090830782496456,0.0,0.004615273949758224,0.7220180513781771,1.6001434732455961,0,0,0,0,0,0,1500,1500,1500,1500,1500,1500
1748736267.6038787,0.0,-0.01,0.02,0.0,-0.001090830782496456,0.0,0.004615273949758224,0.7220180513781771,1.6001434732455961,0,0,0,0,0,0,1500,1500,1500,1500,1500,1500
1748736267.7044938,0.0,0.01,0.01,0.0,0.0,0.001090830782496456,0.004615273949758224,0.7220180513781771,1.6001434732455961,0,0,0,0,0,0,1500,1500,1500,1500,1500,1500
1748736267.7883923,-0.01,0.0,0.02,-0.001090830782496456,-0.001090830782496456,0.001090830782496456,0.004615273949758224,0.7220180513781771,1.6001434732455961,0,0,0,0,0,0,1500,1500,1500,1500,1500,1500
1748736267.8879209,-0.01,0.0,0.02,-0.001090830782496456,-0.001090830782496456,0.001090830782496456,0.004615273949758224,0.7220180513781771,1.6001434732455961,0,0,0,0,0,0,1500,1500,1500,1500,1500,1500
1748736267.9880576,-0.03,-0.03,0.03,0.002181661564992912,0.0,-0.001090830782496456,0.004615273949758224,0.7220180513781771,1.6001434732455961,0,0,0,0,0,0,1500,1500,1500,1500,1500,1500
1748736268.0711694,-0.03,-0.03,0.03,0.002181661564992912,0.0,-0.001090830782496456,0.004615273949758224,0.7220180513781771,1.6001434732455961,0,0,0,0,0,0,1500,1500,1500,1500,1500,1500
1748736268.1720665,0.0,-0.02,0.0,0.0,-0.002181661564992912,0.0,0.004615273949758224,0.7220180513781771,1.6001434732455961,0,0,0,0,0,0,1500,1500,1500,1500,1500,1500
1748736268.271081,0.01,-0.01,0.0,-0.001090830782496456,-0.003272492347489368,0.0,0.004615273949758224,0.7220180513781771,1.6001434732455961,0,0,0,0,0,0,1500,1500,1500,1500,1500,1500
1748736268.3728905,0.01,-0.01,0.0,-0.001090830782496456,-0.003272492347489368,0.0,0.004615273949758224,0.7220180513781771,1.6001434732455961,0,0,0,0,0,0,1500,1500,1500,1500,1500,1500
1748736268.472717,-0.02,0.03,0.01,-0.001090830782496456,0.00545415391248228,0.0,0.004615273949758224,0.7220180513781771,1.6001434732455961,0,0,0,0,0,0,1500,1500,1500,1500,1500,1500
1748736268.5706906,0.0,-0.01,0.04,0.003272492347489368,0.004363323129985824,-0.001090830782496456,0.004615273949758224,0.7220180513781771,1.6001434732455961,0,0,0,0,0,0,1500,1500,1500,1500,1500,1500
1748736268.6714306,0.0,-0.01,0.04,0.003272492347489368,0.004363323129985824,-0.001090830782496456,0.004615273949758224,0.7220180513781771,1.6001434732455961,0,0,0,0,0,0,1500,1500,1500,1500,1500,1500
1748736268.7709382,-0.02,-0.02,0.05,-0.001090830782496456,0.002181661564992912,0.001090830782496456,0.004615273949758224,0.7220180513781771,1.6001434732455961,0,0,0,0,0,0,1500,1500,1500,1500,1500,1500
1748736268.8711016,-0.02,-0.02,0.05,-0.001090830782496456,0.002181661564992912,0.001090830782496456,0.004615273949758224,0.7220180513781771,1.6001434732455961,0,0,0,0,0,0,1500,1500,1500,1500,1500,1500
1748736268.9706476,0.0,0.0,0.01,0.0,0.0,0.0,0.004615273949758224,0.7220180513781771,1.6001434732455961,0,0,0,0,0,0,1500,1500,1500,1500,1500,1500
1748736269.0550628,0.0,0.0,-0.01,0.0,-0.00545415391248228,0.0,0.004615273949758224,0.7220180513781771,1.6001434732455961,0,0,0,0,0,0,1500,1500,1500,1500,1500,1500
1748736269.154151,0.0,0.0,-0.01,0.0,-0.00545415391248228,0.0,0.004615273949758224,0.7220180513781771,1.6001434732455961,0,0,0,0,0,0,1500,1500,1500,1500,1500,1500
1748736269.2550225,0.0,0.0,0.0,0.001090830782496456,0.00545415391248228,0.0,0.004615273949758224,0.7220180513781771,1.6001434732455961,0,0,0,0,0,0,1500,1500,1500,1500,1500,1500
1748736269.3544877,0.0,0.0,0.0,0.001090830782496456,0.00545415391248228,0.0,0.004615273949758224,0.7220180513781771,1.6001434732455961,0,0,0,0,0,0,1500,1500,1500,1500,1500,1500
1748736269.454221,-0.02,0.02,0.01,-0.001090830782496456,-0.002181661564992912,0.0,0.004615273949758224,0.7220180513781771,1.6001434732455961,0,0,0,0,0,0,1500,1500,1500,1500,1500,1500
1748736269.5380187,0.0,-0.02,0.01,-0.002181661564992912,0.001090830782496456,0.0,0.004615273949758224,0.7220180513781771,1.6001434732455961,0,0,0,0,0,0,1500,1500,1500,1500,1500,1500
1748736269.6374774,0.0,-0.02,0.01,-0.002181661564992912,0.001090830782496456,0.0,0.004615273949758224,0.7220180513781771,1.6001434732455961,0,0,0,0,0,0,1500,1500,1500,1500,1500,1500
1748736269.7374656,0.01,-0.01,0.03,0.0,-0.002181661564992912,-0.001090830782496456,0.004615273949758224,0.7220180513781771,1.6001434732455961,0,0,0,0,0,0,1500,1500,1500,1500,1500,1500
1748736269.8219419,0.01,-0.01,0.03,0.0,-0.002181661564992912,-0.001090830782496456,0.004615273949758224,0.7220180513781771,1.6001434732455961,0,0,0,0,0,0,1500,1500,1500,1500,1500,1500
1748736269.9209414,0.0,0.03,0.0,0.001090830782496456,-0.003272492347489368,0.0,0.004615273949758224,0.7220180513781771,1.6001434732455961,0,0,0,0,0,0,1500,1500,1500,1500,1500,1500
1748736270.021556,0.0,0.01,-0.02,0.001090830782496456,-0.001090830782496456,0.001090830782496456,0.004615273949758224,0.7220180513781771,1.6001434732455961,0,0,0,0,0,0,1500,1500,1500,1500,1500,1500
1748736270.1215546,0.0,0.01,-0.02,0.001090830782496456,-0.001090830782496456,0.001090830782496456,0.004615273949758224,0.7220180513781771,1.6001434732455961,0,0,0,0,0,0,1500,1500,1500,1500,1500,1500
1748736270.2211814,0.0,0.0,0.03,-0.002181661564992912,0.003272492347489368,0.0,0.004615273949758224,0.7220180513781771,1.6001434732455961,0,0,0,0,0,0,1500,1500,1500,1500,1500,1500
1748736270.3040183,0.0,0.0,0.03,-0.002181661564992912,0.003272492347489368,0.0,0.004615273949758224,0.7220180513781771,1.6001434732455961,0,0,0,0,0,0,1500,1500,1500,1500,1500,1500
1748736270.4070294,0.0,-0.03,0.04,-0.002181661564992912,0.0,0.001090830782496456,0.004615273949758224,0.7220180513781771,1.6001434732455961,0,0,0,0,0,0,1500,1500,1500,1500,1500,1500
1748736270.494428,-0.01,0.0,0.0,-0.002181661564992912,-0.002181661564992912,0.0,0.004615273949758224,0.7220180513781771,1.6001434732455961,0,0,0,0,0,0,1500,1500,1500,1500,1500,1500
1748736270.5907164,-0.01,0.0,0.0,-0.002181661564992912,-0.002181661564992912,0.0,0.004615273949758224,0.7220180513781771,1.6001434732455961,0,0,0,0,0,0,1500,1500,1500,1500,1500,1500
1748736270.6891968,0.0,0.0,0.04,-0.001090830782496456,0.001090830782496456,0.001090830782496456,0.004615273949758224,0.7220180513781771,1.6001434732455961,0,0,0,0,0,0,1500,1500,1500,1500,1500,1500
1748736270.7718854,0.0,0.0,0.04,-0.001090830782496456,0.001090830782496456,0.001090830782496456,0.004615273949758224,0.7220180513781771,1.6001434732455961,0,0,0,0,0,0,1500,1500,1500,1500,1500,1500
1748736270.8715286,0.0,0.0,0.0,0.0,0.0,0.001090830782496456,0.004615273949758224,0.7220180513781771,1.6001434732455961,0,0,0,0,0,0,1500,1500,1500,1500,1500,1500
1748736270.9619577,-0.02,-0.02,0.0,-0.001090830782496456,0.0,0.001090830782496456,0.004615273949758224,0.7220180513781771,1.6001434732455961,0,0,0,0,0,0,1500,1500,1500,1500,1500,1500
1748736271.056726,-0.02,-0.02,0.0,-0.001090830782496456,0.0,0.001090830782496456,0.004615273949758224,0.7220180513781771,1.6001434732455961,0,0,0,0,0,0,1500,1500,1500,1500,1500,1500
1748736271.1564052,-0.01,-0.03,0.03,0.001090830782496456,0.001090830782496456,-0.001090830782496456,0.004615273949758224,0.7220180513781771,1.6001434732455961,0,0,0,0,0,0,1500,1500,1500,1500,1500,1500
1748736271.256199,-0.01,-0.03,0.03,0.001090830782496456,0.001090830782496456,-0.001090830782496456,0.004615273949758224,0.7220180513781771,1.6001434732455961,0,0,0,0,0,0,1500,1500,1500,1500,1500,1500
1748736271.3584704,-0.01,-0.03,0.01,-0.001090830782496456,-0.002181661564992912,-0.003272492347489368,0.004615273949758224,0.7220180513781771,1.6001434732455961,0,0,0,0,0,0,1500,1500,1500,1500,1500,1500
1748736271.4559252,-0.01,0.01,0.04,0.0,0.002181661564992912,0.0,0.004615273949758224,0.7220180513781771,1.6001434732455961,0,0,0,0,0,0,1500,1500,1500,1500,1500,1500
1748736271.5454152,-0.01,0.01,0.04,0.0,0.002181661564992912,0.0,0.004615273949758224,0.7220180513781771,1.6001434732455961,0,0,0,0,0,0,1500,1500,1500,1500,1500,1500
1748736271.6406972,-0.01,0.0,0.06,-0.001090830782496456,-0.00545415391248228,0.001090830782496456,0.004615273949758224,0.7220180513781771,1.6001434732455961,0,0,0,0,0,0,1500,1500,1500,1500,1500,1500
1748736271.7356865,-0.02,-0.02,0.02,-0.002181661564992912,-0.001090830782496456,0.0,0.004615273949758224,0.7220180513781771,1.6001434732455961,0,0,0,0,0,0,1500,1500,1500,1500,1500,1500
1748736271.8242166,-0.02,-0.02,0.02,-0.002181661564992912,-0.001090830782496456,0.0,0.004615273949758224,0.7220180513781771,1.6001434732455961,0,0,0,0,0,0,1500,1500,1500,1500,1500,1500
1748736271.922774,-0.02,-0.01,0.0,-0.003272492347489368,0.002181661564992912,0.001090830782496456,0.004615273949758224,0.7220180513781771,1.6001434732455961,0,0,0,0,0,0,1500,1500,1500,1500,1500,1500
1748736272.0065653,-0.02,-0.01,0.0,-0.003272492347489368,0.002181661564992912,0.001090830782496456,0.004615273949758224,0.7220180513781771,1.6001434732455961,0,0,0,0,0,0,1500,1500,1500,1500,1500,1500
1748736272.1073585,0.0,0.01,0.01,-0.002181661564992912,0.0,0.0,0.004615273949758224,0.7220180513781771,1.6001434732455961,0,0,0,0,0,0,1500,1500,1500,1500,1500,1500
1748736272.2062407,0.0,0.01,0.01,-0.002181661564992912,0.0,0.0,0.004615273949758224,0.7220180513781771,1.6001434732455961,0,0,0,0,0,0,1500,1500,1500,1500,1500,1500
1748736272.2932613,0.0,0.01,0.01,-0.001090830782496456,0.0,0.0,0.004615273949758224,0.7220180513781771,1.6001434732455961,0,0,0,0,0,0,1500,1500,1500,1500,1500,1500
1748736272.39179,-0.02,-0.03,0.04,0.0,0.006544984694978736,0.0,0.004615273949758224,0.7220180513781771,1.6001434732455961,0,0,0,0,0,0,1500,1500,1500,1500,1500,1500
1748736272.4939637,-0.02,-0.03,0.04,0.0,0.006544984694978736,0.0,0.004615273949758224,0.7220180513781771,1.6001434732455961,0,0,0,0,0,0,1500,1500,1500,1500,1500,1500
1748736272.5922132,0.0,-0.02,0.06,0.0,0.0,-0.002181661564992912,0.004615273949758224,0.7220180513781771,1.6001434732455961,0,0,0,0,0,0,1500,1500,1500,1500,1500,1500
1748736272.6858833,0.0,0.01,0.01,-0.003272492347489368,-0.003272492347489368,0.001090830782496456,0.004615273949758224,0.7220180513781771,1.6001434732455961,0,0,0,0,0,0,1500,1500,1500,1500,1500,1500
1748736272.7717164,0.0,0.01,0.01,-0.003272492347489368,-0.003272492347489368,0.001090830782496456,0.004615273949758224,0.7220180513781771,1.6001434732455961,0,0,0,0,0,0,1500,1500,1500,1500,1500,1500
1748736272.8761625,0.0,0.01,0.01,0.0,0.0,0.0,0.004615273949758224,0.7220180513781771,1.6001434732455961,0,0,0,0,0,0,1500,1500,1500,1500,1500,1500
1748736272.973452,0.0,0.01,0.01,0.0,0.0,0.0,0.004615273949758224,0.7220180513781771,1.6001434732455961,0,0,0,0,0,0,1500,1500,1500,1500,1500,1500
1748736273.071343,0.0,0.01,0.0,-0.001090830782496456,-0.001090830782496456,-0.001090830782496456,0.004615273949758224,0.7220180513781771,1.6001434732455961,0,0,0,0,0,0,1500,1500,1500,1500,1500,1500
1748736273.170346,0.0,0.01,0.02,-0.002181661564992912,0.0,0.0,0.004615273949758224,0.7220180513781771,1.6001434732455961,0,0,0,0,0,0,1500,1500,1500,1500,1500,1500
1748736273.257433,0.0,0.01,0.02,-0.002181661564992912,0.0,0.0,0.004615273949758224,0.7220180513781771,1.6001434732455961,0,0,0,0,0,0,1500,1500,1500,1500,1500,1500
1748736273.3574538,-0.02,0.0,0.01,-0.001090830782496456,0.002181661564992912,0.001090830782496456,0.004615273949758224,0.7220180513781771,1.6001434732455961,0,0,0,0,0,0,1500,1500,1500,1500,1500,1500
1748736273.4556513,-0.02,0.0,0.01,-0.001090830782496456,0.002181661564992912,0.001090830782496456,0.004615273949758224,0.7220180513781771,1.6001434732455961,0,0,0,0,0,0,1500,1500,1500,1500,1500,1500
1748736273.5444407,0.0,0.01,0.03,0.0,-0.001090830782496456,-0.001090830782496456,0.004615273949758224,0.7220180513781771,1.6001434732455961,0,0,0,0,0,0,1500,1500,1500,1500,1500,1500
1748736273.6333804,0.01,0.01,0.03,0.0,0.001090830782496456,-0.001090830782496456,0.004615273949758224,0.7220180513781771,1.6001434732455961,0,0,0,0,0,0,1500,1500,1500,1500,1500,1500
1748736273.7391732,0.01,0.01,0.03,0.0,0.001090830782496456,-0.001090830782496456,0.004615273949758224,0.7220180513781771,1.6001434732455961,0,0,0,0,0,0,1500,1500,1500,1500,1500,1500
1748736273.8402917,-0.01,0.02,0.0,0.0,0.003272492347489368,-0.001090830782496456,0.004615273949758224,0.7220180513781771,1.6001434732455961,0,0,0,0,0,0,1500,1500,1500,1500,1500,1500
1748736273.9395661,-0.01,0.02,0.0,0.0,0.003272492347489368,-0.001090830782496456,0.004615273949758224,0.7220180513781771,1.6001434732455961,0,0,0,0,0,0,1500,1500,1500,1500,1500,1500
1748736274.021748,0.0,-0.02,0.02,-0.001090830782496456,-0.004363323129985824,-0.001090830782496456,0.004615273949758224,0.7220180513781771,1.6001434732455961,0,0,0,0,0,0,1500,1500,1500,1500,1500,1500
1748736274.1250641,-0.02,-0.03,0.03,-0.001090830782496456,0.002181661564992912,0.0,0.004615273949758224,0.7220180513781771,1.6001434732455961,0,0,0,0,0,0,1500,1500,1500,1500,1500,1500
1748736274.2215269,-0.02,-0.03,0.03,-0.001090830782496456,0.002181661564992912,0.0,0.004615273949758224,0.7220180513781771,1.6001434732455961,0,0,0,0,0,0,1500,1500,1500,1500,1500,1500
1748736274.304476,0.0,0.03,0.0,0.001090830782496456,-0.002181661564992912,-0.002181661564992912,0.004615273949758224,0.7220180513781771,1.6001434732455961,0,0,0,0,0,0,1500,1500,1500,1500,1500,1500
1748736274.405262,0.0,0.03,0.0,0.001090830782496456,-0.002181661564992912,-0.002181661564992912,0.004615273949758224,0.7220180513781771,1.6001434732455961,0,0,0,0,0,0,1500,1500,1500,1500,1500,1500
1748736274.4937177,0.0,0.03,0.01,0.002181661564992912,0.0,0.0,0.004615273949758224,0.7220180513781771,1.6001434732455961,0,0,0,0,0,0,1500,1500,1500,1500,1500,1500
1748736274.5850708,0.0,-0.01,0.01,0.0,-0.001090830782496456,0.001090830782496456,0.004615273949758224,0.7220180513781771,1.6001434732455961,0,0,0,0,0,0,1500,1500,1500,1500,1500,1500
1748736274.689571,0.0,-0.01,0.01,0.0,-0.001090830782496456,0.001090830782496456,0.004615273949758224,0.7220180513781771,1.6001434732455961,0,0,0,0,0,0,1500,1500,1500,1500,1500,1500
1748736274.7725892,0.0,-0.03,0.02,0.001090830782496456,0.002181661564992912,0.0,0.004615273949758224,0.7220180513781771,1.6001434732455961,0,0,0,0,0,0,1500,1500,1500,1500,1500,1500
1748736274.8716383,0.0,-0.03,0.02,0.001090830782496456,0.002181661564992912,0.0,0.004615273949758224,0.7220180513781771,1.6001434732455961,0,0,0,0,0,0,1500,1500,1500,1500,1500,1500
1748736274.9716225,-0.01,-0.02,0.02,0.001090830782496456,-0.002181661564992912,0.001090830782496456,0.004615273949758224,0.7220180513781771,1.6001434732455961,0,0,0,0,0,0,1500,1500,1500,1500,1500,1500
1748736275.0584798,-0.01,-0.02,0.02,0.001090830782496456,-0.002181661564992912,0.001090830782496456,0.004615273949758224,0.7220180513781771,1.6001434732455961,0,0,0,0,0,0,1500,1500,1500,1500,1500,1500
1748736275.1563568,-0.02,-0.01,0.03,0.001090830782496456,-0.003272492347489368,0.0,0.004615273949758224,0.7220180513781771,1.6001434732455961,0,0,0,0,0,0,1500,1500,1500,1500,1500,1500
1748736275.2489524,0.0,0.03,-0.01,0.002181661564992912,-0.001090830782496456,0.001090830782496456,0.004615273949758224,0.7220180513781771,1.6001434732455961,0,0,0,0,0,0,1500,1500,1500,1500,1500,1500
1748736275.3404675,0.0,0.03,-0.01,0.002181661564992912,-0.001090830782496456,0.001090830782496456,0.004615273949758224,0.7220180513781771,1.6001434732455961,0,0,0,0,0,0,1500,1500,1500,1500,1500,1500
1748736275.4400136,-0.01,0.0,0.01,-0.002181661564992912,0.004363323129985824,-0.001090830782496456,0.004615273949758224,0.7220180513781771,1.6001434732455961,0,0,0,0,0,0,1500,1500,1500,1500,1500,1500
1748736275.521914,-0.01,0.0,0.01,-0.002181661564992912,0.004363323129985824,-0.001090830782496456,0.004615273949758224,0.7220180513781771,1.6001434732455961,0,0,0,0,0,0,1500,1500,1500,1500,1500,1500
1748736275.6213672,-0.02,-0.01,0.02,0.0,-0.001090830782496456,0.001090830782496456,0.004615273949758224,0.7220180513781771,1.6001434732455961,0,0,0,0,0,0,1500,1500,1500,1500,1500,1500
1748736275.7223625,0.0,-0.01,0.01,-0.002181661564992912,0.002181661564992912,0.001090830782496456,0.004615273949758224,0.7220180513781771,1.6001434732455961,0,0,0,0,0,0,1500,1500,1500,1500,1500,1500
1748736275.804981,0.0,-0.01,0.01,-0.002181661564992912,0.002181661564992912,0.001090830782496456,0.004615273949758224,0.7220180513781771,1.6001434732455961,0,0,0,0,0,0,1500,1500,1500,1500,1500,1500
1748736275.9053319,0.0,0.01,0.01,0.003272492347489368,0.004363323129985824,0.0,0.004615273949758224,0.7220180513781771,1.6001434732455961,0,0,0,0,0,0,1500,1500,1500,1500,1500,1500
1748736276.0054784,0.0,0.01,0.01,0.003272492347489368,0.004363323129985824,0.0,0.004615273949758224,0.7220180513781771,1.6001434732455961,0,0,0,0,0,0,1500,1500,1500,1500,1500,1500
1748736276.1070216,-0.01,0.03,0.03,-0.003272492347489368,0.0,0.002181661564992912,0.004615273949758224,0.7220180513781771,1.6001434732455961,0,0,0,0,0,0,1500,1500,1500,1500,1500,1500
1748736276.2053056,0.0,-0.02,0.05,0.0,-0.001090830782496456,0.0,0.004615273949758224,0.7220180513781771,1.6001434732455961,0,0,0,0,0,0,1500,1500,1500,1500,1500,1500
1748736276.2879086,0.0,-0.02,0.05,0.0,-0.001090830782496456,0.0,0.004615273949758224,0.7220180513781771,1.6001434732455961,0,0,0,0,0,0,1500,1500,1500,1500,1500,1500
1748736276.388294,-0.01,-0.14,0.17,-0.014180800172453928,0.004363323129985824,-0.002181661564992912,0.004615273949758224,0.7220180513781771,1.6001434732455961,0,0,0,0,0,0,1500,1500,1500,1500,1500,1500
1748736276.4862173,0.11,-0.37,0.02,0.004363323129985824,-0.004363323129985824,-0.014180800172453928,0.0038603549442625716,0.7219208520631903,1.5998203043082952,0,0,0,0,0,0,1500,1500,1500,1500,1500,1500
1748736276.571691,0.11,-0.37,0.02,0.004363323129985824,-0.004363323129985824,-0.014180800172453928,0.0038603549442625716,0.7219208520631903,1.5998203043082952,0,0,0,0,0,0,1500,1500,1500,1500,1500,1500
1748736276.671822,1.42,0.06,-0.05,0.00545415391248228,-0.030543261909900768,-0.002181661564992912,0.004343671849787998,0.7213822817110844,1.5992302858661926,0,0,0,0,0,0,1500,1500,1500,1500,1500,1500
1748736276.7562983,1.42,0.06,-0.05,0.00545415391248228,-0.030543261909900768,-0.002181661564992912,0.004343671849787998,0.7213822817110844,1.5992302858661926,0,0,0,0,0,0,1500,1500,1500,1500,1500,1500
1748736276.8567848,-0.38,0.37,-0.04,0.013089969389957472,0.002181661564992912,0.002181661564992912,0.003296553107656391,0.7214019577744235,1.599401993027365,0,0,0,0,0,0,1500,1500,1500,1500,1500,1500
1748736276.956119,-0.38,0.37,-0.04,0.013089969389957472,0.002181661564992912,0.002181661564992912,0.003296553107656391,0.7214019577744235,1.599401993027365,0,0,0,0,0,0,1500,1500,1500,1500,1500,1500
1748736277.0383596,-0.47000000000000003,0.5700000000000001,0.16,-0.10253809355466686,-0.019634954084936207,0.019634954084936207,-0.0007274039273819896,0.7208793627847823,1.599927768706807,0,0,0,0,0,0,1500,1500,1500,1500,1500,1500
1748736277.138082,-0.32,-1.35,2.15,-2.059488517353309,-0.37306412761378793,-0.978475211899321,-0.21509794792369832,0.6835550656698071,1.5400282952383324,0,0,0,0,0,0,1500,1500,1500,1500,1500,1500
1748736277.2393513,-0.32,-1.35,2.15,-2.059488517353309,-0.37306412761378793,-0.978475211899321,-0.21509794792369832,0.6835550656698071,1.5400282952383324,0,0,0,0,0,0,1500,1500,1500,1500,1500,1500
1748736277.3388553,-0.09,-0.07,1.9000000000000001,-0.667588438887831,0.729765793490129,-0.9130253649495337,-0.48051484922950327,0.6625644870041506,1.3787619374343432,0,0,0,0,0,0,1500,1500,1500,1500,1500,1500
1748736277.4295022,0.55,-1.4000000000000001,1.25,0.6261368691529657,0.6850417314077744,-0.755945732270044,-0.6187438647085781,0.6997542096017211,1.1514420631770756,0,0,0,0,0,0,1500,1500,1500,1500,1500,1500
1748736277.5219061,0.55,-1.4000000000000001,1.25,0.6261368691529657,0.6850417314077744,-0.755945732270044,-0.6187438647085781,0.6997542096017211,1.1514420631770756,0,0,0,0,0,0,1500,1500,1500,1500,1500,1500
1748736277.621716,0.7000000000000001,-2.56,0.25,2.122756702738103,0.11017390903214205,-0.4603305902135044,-0.5187364366968621,0.6967885462448913,1.011540309003397,0,0,0,0,0,0,1500,1500,1500,1500,1500,1500
1748736277.7210767,0.7000000000000001,-2.56,0.25,2.122756702738103,0.11017390903214205,-0.4603305902135044,-0.5187364366968621,0.6967885462448913,1.011540309003397,0,0,0,0,0,0,1500,1500,1500,1500,1500,1500
1748736277.8063586,1.37,-2.59,-0.9400000000000001,2.3976460599272102,-0.038179077387375956,-0.6784967467127956,-0.21070895574125945,0.6707700312807016,0.9147463846600343,0,0,0,0,0,0,1500,1500,1500,1500,1500,1500
1748736277.9068673,1.28,-3.59,-1.06,1.7911441448591807,-0.04908738521234052,-1.4824390334126836,-0.013184976781462894,0.6490092562038484,0.7114086622727253,0,0,0,0,0,0,1500,1500,1500,1500,1500,1500
1748736278.006471,1.28,-3.59,-1.06,1.7911441448591807,-0.04908738521234052,-1.4824390334126836,-0.013184976781462894,0.6490092562038484,0.7114086622727253,0,0,0,0,0,0,1500,1500,1500,1500,1500,1500
1748736278.1062143,1.1300000000000001,-3.31,-1.98,2.1631174416904724,-0.09381144729469522,-2.3736477827122884,0.060297919650861814,0.6498857180281843,0.32613736621349976,0,0,0,0,0,0,1500,1500,1500,1500,1500,1500
1748736278.2068915,1.1300000000000001,-3.31,-1.98,2.1631174416904724,-0.09381144729469522,-2.3736477827122884,0.060297919650861814,0.6498857180281843,0.32613736621349976,0,0,0,0,0,0,1500,1500,1500,1500,1500,1500
1748736278.28863,0.55,-4.03,-1.43,1.8620481457214504,0.06872233929727672,-2.72707695624114,0.05667440896206331,0.6735423252369469,-0.1853240796001015,0,0,0,0,0,0,1500,1500,1500,1500,1500,1500
1748736278.38842,-0.08,-2.2800000000000002,-0.47000000000000003,0.743946593662583,0.28907015736156083,-2.7663468644110125,-0.0888772317454376,0.6968734981136023,-0.7081507919665154,0,0,0,0,0,0,1500,1500,1500,1500,1500,1500
1748736278.4884229,-0.08,-2.2800000000000002,-0.47000000000000003,0.743946593662583,0.28907015736156083,-2.7663468644110125,-0.0888772317454376,0.6968734981136023,-0.7081507919665154,0,0,0,0,0,0,1500,1500,1500,1500,1500,1500
1748736278.588062,-1.42,-2.33,-0.05,0.4559672670835186,0.6086835766330224,-2.3965552291447136,-0.38021806863264396,0.6776528427825477,-1.2453859066007165,0,0,0,0,0,0,1500,1500,1500,1500,1500,1500
1748736278.6837153,-1.74,-0.59,-0.87,0.8006697943523987,0.28579766501407144,-1.526072264712542,-0.5003652119458789,0.6112732549302444,-1.6129780091787391,0,0,0,0,0,0,1500,1500,1500,1500,1500,1500
1748736278.7716367,-1.74,-0.59,-0.87,0.8006697943523987,0.28579766501407144,-1.526072264712542,-0.5003652119458789,0.6112732549302444,-1.6129780091787391,0,0,0,0,0,0,1500,1500,1500,1500,1500,1500
1748736278.8718934,-1.61,-0.85,-0.55,0.34579335805137656,0.21925698728178766,-0.2999784651865254,-0.5237753688827973,0.582400356230792,-1.776566546265858,0,0,0,0,0,0,1500,1500,1500,1500,1500,1500
1748736278.9721162,-1.61,-0.85,-0.55,0.34579335805137656,0.21925698728178766,-0.2999784651865254,-0.5237753688827973,0.582400356230792,-1.776566546265858,0,0,0,0,0,0,1500,1500,1500,1500,1500,1500
1748736279.0557568,-1.06,0.0,0.01,-0.18980455615438332,0.2617993877991494,0.2181661564992912,-0.5139276084155676,0.6213085839429562,-1.799138152431916,0,0,0,0,0,0,1500,1500,1500,1500,1500,1500
1748736279.1555681,-1.06,0.0,0.01,-0.18980455615438332,0.2617993877991494,0.2181661564992912,-0.5139276084155676,0.6213085839429562,-1.799138152431916,0,0,0,0,0,0,1500,1500,1500,1500,1500,1500
1748736279.255481,0.21,-1.16,-0.03,-0.4657847441259867,-0.18544123302439752,0.37306412761378793,-0.5630321729466603,0.6491944014306672,-1.7345106763837894,0,0,0,0,0,0,1500,1500,1500,1500,1500,1500
1748736279.3555956,0.31,0.6900000000000001,0.46,-0.4559672670835186,-0.25634523388666713,0.7428557628800865,-0.5164293175177326,0.6713958658697596,-1.5714395084553063,0,0,0,0,0,0,1500,1500,1500,1500,1500,1500
1748736279.4563897,0.31,0.6900000000000001,0.46,-0.4559672670835186,-0.25634523388666713,0.7428557628800865,-0.5164293175177326,0.6713958658697596,-1.5714395084553063,0,0,0,0,0,0,1500,1500,1500,1500,1500,1500
1748736279.5391932,0.8,-0.06,0.65,-0.30870511144649704,-0.30543261909900765,0.7395832705325971,-0.5026017382827485,0.6881666413969749,-1.397419489609117,0,0,0,0,0,0,1500,1500,1500,1500,1500,1500
1748736279.6374733,0.8,-0.06,0.65,-0.30870511144649704,-0.30543261909900765,0.7395832705325971,-0.5026017382827485,0.6881666413969749,-1.397419489609117,0,0,0,0,0,0,1500,1500,1500,1500,1500,1500
1748736279.7387989,0.37,-0.59,0.16,-0.5890486225480862,-0.36760997370130566,0.32288591161895097,-0.5442258834887812,0.6709179305263754,-1.2799375365097605,0,0,0,0,0,0,1500,1500,1500,1500,1500,1500
1748736279.8391094,-0.32,-0.64,0.02,-0.5923211148955756,-0.667588438887831,0.17780541754692233,-0.553880716118762,0.6364244754994215,-1.1819198988110529,0,0,0,0,0,0,1500,1500,1500,1500,1500,1500
1748736279.9395761,-0.32,-0.64,0.02,-0.5923211148955756,-0.667588438887831,0.17780541754692233,-0.553880716118762,0.6364244754994215,-1.1819198988110529,0,0,0,0,0,0,1500,1500,1500,1500,1500,1500
1748736280.022489,-0.27,1.24,-0.37,-0.8475755179997463,-1.076649982324002,0.14180800172453928,-0.5620349265094967,0.5379724757427891,-1.0616457838521998,0,0,0,0,0,0,1500,1500,1500,1500,1500,1500
1748736280.1223733,-0.27,1.24,-0.37,-0.8475755179997463,-1.076649982324002,0.14180800172453928,-0.5620349265094967,0.5379724757427891,-1.0616457838521998,0,0,0,0,0,0,1500,1500,1500,1500,1500,1500
1748736280.2217407,0.44,0.0,-0.9500000000000001,-0.7864889941799448,-1.0973757671914346,0.3916082509162277,-0.6345999162133785,0.42100815593885027,-0.920155580333984,0,0,0,0,0,0,1500,1500,1500,1500,1500,1500
1748736280.3224676,0.45,-2.18,0.32,0.28361600344907856,-0.7952156404399164,1.1639164449237185,-0.5746241537101235,0.37543269800003753,-0.7144509048086989,0,0,0,0,0,0,1500,1500,1500,1500,1500,1500
1748736280.4218175,0.45,-2.18,0.32,0.28361600344907856,-0.7952156404399164,1.1639164449237185,-0.5746241537101235,0.37543269800003753,-0.7144509048086989,0,0,0,0,0,0,1500,1500,1500,1500,1500,1500
1748736280.505015,0.72,-0.5,0.64,-0.35015668118136234,-0.26725354171163174,1.1704614296186973,-0.47268095357384443,0.4009421575122828,-0.5053976869089215,0,0,0,0,0,0,1500,1500,1500,1500,1500,1500
1748736280.6064663,0.35000000000000003,-2.0100000000000002,-0.71,-0.5105088062083414,-0.41015237421866746,0.7003133623627247,-0.48795908512981917,0.42990988683683246,-0.3396322660574494,0,0,0,0,0,0,1500,1500,1500,1500,1500,1500
1748736280.7063365,0.35000000000000003,-2.0100000000000002,-0.71,-0.5105088062083414,-0.41015237421866746,0.7003133623627247,-0.48795908512981917,0.42990988683683246,-0.3396322660574494,0,0,0,0,0,0,1500,1500,1500,1500,1500,1500
1748736280.7889109,0.91,-0.79,-0.66,-0.6152285613280012,-0.6305001922829515,0.36979163526629855,-0.5328627439119217,0.3891116087894636,-0.22987288047193533,0,0,0,0,0,0,1500,1500,1500,1500,1500,1500
1748736280.888788,0.91,-0.79,-0.66,-0.6152285613280012,-0.6305001922829515,0.36979163526629855,-0.5328627439119217,0.3891116087894636,-0.22987288047193533,0,0,0,0,0,0,1500,1500,1500,1500,1500,1500
1748736280.9877064,0.47000000000000003,0.31,-0.23,-0.46469391334349025,-0.5683228376806536,0.4308781590861001,-0.5694365550779381,0.34537217857888064,-0.12096321479961467,0,0,0,0,0,0,1500,1500,1500,1500,1500,1500
1748736281.0712354,0.49,0.46,-1.44,-0.16253378659197193,-0.5508695451607103,0.49632800603588745,-0.5872289080582821,0.3114181198026119,-0.00765848667341523,0,0,0,0,0,0,1500,1500,1500,1500,1500,1500
1748736281.172285,0.49,0.46,-1.44,-0.16253378659197193,-0.5508695451607103,0.49632800603588745,-0.5872289080582821,0.3114181198026119,-0.00765848667341523,0,0,0,0,0,0,1500,1500,1500,1500,1500,1500
1748736281.2712207,0.9,0.72,-1.69,0.13744467859455345,-0.44833145160604343,0.6086835766330224,-0.5453005193127788,0.29011759509651336,0.1124233139623354,0,0,0,0,0,0,1500,1500,1500,1500,1500,1500
