time,ay,ax,az,gy,gx,gz,roll,pitch,yaw,cmd_fx,cmd_fy,cmd_fz,cmd_tx,cmd_ty,cmd_tz,pwm_1,pwm_2,pwm_3,pwm_4,pwm_5,pwm_6
1747554364.4888287,0.0,0.0,0.0,0.0,0.0,0.0,0.0,0.0,0.0,0,0,0,0,0,0,1500,1500,1500,1500,1500,1500
1747554364.5705898,-0.05,-0.27,0.16,0.002181661564992912,-0.001090830782496456,-0.001090830782496456,2.086778766162932,-0.16315882195334203,-0.2774883615265187,0,0,0,0,0,0,1500,1500,1500,1500,1500,1500
1747554364.672077,-0.05,-0.27,0.16,0.002181661564992912,-0.001090830782496456,-0.001090830782496456,2.086778766162932,-0.16315882195334203,-0.2774883615265187,0,0,0,0,0,0,1500,1500,1500,1500,1500,1500
1747554364.7719123,-0.05,-0.22,0.06,0.004363323129985824,0.003272492347489368,-0.002181661564992912,2.0867690164626684,-0.1630540017795294,-0.2775486052449183,0,0,0,0,0,0,1500,1500,1500,1500,1500,1500
1747554364.8548968,-0.05,-0.22,0.06,0.004363323129985824,0.003272492347489368,-0.002181661564992912,2.0867690164626684,-0.1630540017795294,-0.2775486052449183,0,0,0,0,0,0,1500,1500,1500,1500,1500,1500
1747554364.9549167,-0.02,-0.26,0.19,-0.001090830782496456,-0.003272492347489368,0.002181661564992912,2.0867690164626684,-0.1630540017795294,-0.2775486052449183,0,0,0,0,0,0,1500,1500,1500,1500,1500,1500
1747554365.0551767,-0.04,-0.01,-0.04,0.004363323129985824,-0.003272492347489368,0.0,2.0867690164626684,-0.1630540017795294,-0.2775486052449183,0,0,0,0,0,0,1500,1500,1500,1500,1500,1500
1747554365.1552598,-0.04,-0.01,-0.04,0.004363323129985824,-0.003272492347489368,0.0,2.0867690164626684,-0.1630540017795294,-0.2775486052449183,0,0,0,0,0,0,1500,1500,1500,1500,1500,1500
1747554365.2554553,0.01,-0.01,0.0,0.004363323129985824,0.003272492347489368,-0.001090830782496456,-1.7608287580366293,0.49676443975116785,-0.27873797008042517,0,0,0,0,0,0,1500,1500,1500,1500,1500,1500
1747554365.3379776,0.01,-0.01,0.0,0.004363323129985824,0.003272492347489368,-0.001090830782496456,-1.7608287580366293,0.49676443975116785,-0.27873797008042517,0,0,0,0,0,0,1500,1500,1500,1500,1500,1500
1747554365.4387941,-0.02,-0.02,0.01,0.00545415391248228,0.001090830782496456,-0.002181661564992912,2.0867690164626684,-0.1630540017795294,-0.2775486052449183,0,0,0,0,0,0,1500,1500,1500,1500,1500,1500
1747554365.5385242,0.0,-0.02,0.0,-0.001090830782496456,0.0,0.0,2.0868034171398167,-0.16311666563235333,-0.27766024484532614,0,0,0,0,0,0,1500,1500,1500,1500,1500,1500
1747554365.6384177,0.0,-0.02,0.0,-0.001090830782496456,0.0,0.0,2.0868034171398167,-0.16311666563235333,-0.27766024484532614,0,0,0,0,0,0,1500,1500,1500,1500,1500,1500
1747554365.7384098,0.0,-0.01,0.01,-0.004363323129985824,0.0,0.002181661564992912,2.0868034171398167,-0.16311666563235333,-0.27766024484532614,0,0,0,0,0,0,1500,1500,1500,1500,1500,1500
1747554365.8215513,0.0,-0.01,0.01,-0.004363323129985824,0.0,0.002181661564992912,2.0868034171398167,-0.16311666563235333,-0.27766024484532614,0,0,0,0,0,0,1500,1500,1500,1500,1500,1500
1747554365.9222753,-0.03,-0.01,-0.06,-0.004363323129985824,0.004363323129985824,0.0,2.0868034171398167,-0.16311666563235333,-0.27766024484532614,0,0,0,0,0,0,1500,1500,1500,1500,1500,1500
1747554366.0238087,0.03,0.0,0.01,0.0,-0.002181661564992912,0.001090830782496456,2.0868034171398167,-0.16311666563235333,-0.27766024484532614,0,0,0,0,0,0,1500,1500,1500,1500,1500,1500
1747554366.123642,0.03,0.0,0.01,0.0,-0.002181661564992912,0.001090830782496456,2.0868034171398167,-0.16311666563235333,-0.27766024484532614,0,0,0,0,0,0,1500,1500,1500,1500,1500,1500
1747554366.22532,-0.03,-0.02,-0.02,-0.001090830782496456,0.006544984694978736,0.003272492347489368,2.0868034171398167,-0.16311666563235333,-0.27766024484532614,0,0,0,0,0,0,1500,1500,1500,1500,1500,1500
1747554366.3077588,0.01,0.01,0.0,0.004363323129985824,0.00545415391248228,0.002181661564992912,2.0868034171398167,-0.16311666563235333,-0.27766024484532614,0,0,0,0,0,0,1500,1500,1500,1500,1500,1500
1747554366.4071307,0.01,0.01,0.0,0.004363323129985824,0.00545415391248228,0.002181661564992912,2.0868034171398167,-0.16311666563235333,-0.27766024484532614,0,0,0,0,0,0,1500,1500,1500,1500,1500,1500
1747554366.5073705,-0.03,-0.03,0.02,0.001090830782496456,0.002181661564992912,0.001090830782496456,2.0868034171398167,-0.16311666563235333,-0.27766024484532614,0,0,0,0,0,0,1500,1500,1500,1500,1500,1500
1747554366.607116,-0.03,-0.03,0.02,0.001090830782496456,0.002181661564992912,0.001090830782496456,2.0868034171398167,-0.16311666563235333,-0.27766024484532614,0,0,0,0,0,0,1500,1500,1500,1500,1500,1500
1747554366.7069726,-0.01,-0.02,-0.05,-0.002181661564992912,-0.003272492347489368,-0.002181661564992912,2.0868034171398167,-0.16311666563235333,-0.27766024484532614,0,0,0,0,0,0,1500,1500,1500,1500,1500,1500
1747554366.789777,0.01,-0.02,0.04,-0.001090830782496456,0.0,-0.00545415391248228,2.0868034171398167,-0.16311666563235333,-0.27766024484532614,0,0,0,0,0,0,1500,1500,1500,1500,1500,1500
1747554366.8900063,0.01,-0.02,0.04,-0.001090830782496456,0.0,-0.00545415391248228,2.0868034171398167,-0.16311666563235333,-0.27766024484532614,0,0,0,0,0,0,1500,1500,1500,1500,1500,1500
1747554366.9902864,-0.02,-0.03,-0.01,-0.003272492347489368,0.0,-0.004363323129985824,2.0868034171398167,-0.16311666563235333,-0.27766024484532614,0,0,0,0,0,0,1500,1500,1500,1500,1500,1500
1747554367.0741043,-0.02,-0.03,-0.01,-0.003272492347489368,0.0,-0.004363323129985824,2.0868034171398167,-0.16311666563235333,-0.27766024484532614,0,0,0,0,0,0,1500,1500,1500,1500,1500,1500
1747554367.1740904,0.01,0.02,0.01,0.001090830782496456,0.0,0.002181661564992912,2.086793663647779,-0.1630118461856364,-0.27772048925870746,0,0,0,0,0,0,1500,1500,1500,1500,1500,1500
1747554367.2733831,-0.01,-0.02,-0.03,0.0,0.0,-0.001090830782496456,2.086793663647779,-0.1630118461856364,-0.27772048925870746,0,0,0,0,0,0,1500,1500,1500,1500,1500,1500
1747554367.3738663,-0.01,-0.02,-0.03,0.0,0.0,-0.001090830782496456,2.086793663647779,-0.1630118461856364,-0.27772048925870746,0,0,0,0,0,0,1500,1500,1500,1500,1500,1500
1747554367.473823,0.02,0.0,-0.01,0.0,0.002181661564992912,0.0,2.086793663647779,-0.1630118461856364,-0.27772048925870746,0,0,0,0,0,0,1500,1500,1500,1500,1500,1500
1747554367.5582795,0.02,0.0,-0.01,0.0,0.002181661564992912,0.0,2.086793663647779,-0.1630118461856364,-0.27772048925870746,0,0,0,0,0,0,1500,1500,1500,1500,1500,1500
1747554367.6546333,0.0,-0.02,0.0,0.002181661564992912,0.004363323129985824,0.003272492347489368,2.086793663647779,-0.1630118461856364,-0.27772048925870746,0,0,0,0,0,0,1500,1500,1500,1500,1500,1500
1747554367.7555254,0.0,-0.01,-0.06,0.00545415391248228,-0.001090830782496456,0.003272492347489368,2.086793663647779,-0.1630118461856364,-0.27772048925870746,0,0,0,0,0,0,1500,1500,1500,1500,1500,1500
1747554367.859536,0.0,-0.01,-0.06,0.00545415391248228,-0.001090830782496456,0.003272492347489368,2.086793663647779,-0.1630118461856364,-0.27772048925870746,0,0,0,0,0,0,1500,1500,1500,1500,1500,1500
1747554367.95617,0.03,-0.03,0.04,0.0,-0.002181661564992912,0.002181661564992912,2.086793663647779,-0.1630118461856364,-0.27772048925870746,0,0,0,0,0,0,1500,1500,1500,1500,1500,1500
1747554368.0508454,-0.01,-0.03,-0.05,0.003272492347489368,0.0,0.0,2.086793663647779,-0.1630118461856364,-0.27772048925870746,0,0,0,0,0,0,1500,1500,1500,1500,1500,1500
1747554368.1390793,-0.01,-0.03,-0.05,0.003272492347489368,0.0,0.0,2.086793663647779,-0.1630118461856364,-0.27772048925870746,0,0,0,0,0,0,1500,1500,1500,1500,1500,1500
1747554368.239103,0.04,-0.01,0.06,0.002181661564992912,-0.002181661564992912,-0.001090830782496456,2.086793663647779,-0.1630118461856364,-0.27772048925870746,0,0,0,0,0,0,1500,1500,1500,1500,1500,1500
1747554368.3209846,0.04,-0.01,0.06,0.002181661564992912,-0.002181661564992912,-0.001090830782496456,2.086793663647779,-0.1630118461856364,-0.27772048925870746,0,0,0,0,0,0,1500,1500,1500,1500,1500,1500
1747554368.421038,-0.01,-0.04,0.0,0.002181661564992912,-0.002181661564992912,0.0,2.086793663647779,-0.1630118461856364,-0.27772048925870746,0,0,0,0,0,0,1500,1500,1500,1500,1500,1500
1747554368.5208533,0.04,0.0,-0.01,0.002181661564992912,0.0,-0.002181661564992912,2.086793663647779,-0.1630118461856364,-0.27772048925870746,0,0,0,0,0,0,1500,1500,1500,1500,1500,1500
1747554368.6058185,0.04,0.0,-0.01,0.002181661564992912,0.0,-0.002181661564992912,2.086793663647779,-0.1630118461856364,-0.27772048925870746,0,0,0,0,0,0,1500,1500,1500,1500,1500,1500
1747554368.7056186,0.02,0.0,0.04,0.0,0.006544984694978736,0.0,2.086793663647779,-0.1630118461856364,-0.27772048925870746,0,0,0,0,0,0,1500,1500,1500,1500,1500,1500
1747554368.7911785,0.02,0.0,0.04,0.0,0.006544984694978736,0.0,2.086793663647779,-0.1630118461856364,-0.27772048925870746,0,0,0,0,0,0,1500,1500,1500,1500,1500,1500
1747554368.8908095,-0.01,0.0,-0.04,0.001090830782496456,0.0,0.0,2.086793663647779,-0.1630118461856364,-0.27772048925870746,0,0,0,0,0,0,1500,1500,1500,1500,1500,1500
1747554368.9912505,-0.01,0.0,-0.04,0.001090830782496456,0.0,0.0,2.086793663647779,-0.1630118461856364,-0.27772048925870746,0,0,0,0,0,0,1500,1500,1500,1500,1500,1500
1747554369.0718293,0.02,-0.03,0.0,-0.002181661564992912,-0.002181661564992912,0.001090830782496456,2.086793663647779,-0.1630118461856364,-0.27772048925870746,0,0,0,0,0,0,1500,1500,1500,1500,1500,1500
1747554369.1716573,-0.02,-0.02,-0.03,0.003272492347489368,0.006544984694978736,0.002181661564992912,2.086793663647779,-0.1630118461856364,-0.27772048925870746,0,0,0,0,0,0,1500,1500,1500,1500,1500,1500
1747554369.272608,-0.02,-0.02,-0.03,0.003272492347489368,0.006544984694978736,0.002181661564992912,2.086793663647779,-0.1630118461856364,-0.27772048925870746,0,0,0,0,0,0,1500,1500,1500,1500,1500,1500
1747554369.3546944,0.04,-0.02,0.05,0.0,0.001090830782496456,0.0,2.086793663647779,-0.1630118461856364,-0.27772048925870746,0,0,0,0,0,0,1500,1500,1500,1500,1500,1500
1747554369.4556625,0.04,-0.02,0.05,0.0,0.001090830782496456,0.0,2.086793663647779,-0.1630118461856364,-0.27772048925870746,0,0,0,0,0,0,1500,1500,1500,1500,1500,1500
1747554369.5416753,-0.03,-0.03,-0.04,0.001090830782496456,0.0,0.0,2.086793663647779,-0.1630118461856364,-0.27772048925870746,0,0,0,0,0,0,1500,1500,1500,1500,1500,1500
1747554369.6394107,-0.01,-0.01,-0.08,0.0,-0.002181661564992912,-0.002181661564992912,2.086793663647779,-0.1630118461856364,-0.27772048925870746,0,0,0,0,0,0,1500,1500,1500,1500,1500,1500
1747554369.7421901,-0.01,-0.01,-0.08,0.0,-0.002181661564992912,-0.002181661564992912,2.086793663647779,-0.1630118461856364,-0.27772048925870746,0,0,0,0,0,0,1500,1500,1500,1500,1500,1500
1747554369.841116,0.03,-0.01,0.02,-0.002181661564992912,0.001090830782496456,-0.003272492347489368,2.086793663647779,-0.1630118461856364,-0.27772048925870746,0,0,0,0,0,0,1500,1500,1500,1500,1500,1500
1747554369.9397295,0.03,-0.01,0.02,-0.002181661564992912,0.001090830782496456,-0.003272492347489368,2.086793663647779,-0.1630118461856364,-0.27772048925870746,0,0,0,0,0,0,1500,1500,1500,1500,1500,1500
1747554370.0387263,-0.01,-0.02,-0.05,0.003272492347489368,-0.00545415391248228,-0.001090830782496456,2.086793663647779,-0.1630118461856364,-0.27772048925870746,0,0,0,0,0,0,1500,1500,1500,1500,1500,1500
1747554370.141832,0.05,0.01,0.05,0.001090830782496456,0.004363323129985824,0.002181661564992912,2.086793663647779,-0.1630118461856364,-0.27772048925870746,0,0,0,0,0,0,1500,1500,1500,1500,1500,1500
1747554370.241553,0.05,0.01,0.05,0.001090830782496456,0.004363323129985824,0.002181661564992912,2.086793663647779,-0.1630118461856364,-0.27772048925870746,0,0,0,0,0,0,1500,1500,1500,1500,1500,1500
1747554370.3390367,-0.02,-0.02,-0.03,0.003272492347489368,0.00545415391248228,0.002181661564992912,2.086793663647779,-0.1630118461856364,-0.27772048925870746,0,0,0,0,0,0,1500,1500,1500,1500,1500,1500
1747554370.4405346,0.02,0.0,-0.03,0.002181661564992912,0.002181661564992912,0.002181661564992912,2.086793663647779,-0.1630118461856364,-0.27772048925870746,0,0,0,0,0,0,1500,1500,1500,1500,1500,1500
1747554370.5397472,0.02,0.0,-0.03,0.002181661564992912,0.002181661564992912,0.002181661564992912,2.086793663647779,-0.1630118461856364,-0.27772048925870746,0,0,0,0,0,0,1500,1500,1500,1500,1500,1500
1747554370.6386664,0.0,-0.02,0.01,-0.003272492347489368,0.003272492347489368,0.001090830782496456,2.086793663647779,-0.1630118461856364,-0.27772048925870746,0,0,0,0,0,0,1500,1500,1500,1500,1500,1500
1747554370.7389808,0.0,-0.02,0.01,-0.003272492347489368,0.003272492347489368,0.001090830782496456,2.086793663647779,-0.1630118461856364,-0.27772048925870746,0,0,0,0,0,0,1500,1500,1500,1500,1500,1500
1747554370.8210063,-0.03,-0.01,-0.05,-0.00545415391248228,-0.003272492347489368,-0.003272492347489368,2.086793663647779,-0.1630118461856364,-0.27772048925870746,0,0,0,0,0,0,1500,1500,1500,1500,1500,1500
1747554370.9221218,0.02,-0.02,0.03,0.001090830782496456,0.001090830782496456,-0.003272492347489368,2.086793663647779,-0.1630118461856364,-0.27772048925870746,0,0,0,0,0,0,1500,1500,1500,1500,1500,1500
1747554371.0213099,0.02,-0.02,0.03,0.001090830782496456,0.001090830782496456,-0.003272492347489368,2.086793663647779,-0.1630118461856364,-0.27772048925870746,3,0,0,0,0,0,1460,1540,1500,1540,1540,1540
1747554371.1057043,-0.01,-0.01,-0.03,-0.003272492347489368,0.002181661564992912,0.001090830782496456,2.086793663647779,-0.1630118461856364,-0.27772048925870746,3,0,0,0,0,0,1445,1549,1500,1580,1566,1566
1747554371.204856,-0.01,-0.01,-0.03,-0.003272492347489368,0.002181661564992912,0.001090830782496456,2.086793663647779,-0.1630118461856364,-0.27772048925870746,3,0,0,0,0,0,1445,1549,1500,1587,1566,1566
1747554371.3054698,0.03,-0.01,0.04,0.003272492347489368,-0.001090830782496456,0.001090830782496456,2.086793663647779,-0.1630118461856364,-0.27772048925870746,3,0,0,0,0,0,1445,1549,1500,1587,1566,1566
1747554371.4045553,-0.37,-0.01,0.17,0.07090400086226964,0.006544984694978736,-0.0818123086872342,2.0916363997565055,-0.16059080758644836,-0.2760900379923777,3,0,0,0,0,0,1445,1549,1500,1587,1566,1566
1747554371.5049157,-0.37,-0.01,0.17,0.07090400086226964,0.006544984694978736,-0.0818123086872342,2.0916363997565055,-0.16059080758644836,-0.2760900379923777,3,0,0,0,0,0,1445,1549,1500,1587,1566,1566
1747554371.588931,0.03,0.15,0.04,0.04363323129985824,0.03599741582238305,-0.24107360293171676,2.099276492455309,-0.13922864754641887,-0.26026830088783315,3,0,0,0,0,0,1445,1549,1500,1587,1566,1566
1747554371.688839,-0.01,-0.02,0.14,0.02399827721492203,0.08508480103472356,-0.3141592653589793,2.100049688751044,-0.10603125516697627,-0.2297689435740226,3,0,0,0,0,0,1445,1549,1500,1587,1566,1566
1747554371.7894516,-0.01,-0.02,0.14,0.02399827721492203,0.08508480103472356,-0.3141592653589793,2.100049688751044,-0.10603125516697627,-0.2297689435740226,3,0,0,0,0,0,1445,1549,1500,1587,1566,1566
1747554371.8889825,-0.09,0.04,0.01,-0.02181661564992912,0.14835298641951802,-0.3294308963139297,2.0965807919601076,-0.07402012213411012,-0.190707942559386,0,0,0,0,0,0,1485,1509,1500,1547,1526,1526
1747554371.9894319,-0.09,0.04,0.01,-0.02181661564992912,0.14835298641951802,-0.3294308963139297,2.0965807919601076,-0.07402012213411012,-0.190707942559386,0,0,0,0,0,0,1500,1500,1500,1507,1500,1500
1747554372.0715742,-0.12,-0.44,0.06,-0.13199052468207118,0.17016960206944712,-0.30543261909900765,2.080375996061816,-0.04267403663773254,-0.143609457576874,0,0,0,0,0,0,1500,1500,1500,1500,1500,1500
1747554372.1738276,-0.05,-0.34,-0.07,-0.07308566242726255,0.17889624832941878,-0.1189005552921137,2.0637778328050644,-0.028811536601651998,-0.10645320368686423,0,0,0,0,0,0,1500,1500,1500,1500,1500,1500
1747554372.2719219,-0.05,-0.34,-0.07,-0.07308566242726255,0.17889624832941878,-0.1189005552921137,2.0637778328050644,-0.028811536601651998,-0.10645320368686423,0,0,0,0,0,0,1500,1500,1500,1500,1500,1500
1747554372.3553755,-0.03,-0.19,0.08,-0.00545415391248228,0.19853120241435498,0.011999138607461015,2.0572789549938704,-0.035877533223082396,-0.07705162795890062,0,0,0,0,0,0,1500,1500,1500,1500,1500,1500
1747554372.7768576,-0.05,-0.08,0.07,0.06654067773228381,0.20180369476184434,0.15926129424448257,2.0671829528467853,-0.09103582817647138,-0.037346640051639755,-3,0,0,0,0,0,1540,1460,1500,1460,1460,1460
1747554372.8721743,-0.06,-0.02,-0.08,0.06435901616729091,0.19198621771937624,0.17780541754692233,2.0759243868722734,-0.12673867280225257,-0.02399703780828634,-3,0,0,0,0,0,1549,1445,1500,1420,1426,1426
1747554372.9720874,-0.03,0.07,0.0,0.039269908169872414,0.16253378659197193,0.16471544815696484,2.083017515464181,-0.16374050035179194,-0.012982785260092725,-3,0,0,0,0,0,1549,1445,1500,1402,1426,1426
1747554373.0551383,-0.03,0.07,0.0,0.039269908169872414,0.16253378659197193,0.16471544815696484,2.083017515464181,-0.16374050035179194,-0.012982785260092725,-3,0,0,0,0,0,1549,1445,1500,1402,1426,1426
1747554373.1560302,0.16,0.29,-0.16,-0.028361600344907856,0.1265363707695889,0.23234695667174513,2.0835585756782398,-0.19860455315779996,-0.006145928718120144,-3,0,0,0,0,0,1549,1445,1500,1402,1426,1426
1747554373.24713,-0.28,-0.17,-0.08,-0.03381575425739013,0.08835729338221293,0.32070425005395803,2.07768440915374,-0.2435494341368548,-0.01263307471999394,-3,0,0,0,0,0,1549,1445,1500,1402,1426,1426
1747554373.3385513,-0.28,-0.17,-0.08,-0.03381575425739013,0.08835729338221293,0.32070425005395803,2.07768440915374,-0.2435494341368548,-0.01263307471999394,-3,0,0,0,0,0,1549,1445,1500,1402,1426,1426
1747554373.4390836,-0.26,-0.03,0.14,-0.06654067773228381,0.05672320068981571,0.358883327441334,2.0761478830143605,-0.29204625441030085,-0.028268540474242994,-3,0,0,0,0,0,1549,1445,1500,1402,1426,1426
1747554373.554927,-0.26,-0.03,0.14,-0.06654067773228381,0.05672320068981571,0.358883327441334,2.0761478830143605,-0.29204625441030085,-0.028268540474242994,-3,0,0,0,0,0,1549,1445,1500,1402,1426,1426
1747554373.656607,-0.03,0.0,0.03,-0.12871803233458182,0.0272707695624114,0.3937899124812206,2.0680090675370195,-0.34561584661260913,-0.05188937845360764,-3,0,0,0,0,0,1549,1445,1500,1402,1426,1426
1747554373.7550068,0.01,-0.05,-0.13,-0.16253378659197193,0.01090830782496456,0.43524148221608594,2.0572584708010107,-0.3994530670783825,-0.08116680680046419,-3,0,0,0,0,0,1549,1445,1500,1402,1426,1426
1747554373.8383756,0.01,-0.05,-0.13,-0.16253378659197193,0.01090830782496456,0.43524148221608594,2.0572584708010107,-0.3994530670783825,-0.08116680680046419,-3,0,0,0,0,0,1549,1445,1500,1402,1426,1426
1747554373.938415,0.03,-0.02,-0.09,-0.17780541754692233,-0.028361600344907856,0.4636030825609938,2.0467313169226435,-0.460003140813458,-0.11874709486295791,-3,0,0,0,0,0,1549,1445,1500,1402,1426,1426
1747554374.025017,-0.02,-0.02,-0.09,-0.20507618710933373,-0.05999569303730508,0.4701480672559725,2.0387299049487906,-0.5172428729126242,-0.16038926412362886,-3,0,0,0,0,0,1549,1445,1500,1402,1426,1426
1747554374.1218786,-0.02,-0.02,-0.09,-0.20507618710933373,-0.05999569303730508,0.4701480672559725,2.0387299049487906,-0.5172428729126242,-0.16038926412362886,-3,0,0,0,0,0,1549,1445,1500,1402,1426,1426
1747554374.2215555,-0.11,-0.07,-0.04,-0.21380283336930536,-0.08726646259971647,0.4723297288209654,2.0329546279369937,-0.5770658051868249,-0.2110634521476276,-3,0,0,0,0,0,1549,1445,1500,1402,1426,1426
1747554374.3066926,-0.11,-0.07,-0.04,-0.21380283336930536,-0.08726646259971647,0.4723297288209654,2.0329546279369937,-0.5770658051868249,-0.2110634521476276,-3,0,0,0,0,0,1549,1445,1500,1402,1426,1426
1747554374.4055145,0.02,-0.08,-0.08,-0.23561944901923448,-0.11671889372712078,0.46687557490848314,2.0306682345327105,-0.6351970134524084,-0.2681972505776274,-3,0,0,0,0,0,1549,1445,1500,1402,1426,1426
1747554374.503894,-0.05,-0.05,-0.1,-0.26616271092913524,-0.14835298641951802,0.45814892864851153,2.0309032891155314,-0.6908330711892925,-0.3321469321353023,-3,0,0,0,0,0,1549,1445,1500,1402,1426,1426
1747554374.5885422,-0.05,-0.05,-0.1,-0.26616271092913524,-0.14835298641951802,0.45814892864851153,2.0309032891155314,-0.6908330711892925,-0.3321469321353023,-3,0,0,0,0,0,1549,1445,1500,1402,1426,1426
1747554374.6887484,0.01,-0.1,-0.03,-0.29888763440402893,-0.17016960206944712,0.4439681284760576,2.033376344860032,-0.7394960224286972,-0.39897312859263134,-3,0,0,0,0,0,1549,1445,1500,1402,1426,1426
1747554374.788065,0.01,-0.1,-0.03,-0.29888763440402893,-0.17016960206944712,0.4439681284760576,2.033376344860032,-0.7394960224286972,-0.39897312859263134,-3,0,0,0,0,0,1549,1445,1500,1402,1426,1426
1747554374.87099,-0.06,-0.08,-0.03,-0.3327033886614191,-0.18435040224190105,0.42215151282612845,2.036338258389458,-0.7871889581891777,-0.4752178321097578,-3,0,0,0,0,0,1549,1445,1500,1402,1426,1426
1747554374.96183,-0.02,-0.14,-0.04,-0.37306412761378793,-0.19525871006686563,0.4046982203061852,2.0396507697104425,-0.828094636611193,-0.5508066007920511,-3,0,0,0,0,0,1549,1445,1500,1402,1426,1426
1747554375.0550282,-0.02,-0.14,-0.04,-0.37306412761378793,-0.19525871006686563,0.4046982203061852,2.0396507697104425,-0.828094636611193,-0.5508066007920511,-3,0,0,0,0,0,1549,1445,1500,1402,1426,1426
1747554375.1560738,-0.07,-0.15,-0.07,-0.40033489717619936,-0.21271200258680892,0.3785182815262702,2.0428390204116766,-0.8674873377990221,-0.63553921593175,-3,0,0,0,0,0,1549,1445,1500,1402,1426,1426
1747554375.255404,-0.07,-0.15,-0.07,-0.40033489717619936,-0.21271200258680892,0.3785182815262702,2.0428390204116766,-0.8674873377990221,-0.63553921593175,-3,0,0,0,0,0,1549,1445,1500,1402,1426,1426
1747554375.3378706,0.07,-0.21,-0.02,-0.4232423436086249,-0.22143864884678055,0.36106498900632694,2.0477336713943726,-0.9005817220842397,-0.7190417972908631,-3,0,0,0,0,0,1549,1445,1500,1402,1426,1426
1747554375.4371834,0.05,-0.19,-0.13,-0.44178646691106466,-0.2301652951067522,0.33597588100890846,2.0549314175567566,-0.9329337538173752,-0.8120138813642864,-3,0,0,0,0,0,1549,1445,1500,1402,1426,1426
1747554375.5388708,0.05,-0.19,-0.13,-0.44178646691106466,-0.2301652951067522,0.33597588100890846,2.0549314175567566,-0.9329337538173752,-0.8120138813642864,-3,0,0,0,0,0,1549,1445,1500,1402,1426,1426
1747554375.6378942,0.04,-0.27,0.05,-0.4559672670835186,-0.23343778745424157,0.32834006553143325,2.0660295130130724,-0.9629842705132325,-0.9102639284621584,-3,0,0,0,0,0,1549,1445,1500,1402,1426,1426
1747554375.73798,0.04,-0.27,0.05,-0.4559672670835186,-0.23343778745424157,0.32834006553143325,2.0660295130130724,-0.9629842705132325,-0.9102639284621584,-3,0,0,0,0,0,1549,1445,1500,1402,1426,1426
1747554375.8351908,0.02,-0.23,0.03,-0.4625122517784973,-0.24870941840919197,0.32288591161895097,2.0826206271254732,-0.9908823852261452,-1.014740576619887,-3,0,0,0,0,0,1549,1445,1500,1402,1426,1426
1747554375.921222,0.01,-0.24,-0.04,-0.4701480672559725,-0.2476185876266955,0.31306843457648287,2.1026606731531197,-1.0143852924233823,-1.1181086185187694,-3,0,0,0,0,0,1549,1445,1500,1402,1426,1426
1747554376.1125534,0.01,-0.24,-0.04,-0.4701480672559725,-0.2476185876266955,0.31306843457648287,2.1026606731531197,-1.0143852924233823,-1.1181086185187694,-3,0,0,0,0,0,1549,1445,1500,1402,1426,1426
1747554376.2751882,0.01,-0.21,0.0,-0.4701480672559725,-0.2530727415391778,0.30870511144649704,2.1605769758226754,-1.0567061026230293,-1.3469236513914595,-3,0,0,0,0,0,1549,1445,1500,1402,1426,1426
1747554376.4266763,0.1,-0.24,-0.08,-0.4701480672559725,-0.24870941840919197,0.30543261909900765,2.196890269903946,-1.0744839003389155,-1.4653895966961228,-3,0,0,0,0,0,1549,1445,1500,1402,1426,1426
1747554376.5467885,0.1,-0.24,-0.08,-0.4701480672559725,-0.24870941840919197,0.30543261909900765,2.196890269903946,-1.0744839003389155,-1.4653895966961228,-3,0,0,0,0,0,1549,1445,1500,1402,1426,1426
1747554376.6378407,0.0,-0.2,0.0,-0.46469391334349025,-0.24325526449670967,0.3119776037939864,2.242397867076583,-1.0916753303028923,-1.5975761705300662,-3,0,0,0,0,0,1549,1445,1500,1402,1426,1426
1747554376.7381632,0.0,-0.27,-0.05,-0.46796640569097964,-0.24216443371421323,0.30652344988150415,2.2932902166858113,-1.1063415682619449,-1.7347973237792322,-3,0,0,0,0,0,1549,1445,1500,1402,1426,1426
1747554376.821426,0.0,-0.27,-0.05,-0.46796640569097964,-0.24216443371421323,0.30652344988150415,2.2932902166858113,-1.1063415682619449,-1.7347973237792322,-3,0,0,0,0,0,1549,1445,1500,1402,1426,1426
1747554376.9213595,-0.09,-0.3,-0.08,-0.4854196982109229,-0.2454369260617026,0.30652344988150415,2.344904413058885,-1.1168232256491744,-1.8682319886595216,-3,0,0,0,0,0,1549,1445,1500,1402,1426,1426
1747554377.0210514,0.0,-0.27,0.0,-0.495237175253391,-0.24652775684419906,0.30543261909900765,2.4016800736870265,-1.1244284970212708,-2.014534606855155,-3,0,0,0,0,0,1549,1445,1500,1402,1426,1426
1747554377.105252,0.0,-0.27,0.0,-0.495237175253391,-0.24652775684419906,0.30543261909900765,2.4016800736870265,-1.1244284970212708,-2.014534606855155,-3,0,0,0,0,0,1549,1445,1500,1402,1426,1426
1747554377.2052493,0.0,-0.26,0.0,-0.4985096676008804,-0.23234695667174513,0.3174317577064687,2.461368909937602,-1.1298168141014888,-2.163941256813628,-3,0,0,0,0,0,1549,1445,1500,1402,1426,1426
1747554377.304905,0.0,-0.26,0.0,-0.4985096676008804,-0.23234695667174513,0.3174317577064687,2.461368909937602,-1.1298168141014888,-2.163941256813628,-3,0,0,0,0,0,1549,1445,1500,1402,1426,1426
1747554377.405411,0.0,-0.25,-0.15,-0.5323254218582705,-0.22471114119426994,0.3119776037939864,2.5142346006572662,-1.1331787367811925,-2.304083147004061,-3,0,0,0,0,0,1549,1445,1500,1402,1426,1426
1747554377.5058959,0.07,-0.3,-0.12,-0.5475970528132209,-0.21162117180431245,0.30652344988150415,2.563766941214229,-1.1337582533481627,-2.450175440315656,-3,0,0,0,0,0,1549,1445,1500,1402,1426,1426
1747554377.5880291,0.07,-0.3,-0.12,-0.5475970528132209,-0.21162117180431245,0.30652344988150415,2.563766941214229,-1.1337582533481627,-2.450175440315656,-3,0,0,0,0,0,1549,1445,1500,1402,1426,1426
1747554377.68806,0.0,-0.23,-0.03,-0.5541420375081997,-0.20507618710933373,0.29561514205653955,2.604684604870313,-1.1317496915172047,-2.5827507878978295,-3,0,0,0,0,0,1549,1445,1500,1402,1426,1426
1747554377.7757826,0.05,-0.32,-0.12,-0.5519603759432067,-0.20507618710933373,0.2945243112740431,2.6448448796745727,-1.1276483719292392,-2.7205959356764873,-3,0,0,0,0,0,1549,1445,1500,1402,1426,1426
1747554377.8705454,0.05,-0.32,-0.12,-0.5519603759432067,-0.20507618710933373,0.2945243112740431,2.6448448796745727,-1.1276483719292392,-2.7205959356764873,-3,0,0,0,0,0,1549,1445,1500,1402,1426,1426
1747554377.970563,0.04,-0.27,-0.18,-0.5519603759432067,-0.19853120241435498,0.2901609881440573,2.6813453269022878,-1.122020808705685,-2.8547227076421096,-3,0,0,0,0,0,1549,1445,1500,1402,1426,1426
1747554378.0553098,0.04,-0.27,-0.18,-0.5519603759432067,-0.19853120241435498,0.2901609881440573,2.6813453269022878,-1.122020808705685,-2.8547227076421096,-3,0,0,0,0,0,1549,1445,1500,1402,1426,1426
1747554378.1546307,0.12,-0.28,-0.17,-0.5563236990731926,-0.1908953869368798,0.2814343418840856,2.7109299450126785,-1.1150707929068988,-2.975598823397267,-3,0,0,0,0,0,1549,1445,1500,1402,1426,1426
1747554378.2531462,-0.03,-0.34,-0.01,-0.5617778529856748,-0.18435040224190105,0.27598018797160334,2.7379876306478215,-1.1073420039215867,-3.1005108847690033,-3,0,0,0,0,0,1549,1445,1500,1402,1426,1426
1747554378.337706,-0.03,-0.34,-0.01,-0.5617778529856748,-0.18435040224190105,0.27598018797160334,2.7379876306478215,-1.1073420039215867,-3.1005108847690033,-3,0,0,0,0,0,1549,1445,1500,1402,1426,1426
1747554378.4381423,0.04,-0.27,-0.04,-0.5683228376806536,-0.17998707911191522,0.26616271092913524,2.75750454102392,-1.0979571578329053,3.0642420352535265,-3,0,0,0,0,0,1549,1445,1500,1402,1426,1426
1747554378.5376394,0.04,-0.27,-0.04,-0.5683228376806536,-0.17998707911191522,0.26616271092913524,2.75750454102392,-1.0979571578329053,3.0642420352535265,-3,0,0,0,0,0,1549,1445,1500,1402,1426,1426
1747554378.6208527,0.04,-0.31,-0.08,-0.5759586531581288,-0.16907877128695067,0.25089107997418486,2.7684999839752513,-1.0886781028593344,2.96042701090167,-3,0,0,0,0,0,1549,1445,1500,1402,1426,1426
1747554378.721928,0.05,-0.36,-0.15,-0.5737769915931359,-0.16580627893946132,0.25089107997418486,2.775891752187489,-1.0799767627957064,2.854054029026372,-3,0,0,0,0,0,1549,1445,1500,1402,1426,1426
1747554378.820437,0.05,-0.36,-0.15,-0.5737769915931359,-0.16580627893946132,0.25089107997418486,2.775891752187489,-1.0799767627957064,2.854054029026372,-3,0,0,0,0,0,1549,1445,1500,1402,1426,1426
1747554378.9214993,0.05,-0.32,-0.16,-0.5661411761156606,-0.1505346479845109,0.2476185876266955,2.779591758041653,-1.0728238459859576,2.7578718567458558,0,0,0,0,0,0,1509,1485,1500,1442,1466,1466
1747554379.0207016,0.05,-0.32,-0.16,-0.5661411761156606,-0.1505346479845109,0.2476185876266955,2.779591758041653,-1.0728238459859576,2.7578718567458558,0,0,0,0,0,0,1500,1500,1500,1482,1500,1500
1747554379.1048205,0.37,0.06,0.07,-0.5628686837681712,-0.14180800172453928,0.24216443371421323,2.7809043724140037,-1.0663405871598226,2.6587140045036026,0,0,0,0,0,0,1500,1500,1500,1500,1500,1500
1747554379.2046847,0.0,-0.16,-0.1,-0.4908738521234052,-0.11453723216212788,0.05235987755982989,2.752064491677032,-1.0569334038387834,2.606275775594351,0,0,0,0,0,0,1500,1500,1500,1500,1500,1500
1747554379.3054724,0.0,-0.16,-0.1,-0.4908738521234052,-0.11453723216212788,0.05235987755982989,2.752064491677032,-1.0569334038387834,2.606275775594351,0,-0.49582,0,0,0,0,1500,1500,1500,1500,1500,1500
1747554379.4049788,0.04,-0.07,-0.03,-0.4526947747360292,-0.10581058590215622,-0.07635815477475191,2.69018754922625,-1.039581038027848,2.5944103729910117,0,-12.5,0,0,0,-0.005903,1460,1460,1460,1500,1500,1500
1747554379.5058053,0.07,-0.15,-0.06,-0.39706240482870997,-0.1090830782496456,-0.17453292519943295,2.6117130842978877,-1.0159130414261148,2.6107678070725577,0,-12.5,0,0,0,-0.008217,1420,1420,1420,1500,1500,1500
1747554379.5883331,0.07,-0.15,-0.06,-0.39706240482870997,-0.1090830782496456,-0.17453292519943295,2.6117130842978877,-1.0159130414261148,2.6107678070725577,0,-12.5,0,0,0,-0.008217,1380,1380,1395,1500,1500,1500
1747554379.6874251,0.12,0.26,0.1,-0.3523383427463553,-0.10144726277217041,-0.2476185876266955,2.5346540322511664,-0.9867571544335264,2.640821065588713,0,-12.5,0,0,0,-0.009517,1375,1377,1395,1500,1500,1500
1747554379.7875507,0.12,0.26,0.1,-0.3523383427463553,-0.10144726277217041,-0.2476185876266955,2.5346540322511664,-0.9867571544335264,2.640821065588713,0,-12.5,0,0,0,-0.009517,1375,1377,1395,1500,1500,1500
1747554379.8708727,-0.37,-0.28,0.04,-0.36106498900632694,-0.1090830782496456,-0.3141592653589793,2.4461473363192554,-0.946137021821099,2.683769803110662,0,-12.5,0,0,0,-0.010913,1375,1377,1395,1500,1500,1500
1747554379.989901,-0.3,-0.24,0.05,-0.3948807432637171,-0.02945243112740431,-0.31306843457648287,2.3544910392444525,-0.9075816550533892,2.729222606363166,0,-12.5,0,0,0,-0.010913,1375,1377,1395,1500,1500,1500
1747554380.0717645,-0.3,-0.24,0.05,-0.3948807432637171,-0.02945243112740431,-0.31306843457648287,2.3544910392444525,-0.9075816550533892,2.729222606363166,0,-12.5,0,0,0,-0.010913,1375,1377,1395,1500,1500,1500
1747554380.1715498,-0.08,-0.29,-0.17,-0.39051742013373125,0.022907446432425576,-0.2628902185816459,2.261032881030882,-0.8738229806195134,2.774599583884711,0,-12.5,0,0,0,-0.010913,1375,1377,1395,1500,1500,1500
1747554380.2711253,0.05,-0.3,0.07,-0.37742745074377376,0.10253809355466686,-0.19853120241435498,2.174305886626122,-0.8537466022887524,2.81613628674901,0,-12.5,0,0,0,-0.010913,1375,1377,1395,1500,1500,1500
1747554380.3777044,0.05,-0.3,0.07,-0.37742745074377376,0.10253809355466686,-0.19853120241435498,2.174305886626122,-0.8537466022887524,2.81613628674901,0,-12.5,0,0,0,-0.010913,1375,1377,1395,1500,1500,1500
1747554380.6094987,0.0,0.0,0.0,-0.24216443371421323,0.210530341021816,-0.08290313946973066,2.0121988794159544,-0.8478272512753325,2.909161254405995,0,-12.5,0,0,0,-0.010913,1375,1377,1395,1500,1500,1500
1747554380.757832,0.02,-0.13,0.02,-0.2083486794568231,0.23671027980173096,-0.04908738521234052,1.9370769999613744,-0.8537827469217036,2.9629527380116594,0,-12.5,0,0,0,-0.010913,1375,1377,1395,1500,1500,1500
1747554380.9050932,0.02,-0.13,0.02,-0.2083486794568231,0.23671027980173096,-0.04908738521234052,1.9370769999613744,-0.8537827469217036,2.9629527380116594,0,-12.5,0,0,0,-0.010913,1375,1377,1395,1500,1500,1500
1747554381.0239444,0.02,-0.12,0.2,-0.18544123302439752,0.24107360293171676,-0.014180800172453928,1.8650405356288153,-0.8627525099274825,3.018354252315047,0,-12.5,0,0,0,-0.010913,1375,1377,1395,1500,1500,1500
1747554381.1229951,0.0,-0.15,0.05,-0.18653206380689397,0.24652775684419906,0.001090830782496456,1.7924253951396085,-0.8734295351290422,3.0758432105010294,0,-12.5,0,0,0,-0.010913,1375,1377,1395,1500,1500,1500
1747554381.2126927,-0.13,-0.19,0.06,-0.15271630954950383,0.23343778745424157,0.00545415391248228,1.7271743099792098,-0.8812423457026803,3.1284440544536793,0,-12.5,0,0,0,-0.010913,1375,1377,1395,1500,1500,1500
1747554381.3091085,-0.13,-0.19,0.06,-0.15271630954950383,0.23343778745424157,0.00545415391248228,1.7271743099792098,-0.8812423457026803,3.1284440544536793,0,-12.5,0,0,0,-0.010913,1375,1377,1395,1500,1500,1500
1747554381.4130898,-0.12,-0.09,0.06,-0.11671889372712078,0.2181661564992912,0.017453292519943295,1.6649212855337843,-0.887575410473225,-3.100333766304194,0,-12.5,0,0,0,-0.010913,1375,1377,1395,1500,1500,1500
1747554381.5266013,-0.13,-0.4,-0.01,-0.07744898555724837,0.20507618710933373,0.02945243112740431,1.6133081331562,-0.8943577489463481,-3.052268063974536,0,-12.5,0,0,0,-0.010913,1375,1377,1395,1500,1500,1500
1747554381.6281211,-0.13,-0.4,-0.01,-0.07744898555724837,0.20507618710933373,0.02945243112740431,1.6133081331562,-0.8943577489463481,-3.052268063974536,0,-12.5,0,0,0,-0.010913,1375,1377,1395,1500,1500,1500
1747554381.729838,-0.04,-0.27,0.08,-0.05345070834232634,0.17998707911191522,0.032724923474893676,1.5656849849997727,-0.90102568766374,-3.0043064807301847,0,-12.5,0,0,0,-0.010913,1375,1377,1395,1500,1500,1500
1747554381.8287916,-0.04,-0.27,0.08,-0.05345070834232634,0.17998707911191522,0.032724923474893676,1.5656849849997727,-0.90102568766374,-3.0043064807301847,0,-12.5,0,0,0,-0.010913,1375,1377,1395,1500,1500,1500
1747554381.9274173,-0.07,-0.41000000000000003,0.08,-0.031634092692397225,0.16144295580947549,0.05126904677733343,1.524818712696585,-0.9082673234989314,-2.9601513690166663,0,-12.5,0,0,0,-0.010913,1375,1377,1395,1500,1500,1500
1747554382.0279732,-0.01,-0.32,0.25,-0.03490658503988659,0.14180800172453928,0.05781403147231216,1.4880846143024473,-0.9161252977488085,-2.9208621353116984,0,0,0,0,0,0,1415,1417,1435,1500,1500,1500
1747554382.1288955,-0.01,-0.32,0.25,-0.03490658503988659,0.14180800172453928,0.05781403147231216,1.4880846143024473,-0.9161252977488085,-2.9208621353116984,0,0,0,0,0,0,1455,1457,1475,1500,1500,1500
1747554382.2333457,0.47000000000000003,-0.02,0.02,-0.013089969389957472,0.12435470920459599,0.07526732399225546,2.7967807740778916,1.5707963267948966,-1.7843501776806359,0,0,0,0,0,0,1495,1497,1500,1500,1500,1500
1747554382.3270595,0.31,0.14,0.18,0.04799655442984406,0.12871803233458182,0.06654067773228381,1.4250461230296558,-0.9346787912654924,-2.847298864843962,0,0,0,0,0,0,1500,1500,1500,1500,1500,1500
1747554382.4328694,0.31,0.14,0.18,0.04799655442984406,0.12871803233458182,0.06654067773228381,1.4250461230296558,-0.9346787912654924,-2.847298864843962,0,0,0,0,0,0,1500,1500,1500,1500,1500,1500
1747554382.5275187,0.12,-0.07,0.13,0.14835298641951802,0.0916297857297023,0.05672320068981571,1.4139010320250214,-0.9435281415174965,-2.8147892673436252,0,0,0,0,0,0,1500,1500,1500,1500,1500,1500
1747554382.6248589,0.04,-0.01,0.16,0.20289452554434081,0.06217735460229799,0.03490658503988659,1.4213112426622276,-0.949119946417669,-2.7928502472984373,0,0,0,0,0,0,1500,1500,1500,1500,1500,1500
1747554382.730699,0.04,-0.01,0.16,0.20289452554434081,0.06217735460229799,0.03490658503988659,1.4213112426622276,-0.949119946417669,-2.7928502472984373,0,0,0,0,0,0,1500,1500,1500,1500,1500,1500
1747554382.8285835,-0.01,-0.02,0.15,0.25634523388666713,0.05345070834232634,0.014180800172453928,1.4395233465847368,-0.9517625699415855,-2.7746436506399643,0,0,0,0,0,0,1500,1500,1500,1500,1500,1500
1747554382.9342287,-0.01,-0.02,0.15,0.25634523388666713,0.05345070834232634,0.014180800172453928,1.4395233465847368,-0.9517625699415855,-2.7746436506399643,3,0,0,0,0,0,1460,1540,1500,1540,1540,1540
1747554383.031137,-0.03,0.03,0.15,0.29888763440402893,0.050178215994836975,-0.014180800172453928,1.4696407313852498,-0.9506824512010814,-2.759272367259389,3,0,0,0,0,0,1445,1549,1500,1580,1566,1566
1747554383.1328812,-0.05,0.07,0.11,0.32506757318394386,0.04690572364734761,-0.03490658503988659,1.5057064660449457,-0.9454672505394061,-2.7447243351401367,3,0,0,0,0,0,1445,1549,1500,1587,1566,1566
1747554383.245996,-0.05,0.07,0.11,0.32506757318394386,0.04690572364734761,-0.03490658503988659,1.5057064660449457,-0.9454672505394061,-2.7447243351401367,3,0,0,0,0,0,1445,1549,1500,1587,1566,1566
1747554383.343806,-0.36,0.21,0.13,0.3752457891787809,0.05781403147231216,-0.16253378659197193,1.5458330092850723,-0.9317468367737709,-2.730366128062819,3,0,0,0,0,0,1445,1549,1500,1587,1566,1566
1747554383.4459677,-0.07,0.4,0.12,0.3752457891787809,0.05781403147231216,-0.16253378659197193,1.587501232375883,-0.890785086116938,-2.7101639021600494,3,0,0,0,0,0,1445,1549,1500,1587,1566,1566
1747554383.5455184,-0.07,0.4,0.12,0.3752457891787809,0.05781403147231216,-0.16253378659197193,1.587501232375883,-0.890785086116938,-2.7101639021600494,3,0,0,0,0,0,1445,1549,1500,1587,1566,1566
1747554383.6397974,-0.04,0.34,0.23,0.27707101875409984,0.13744467859455345,-0.46796640569097964,1.6087709393746852,-0.8310028425321401,-2.6807037376547873,3,0,0,0,0,0,1445,1549,1500,1587,1566,1566
1747554383.7436457,0.04,0.12,0.1,0.21598449493429828,0.17671458676442586,-0.5726861608106394,1.6165826795571197,-0.750519834585805,-2.6392468943829908,3,0,0,0,0,0,1445,1549,1500,1587,1566,1566
1747554383.8445997,0.04,0.12,0.1,0.21598449493429828,0.17671458676442586,-0.5726861608106394,1.6165826795571197,-0.750519834585805,-2.6392468943829908,3,0,0,0,0,0,1445,1549,1500,1587,1566,1566
1747554383.9434412,0.05,0.14,0.16,0.17235126363444003,0.20180369476184434,-0.6664976081053346,1.6158858366767823,-0.6608213534526306,-2.596531871612489,3,0,0,0,0,0,1445,1549,1500,1587,1566,1566
1747554384.0281174,0.05,0.14,0.16,0.17235126363444003,0.20180369476184434,-0.6664976081053346,1.6158858366767823,-0.6608213534526306,-2.596531871612489,3,0,0,0,0,0,1445,1549,1500,1587,1566,1566
1747554384.129641,-0.09,0.1,0.15,0.1308996938995747,0.22907446432425577,-0.7363107781851078,1.6117485478282165,-0.5533022546883211,-2.5495486740639532,3,0,0,0,0,0,1445,1549,1500,1587,1566,1566
1747554384.2286296,0.06,0.05,0.1,0.10799224746714914,0.2628902185816459,-0.7755806863549802,1.606261260286551,-0.43755967819813896,-2.5008878278797217,3,0,0,0,0,0,1445,1549,1500,1587,1566,1566
1747554384.3284798,0.06,0.05,0.1,0.10799224746714914,0.2628902185816459,-0.7755806863549802,1.606261260286551,-0.43755967819813896,-2.5008878278797217,3,0,0,0,0,0,1445,1549,1500,1587,1566,1566
1747554384.42795,0.08,0.09,0.12,0.10471975511965978,0.2945243112740431,-0.8039422866998881,1.6035167769305656,-0.31643920457523655,-2.449596311340389,3,0,0,0,0,0,1445,1549,1500,1587,1566,1566
1747554384.5284877,0.07,0.07,0.24,0.11780972450961724,0.3174317577064687,-0.8170322560898455,1.6071760021469768,-0.19227959716472204,-2.3954982778827016,3,0,0,0,0,0,1445,1549,1500,1587,1566,1566
1747554384.6292686,0.07,0.07,0.24,0.11780972450961724,0.3174317577064687,-0.8170322560898455,1.6071760021469768,-0.19227959716472204,-2.3954982778827016,3,0,0,0,0,0,1445,1549,1500,1587,1566,1566
1747554384.7294579,0.0,0.04,0.23,0.11126473981463851,0.34797501961636945,-0.8203047484373349,1.6168581742406958,-0.07504126510371405,-2.341981647472613,3,0,0,0,0,0,1445,1549,1500,1587,1566,1566
1747554384.8269417,0.06,-0.03,0.16,0.10144726277217041,0.3621558197888234,-0.8170322560898455,1.632511044801507,0.04892139736839872,-2.280523850430426,3,0,0,0,0,0,1445,1549,1500,1587,1566,1566
1747554384.9318802,0.06,-0.03,0.16,0.10144726277217041,0.3621558197888234,-0.8170322560898455,1.632511044801507,0.04892139736839872,-2.280523850430426,3,0,0,0,0,0,1445,1549,1500,1587,1566,1566
1747554385.0336287,0.06,0.02,0.22,0.08835729338221293,0.38724492778624187,-0.8170322560898455,1.6532492706571416,0.16317293453239068,-2.2168786971801713,3,0,0,0,0,0,1445,1549,1500,1587,1566,1566
1747554385.1303372,0.06,0.02,0.22,0.08835729338221293,0.38724492778624187,-0.8170322560898455,1.6532492706571416,0.16317293453239068,-2.2168786971801713,3,0,0,0,0,0,1445,1549,1500,1587,1566,1566
1747554385.2243884,-0.06,-0.06,0.3,0.07090400086226964,0.4068798818711781,-0.8126689329598596,1.682359664188998,0.2828509732431706,-2.142154031284312,3,0,0,0,0,0,1445,1549,1500,1587,1566,1566
1747554385.3083134,-0.06,-0.12,0.22,0.06217735460229799,0.41015237421866746,-0.7984881327874057,1.7204325136773688,0.3985889472490603,-2.0591157291448963,3,0,0,0,0,0,1445,1549,1500,1587,1566,1566
1747554385.4081452,-0.06,-0.12,0.22,0.06217735460229799,0.41015237421866746,-0.7984881327874057,1.7204325136773688,0.3985889472490603,-2.0591157291448963,3,0,0,0,0,0,1445,1549,1500,1587,1566,1566
1747554385.5090597,0.08,-0.06,0.2,0.04363323129985824,0.4308781590861001,-0.7864889941799448,1.770171012107261,0.5086101435507578,-1.9635754094901625,3,0,0,0,0,0,1445,1549,1500,1587,1566,1566
1747554385.6089947,0.08,-0.06,0.2,0.04363323129985824,0.4308781590861001,-0.7864889941799448,1.770171012107261,0.5086101435507578,-1.9635754094901625,3,0,0,0,0,0,1445,1549,1500,1587,1566,1566
1747554385.7094412,0.06,-0.18,0.15,0.0272707695624114,0.4505131131710363,-0.7755806863549802,1.8330312017867203,0.6113423383203453,-1.853228485602989,0,0,0,0,0,0,1485,1509,1500,1547,1526,1526
1747554385.8083491,0.15,-0.16,0.25,0.001090830782496456,0.4625122517784973,-0.753764070705051,1.9061786625649395,0.6985695255099785,-1.7337009668013372,-3,0,0,0,0,0,1525,1469,1500,1507,1486,1486
1747554385.907841,0.15,-0.16,0.25,0.001090830782496456,0.4625122517784973,-0.753764070705051,1.9061786625649395,0.6985695255099785,-1.7337009668013372,-3,0,0,0,0,0,1549,1445,1500,1467,1446,1446
1747554386.0092676,-0.08,-0.37,0.19,-0.015271630954950384,0.4636030825609938,-0.6457718232379019,2.002842341322731,0.7760632013946546,-1.5870143147694178,-3,0,0,0,0,0,1549,1445,1500,1427,1426,1426
1747554386.1076183,-0.23,-0.33,0.25,-0.09817477042468103,0.46469391334349025,-0.433059820651093,2.095492788716686,0.8176538148817595,-1.450661589707177,-3,0,0,0,0,0,1549,1445,1500,1402,1426,1426
1747554386.2092457,-0.23,-0.33,0.25,-0.09817477042468103,0.46469391334349025,-0.433059820651093,2.095492788716686,0.8176538148817595,-1.450661589707177,-3,0,0,0,0,0,1549,1445,1500,1402,1426,1426
1747554386.30775,-0.32,-0.2,0.09,-0.3076142806640006,0.4374231437810788,-0.1832595714594046,2.153545971846813,0.8241470642669724,-1.3309768177008725,-3,0,0,0,0,0,1549,1445,1500,1402,1426,1426
1747554386.4083323,-0.08,-0.41000000000000003,0.11,-0.34470252726888007,0.40578905108868163,0.03490658503988659,2.1660854866676487,0.8010426934139743,-1.2399208409480897,-3,0,0,0,0,0,1549,1445,1500,1402,1426,1426
1747554386.5112493,-0.08,-0.41000000000000003,0.11,-0.34470252726888007,0.40578905108868163,0.03490658503988659,2.1660854866676487,0.8010426934139743,-1.2399208409480897,-3,0,0,0,0,0,1549,1445,1500,1402,1426,1426
1747554386.6103246,-0.06,-0.37,0.17,-0.29561514205653955,0.39706240482870997,0.20725784867432664,2.15962367453518,0.7537953443190182,-1.1820922957507192,-3,0,0,0,0,0,1549,1445,1500,1402,1426,1426
1747554386.7051723,0.02,-0.23,0.04,-0.284706834231575,0.3719732968312915,0.33161255787892263,2.139310816251403,0.6880814906652615,-1.1454833171211745,-3,0,0,0,0,0,1549,1445,1500,1402,1426,1426
1747554386.7913094,0.02,-0.23,0.04,-0.284706834231575,0.3719732968312915,0.33161255787892263,2.139310816251403,0.6880814906652615,-1.1454833171211745,-3,0,0,0,0,0,1549,1445,1500,1402,1426,1426
1747554386.8890195,0.07,-0.27,0.09,-0.2596177262341565,0.33488505022641196,0.44505895925855404,2.1122292147470896,0.614396017302629,-1.1269646928853376,-3,0,0,0,0,0,1549,1445,1500,1402,1426,1426
1747554386.9815192,0.07,-0.27,0.09,-0.2596177262341565,0.33488505022641196,0.44505895925855404,2.1122292147470896,0.614396017302629,-1.1269646928853376,-3,0,0,0,0,0,1549,1445,1500,1402,1426,1426
1747554387.1229477,0.05,-0.24,-0.03,-0.22252947962927702,0.2977968036215325,0.5257804371632918,2.0790355468741977,0.5259292978014982,-1.1205606507513166,-3,0,0,0,0,0,1549,1445,1500,1402,1426,1426
1747554387.223354,0.15,-0.2,0.02,-0.1908953869368798,0.26616271092913524,0.5846852994181004,2.0487313078707827,0.4365075474457205,-1.1225144352765526,-3,0,0,0,0,0,1549,1445,1500,1402,1426,1426
1747554387.3270807,0.15,-0.2,0.02,-0.1908953869368798,0.26616271092913524,0.5846852994181004,2.0487313078707827,0.4365075474457205,-1.1225144352765526,-3,0,0,0,0,0,1549,1445,1500,1402,1426,1426
1747554387.4329166,0.17,-0.18,-0.11,-0.16035212502697901,0.23889194136672387,0.6294093615004551,2.0188343741847894,0.3347430858871548,-1.1296499272794547,-3,0,0,0,0,0,1549,1445,1500,1402,1426,1426
1747554387.5335639,-0.04,-0.13,-0.06,-0.13853550937704992,0.2181661564992912,0.6730425928003133,1.9932816054411129,0.22787866833348305,-1.1398430636238748,-3,0,0,0,0,0,1549,1445,1500,1402,1426,1426
1747554387.6325815,-0.04,-0.13,-0.06,-0.13853550937704992,0.2181661564992912,0.6730425928003133,1.9932816054411129,0.22787866833348305,-1.1398430636238748,-3,0,0,0,0,0,1549,1445,1500,1402,1426,1426
1747554387.741448,0.06,-0.14,-0.12,-0.12871803233458182,0.20180369476184434,0.7079491778402,1.9716748398573585,0.12336122073120005,-1.1519295915731067,-3,0,0,0,0,0,1549,1445,1500,1402,1426,1426
1747554387.82891,0.09,-0.19,-0.21,-0.11671889372712078,0.18435040224190105,0.7395832705325971,1.9511016910771326,0.008197131163710155,-1.1670539621276954,-3,0,0,0,0,0,1549,1445,1500,1402,1426,1426
1747554387.92564,0.09,-0.19,-0.21,-0.11671889372712078,0.18435040224190105,0.7395832705325971,1.9511016910771326,0.008197131163710155,-1.1670539621276954,-3,0,0,0,0,0,1549,1445,1500,1402,1426,1426
1747554388.0290322,0.07,-0.14,-0.14,-0.10690141668465268,0.17016960206944712,0.7592182246175333,1.9344986690526986,-0.11016018756498386,-1.1840290423243764,-3,0,0,0,0,0,1549,1445,1500,1402,1426,1426
1747554388.1286528,0.08,-0.07,-0.2,-0.08399397025222712,0.1461713248545251,0.7733990247899872,1.9230295649103888,-0.23030758487713313,-1.2032320036126378,-3,0,0,0,0,0,1549,1445,1500,1402,1426,1426
1747554388.2287507,0.08,-0.07,-0.2,-0.08399397025222712,0.1461713248545251,0.7733990247899872,1.9230295649103888,-0.23030758487713313,-1.2032320036126378,-3,0,0,0,0,0,1549,1445,1500,1402,1426,1426
1747554388.3267727,-0.06,-0.1,-0.35000000000000003,-0.07635815477475191,0.11780972450961724,0.7723081940074908,1.9176073343566342,-0.34257512558382536,-1.2240715671403675,-3,0,0,0,0,0,1549,1445,1500,1402,1426,1426
1747554388.428744,0.02,0.0,-0.26,-0.08835729338221293,0.10362892433716332,0.7744898555724837,1.914618811384517,-0.46118751455540824,-1.2504371058636305,-3,0,0,0,0,0,1549,1445,1500,1402,1426,1426
1747554388.5270693,0.02,0.0,-0.26,-0.08835729338221293,0.10362892433716332,0.7744898555724837,1.914618811384517,-0.46118751455540824,-1.2504371058636305,-3,0,0,0,0,0,1549,1445,1500,1402,1426,1426
1747554388.6268992,-0.13,-0.06,-0.41000000000000003,-0.08726646259971647,0.07308566242726255,0.767944870877505,1.9175135069597156,-0.5702077649059227,-1.2807628653945227,-3,0,0,0,0,0,1549,1445,1500,1402,1426,1426
1747554388.7255147,-0.13,-0.06,-0.41000000000000003,-0.08726646259971647,0.07308566242726255,0.767944870877505,1.9175135069597156,-0.5702077649059227,-1.2807628653945227,-3,0,0,0,0,0,1549,1445,1500,1402,1426,1426
1747554388.808066,-0.15,-0.02,-0.27,-0.08617563181722002,0.04363323129985824,0.7570365630525404,1.9315970005705212,-0.6816554327285357,-1.3232607695472802,-3,0,0,0,0,0,1549,1445,1500,1402,1426,1426
1747554388.9027798,-0.04,0.05,-0.26,-0.08508480103472356,0.026179938779914945,0.7341291166201148,1.9558194190812286,-0.7884399211658503,-1.375841424229439,-3,0,0,0,0,0,1549,1445,1500,1402,1426,1426
1747554389.00796,-0.04,0.05,-0.26,-0.08508480103472356,0.026179938779914945,0.7341291166201148,1.9558194190812286,-0.7884399211658503,-1.375841424229439,-3,0,0,0,0,0,1549,1445,1500,1402,1426,1426
1747554389.1081233,-0.04,0.07,-0.27,-0.0916297857297023,-0.007635815477475192,0.7144941625351786,1.9946512275945874,-0.8884419787423888,-1.4434387224547147,-3,0,0,0,0,0,1549,1445,1500,1402,1426,1426
1747554389.2089195,-0.04,0.07,-0.27,-0.0916297857297023,-0.007635815477475192,0.7144941625351786,1.9946512275945874,-0.8884419787423888,-1.4434387224547147,-3,0,0,0,0,0,1549,1445,1500,1402,1426,1426
1747554389.3010926,-0.02,0.12,-0.14,-0.08726646259971647,-0.039269908169872414,0.6981317007977318,2.048059024591354,-0.9776322573462547,-1.5248503767513673,-3,0,0,0,0,0,1549,1445,1500,1402,1426,1426
1747554389.3959546,-0.09,0.07,-0.36,-0.08726646259971647,-0.07526732399225546,0.6861325621902709,2.136823153315903,-1.0630977417216894,-1.6435059268444523,-3,0,0,0,0,0,1549,1445,1500,1402,1426,1426
1747554389.495516,-0.09,0.07,-0.36,-0.08726646259971647,-0.07526732399225546,0.6861325621902709,2.136823153315903,-1.0630977417216894,-1.6435059268444523,-3,0,0,0,0,0,1549,1445,1500,1402,1426,1426
1747554389.5905592,-0.04,0.0,-0.16,-0.11126473981463851,-0.09926560120717749,0.6730425928003133,2.267252114862204,-1.1382120235548203,-1.8061967454793395,0,0,0,0,0,0,1509,1485,1500,1442,1466,1466
1747554389.6832914,0.06,0.53,-0.24,-0.1407171709420428,-0.13308135546456762,0.6534076387153771,2.435067141933823,-1.1918530525080806,-2.008835220939648,0,0,0,0,0,0,1500,1500,1500,1482,1500,1500
1747554389.7769084,0.06,0.53,-0.24,-0.1407171709420428,-0.13308135546456762,0.6534076387153771,2.435067141933823,-1.1918530525080806,-2.008835220939648,0,0,0,0,0,0,1500,1500,1500,1500,1500,1500
1747554389.8753457,0.16,0.23,-0.12,-0.10799224746714914,-0.1461713248545251,0.4308781590861001,2.617810369076277,-1.217898489299791,-2.224433562982381,0,0,0,0,0,0,1500,1500,1500,1500,1500,1500
1747554389.974542,0.16,0.23,-0.12,-0.10799224746714914,-0.1461713248545251,0.4308781590861001,2.617810369076277,-1.217898489299791,-2.224433562982381,0,0,0,0,0,0,1500,1500,1500,1500,1500,1500
1747554390.0579433,-0.01,0.11,-0.14,-0.12762720155208535,-0.1636246173744684,0.29670597283903605,2.74729835815033,-1.2179784753385192,-2.3812498294761597,0,0,0,0,0,0,1500,1500,1500,1500,1500,1500
1747554390.1589148,-0.01,0.11,-0.14,-0.12762720155208535,-0.1636246173744684,0.29670597283903605,2.74729835815033,-1.2179784753385192,-2.3812498294761597,0,0,0,0,0,0,1500,1500,1500,1500,1500,1500
1747554390.2450545,-0.05,0.14,-0.05,-0.136353847812057,-0.18435040224190105,0.18762289458939044,2.8386670959300133,-1.203909916834293,-2.5015057193911887,0,0,0,0,0,0,1500,1500,1500,1500,1500,1500
1747554390.3460567,-0.09,0.11,-0.03,-0.14289883250703572,-0.19962203319685143,0.09053895494720585,2.8851950666312542,-1.1804836250683095,-2.575662953369076,0,0,0,0,0,0,1500,1500,1500,1500,1500,1500
1747554390.4452634,-0.09,0.11,-0.03,-0.14289883250703572,-0.19962203319685143,0.09053895494720585,2.8851950666312542,-1.1804836250683095,-2.575662953369076,0,0,0,0,0,0,1500,1500,1500,1500,1500,1500
1747554390.5443075,-0.03,0.1,-0.01,-0.1505346479845109,-0.2083486794568231,0.011999138607461015,2.8956760218914024,-1.1513828757811093,-2.61242487072101,0,0,0,0,0,0,1500,1500,1500,1500,1500,1500
1747554390.6457324,-0.04,0.1,-0.03,-0.15489797111449674,-0.2203478180642841,-0.055632369907319255,2.8814496335656767,-1.120735329331762,-2.6216287861018253,0,0,0,0,0,0,1500,1500,1500,1500,1500,1500
1747554390.743787,-0.04,0.1,-0.03,-0.15489797111449674,-0.2203478180642841,-0.055632369907319255,2.8814496335656767,-1.120735329331762,-2.6216287861018253,0,0,0,0,0,0,1500,1500,1500,1500,1500,1500
1747554390.8414838,0.0,0.05,0.0,-0.15926129424448257,-0.2203478180642841,-0.11344640137963143,2.84893279939323,-1.0848054045350075,-2.612713301539056,0,0,0,0,0,0,1500,1500,1500,1500,1500,1500
1747554390.9435356,0.0,0.07,-0.02,-0.15926129424448257,-0.2203478180642841,-0.11344640137963143,2.808146868382563,-1.0486954061305858,-0.7905683451003472,0,0,0,0,0,0,1500,1500,1500,1500,1500,1500
1747554391.0455291,0.0,0.07,-0.02,-0.15926129424448257,-0.2203478180642841,-0.11344640137963143,2.808146868382563,-1.0486954061305858,-0.7905683451003472,0,0,0,0,0,0,1500,1500,1500,1500,1500,1500
1747554391.1468759,0.02,0.08,-0.01,-0.16144295580947549,-0.21380283336930536,-0.20180369476184434,2.758444725566682,-1.0071032262145452,-0.7608819663491554,0,0,0,0,0,0,1500,1500,1500,1500,1500,1500
1747554391.247984,0.02,0.08,-0.01,-0.16144295580947549,-0.21380283336930536,-0.20180369476184434,2.758444725566682,-1.0071032262145452,-0.7608819663491554,0,0,0,0,0,0,1500,1500,1500,1500,1500,1500
1747554391.3420112,0.03,0.05,0.01,-0.16471544815696484,-0.2083486794568231,-0.24216443371421323,2.70433872304494,-0.9634371885642476,-0.7242643953764597,0,0,0,0,0,0,1500,1500,1500,1500,1500,1500
1747554391.442752,0.05,0.05,0.04,-0.16689710972195776,-0.19416787928436915,-0.27598018797160334,2.651795663742825,-0.9206655715174128,-0.6890989658599362,0,0,0,0,0,0,1500,1500,1500,1500,1500,1500
1747554391.5255072,0.05,0.05,0.04,-0.16689710972195776,-0.19416787928436915,-0.27598018797160334,2.651795663742825,-0.9206655715174128,-0.6890989658599362,0,0,0,0,0,0,1500,1500,1500,1500,1500,1500
1747554391.6247916,0.07,0.04,0.02,-0.1734420944169365,-0.17780541754692233,-0.29888763440402893,2.5945768474972617,-0.8731587273562009,-0.6498536137144287,0,0,0,0,0,0,1500,1500,1500,1500,1500,1500
1747554391.7219431,0.13,0.02,0.04,-0.17998707911191522,-0.16580627893946132,-0.32288591161895097,2.5376351278399083,-0.8241766176826807,-0.6106675207961613,0,0,0,0,0,0,1500,1500,1500,1500,1500,1500
1747554391.8091006,0.13,0.02,0.04,-0.17998707911191522,-0.16580627893946132,-0.32288591161895097,2.5376351278399083,-0.8241766176826807,-0.6106675207961613,0,0,0,0,0,0,1500,1500,1500,1500,1500,1500
1747554391.908297,0.12,0.02,0.04,-0.18216874067690814,-0.14944381720201447,-0.34143003492139073,2.4818796357886708,-0.7737007686995709,-0.5719082832220784,0,3.288424,0,0,0,0,1540,1540,1540,1500,1500,1500
1747554391.9952362,0.12,0.02,0.04,-0.18216874067690814,-0.14944381720201447,-0.34143003492139073,2.4818796357886708,-0.7737007686995709,-0.5719082832220784,0,12.5,0,0,0,0,1580,1580,1580,1500,1500,1500
1747554392.0968385,0.14,0.02,0.07,-0.1832595714594046,-0.136353847812057,-0.3567016658763411,2.4307812663920414,-0.7252919447597519,-0.5359797087432117,0,12.5,0,0,0,0,1620,1620,1620,1500,1500,1500
1747554392.1918697,0.61,-0.09,0.05,-0.16907877128695067,-0.11562806294462433,-0.35997415822383044,2.382341200772831,-0.6788141437404451,-0.5012585756889365,0,12.5,0,0,0,0,1660,1660,1642,1500,1500,1500
1747554392.2949247,0.61,-0.09,0.05,-0.16907877128695067,-0.11562806294462433,-0.35997415822383044,2.382341200772831,-0.6788141437404451,-0.5012585756889365,0,12.5,0,0,0,0,1673,1669,1642,1500,1500,1500
1747554392.3933291,1.43,0.21,-0.1,-0.08508480103472356,-0.06981317007977318,-0.3490658503988659,2.3388074698171017,-0.631312283370522,-0.4649925357556987,0,12.5,0,0,0,0,1673,1669,1642,1500,1500,1500
1747554392.495137,1.43,0.21,-0.1,-0.08508480103472356,-0.06981317007977318,-0.3490658503988659,2.3388074698171017,-0.631312283370522,-0.4649925357556987,0,12.5,0,0,0,0,1673,1669,1642,1500,1500,1500
1747554392.595517,1.28,0.23,0.17,0.06217735460229799,-0.14835298641951802,-0.25743606466916363,2.323080615115653,-0.5880756465237484,-0.4378872163086193,0,12.5,0,0,0,0,1673,1669,1642,1500,1500,1500
1747554392.6959076,0.05,-0.18,0.4,0.1090830782496456,-0.2454369260617026,-0.16471544815696484,2.3384696389692303,-0.5539542026839098,-0.43919547329041875,0,12.5,0,0,0,0,1673,1669,1642,1500,1500,1500
1747554392.7956648,0.05,-0.18,0.4,0.1090830782496456,-0.2454369260617026,-0.16471544815696484,2.3384696389692303,-0.5539542026839098,-0.43919547329041875,0,12.5,0,0,0,0,1673,1669,1642,1500,1500,1500
1747554392.8959703,-0.06,-0.07,0.54,0.1734420944169365,-0.3097959422289935,-0.1265363707695889,2.3688809450792356,-0.5139914981626804,-0.4562607618409876,0,12.5,0,0,0,0,1673,1669,1642,1500,1500,1500
1747554392.9848866,0.37,0.09,0.4,0.20616701789183017,-0.35779249665883756,-0.08072147790473774,2.4076104909207046,-0.47055721874391127,-0.48153651937437075,0,12.5,0,0,0,0,1673,1669,1642,1500,1500,1500
1747554393.0745726,0.37,0.09,0.4,0.20616701789183017,-0.35779249665883756,-0.08072147790473774,2.4076104909207046,-0.47055721874391127,-0.48153651937437075,0,0,0,0,0,0,1633,1629,1602,1500,1500,1500
1747554393.1741037,-0.47000000000000003,0.12,0.49,0.20289452554434081,-0.358883327441334,-0.05235987755982989,2.450698899596131,-0.42446790148982416,-0.5120671316057311,0,0,0,0,0,0,1593,1589,1562,1500,1500,1500
1747554393.2761893,-0.47000000000000003,0.12,0.49,0.20289452554434081,-0.358883327441334,-0.05235987755982989,2.450698899596131,-0.42446790148982416,-0.5120671316057311,0,0,0,0,0,0,1553,1549,1522,1500,1500,1500
1747554393.3759623,-0.7000000000000001,0.15,0.15,0.1439896632895322,-0.3534291735288517,-0.028361600344907856,2.4858212965532234,-0.3798570627472624,-0.541808247328674,0,0,7.314242,0,0,0,1538,1538,1482,1500,1460,1540
1747554393.4755957,-0.27,-0.13,0.21,0.0719948316447661,-0.3294308963139297,-0.02181661564992912,2.5120000549602683,-0.3318713606958989,-0.5724661786754509,0,0,7.5,0,0,0,1538,1538,1454,1500,1420,1580
1747554393.5624938,-0.27,-0.13,0.21,0.0719948316447661,-0.3294308963139297,-0.02181661564992912,2.5120000549602683,-0.3318713606958989,-0.5724661786754509,0,0,7.5,0,0,0,1538,1538,1454,1500,1380,1620
1747554393.6610038,-0.62,0.33,0.27,0.002181661564992912,-0.284706834231575,-0.04254240051736178,2.5226552862102625,-0.28581527398457907,-0.5957923343977614,0,0,7.5,0,0,0,1538,1538,1454,1500,1340,1649
1747554393.760731,-0.62,0.33,0.27,0.002181661564992912,-0.284706834231575,-0.04254240051736178,2.5226552862102625,-0.28581527398457907,-0.5957923343977614,0,0,7.5,0,0,0,1538,1538,1454,1500,1324,1649
1747554393.87829,-0.19,-0.27,1.05,-0.03490658503988659,-0.2650718801466388,-0.061086523819801536,2.5226661001325743,-0.2459358635880377,-0.612524422021524,0,0,7.5,0,0,0,1538,1538,1454,1500,1324,1649
1747554393.9748216,-0.18,0.15,0.48,-0.15707963267948966,-0.2694352032766246,-0.037088246604879506,2.509609467322413,-0.20825303456105412,-0.628926490673674,0,0,7.5,0,0,0,1538,1538,1454,1500,1324,1649
1747554394.0759716,-0.18,0.15,0.48,-0.15707963267948966,-0.2694352032766246,-0.037088246604879506,2.509609467322413,-0.20825303456105412,-0.628926490673674,0,0,7.5,0,0,0,1538,1538,1454,1500,1324,1649
1747554394.1771083,0.0,-0.07,0.12,-0.27598018797160334,-0.3763366199612773,-0.044724062082354694,2.4768215125642166,-0.16815428236693375,-0.6527371385831057,0,0,7.5,0,0,0,1538,1538,1454,1500,1324,1649
1747554394.2735946,-0.01,0.03,0.03,-0.27598018797160334,-0.46796640569097964,-0.04036073895236887,2.438531510369897,-0.11306030382352926,-0.6896153819832167,0,0,7.5,0,0,0,1538,1538,1454,1500,1324,1649
1747554394.3749082,-0.01,0.03,0.03,-0.27598018797160334,-0.46796640569097964,-0.04036073895236887,2.438531510369897,-0.11306030382352926,-0.6896153819832167,0,0,7.5,0,0,0,1538,1538,1454,1500,1324,1649
1747554394.4736874,0.1,0.0,0.06,-0.3076142806640006,-0.48432886742842646,-0.028361600344907856,2.3963873081809193,-0.05385774477328355,-0.7350877765510248,0,0,7.5,0,0,0,1538,1538,1454,1500,1324,1649
1747554394.5606377,0.09,0.0,0.16,-0.3196134192714616,-0.4756022211684548,-0.028361600344907856,2.351869883726383,-0.0008278788081768394,-0.7805559047868562,0,0,7.5,0,0,0,1538,1538,1454,1500,1324,1649
1747554394.6607757,0.09,0.0,0.16,-0.3196134192714616,-0.4756022211684548,-0.028361600344907856,2.351869883726383,-0.0008278788081768394,-0.7805559047868562,0,0,7.5,0,0,0,1538,1538,1454,1500,1324,1649
1747554394.7452526,0.06,-0.03,0.01,-0.29561514205653955,-0.4461497900410505,-0.015271630954950384,2.3029851721068617,0.05033306847545708,-0.8302788441625518,0,0,7.5,0,0,0,1538,1538,1454,1500,1324,1649
1747554394.842761,0.06,-0.03,0.01,-0.29561514205653955,-0.4461497900410505,-0.015271630954950384,2.3029851721068617,0.05033306847545708,-0.8302788441625518,0,0,7.5,0,0,0,1538,1538,1454,1500,1324,1649
