time,ay,ax,az,gy,gx,gz,roll,pitch,yaw,cmd_fx,cmd_fy,cmd_fz,cmd_tx,cmd_ty,cmd_tz,pwm_1,pwm_2,pwm_3,pwm_4,pwm_5,pwm_6
1747537483.2979794,0.0,0.0,0.0,0.0,0.0,0.0,0.0,0.0,0.0,0,0,0,0,0,0,1500,1500,1500,1500,1500,1500
1747537483.3851786,0.04,0.02,-0.34,0.0,0.0,0.001090830782496456,-0.02297752032498709,0.1010966888725295,-0.0023848612416474987,0,0,0,0,0,0,1500,1500,1500,1500,1500,1500
1747537483.4859133,0.04,0.02,-0.34,0.0,0.0,0.001090830782496456,-0.02297752032498709,0.1010966888725295,-0.0023848612416474987,0,0,0,0,0,0,1500,1500,1500,1500,1500,1500
1747537483.5852106,0.04,0.0,-0.39,0.003272492347489368,-0.001090830782496456,0.0,-0.02297752032498709,0.1010966888725295,-0.0023848612416474987,0,0,0,0,0,0,1500,1500,1500,1500,1500,1500
1747537483.668393,0.04,0.0,-0.39,0.003272492347489368,-0.001090830782496456,0.0,-0.02297752032498709,0.1010966888725295,-0.0023848612416474987,0,0,0,0,0,0,1500,1500,1500,1500,1500,1500
1747537483.7684712,0.01,0.0,-0.31,0.001090830782496456,-0.002181661564992912,-0.002181661564992912,-0.02297752032498709,0.1010966888725295,-0.0023848612416474987,0,0,0,0,0,0,1500,1500,1500,1500,1500,1500
1747537483.8678544,0.05,0.0,-0.29,0.0,0.002181661564992912,-0.001090830782496456,-0.02297752032498709,0.1010966888725295,-0.0023848612416474987,0,0,0,0,0,0,1500,1500,1500,1500,1500,1500
1747537483.9688783,0.05,0.0,-0.29,0.0,0.002181661564992912,-0.001090830782496456,-0.02297752032498709,0.1010966888725295,-0.0023848612416474987,0,0,0,0,0,0,1500,1500,1500,1500,1500,1500
1747537484.067991,0.02,0.02,-0.33,0.002181661564992912,0.001090830782496456,0.0,-0.02297752032498709,0.1010966888725295,-0.0023848612416474987,0,0,0,0,0,0,1500,1500,1500,1500,1500,1500
1747537484.152808,0.02,0.02,-0.33,0.002181661564992912,0.001090830782496456,0.0,-0.02297752032498709,0.1010966888725295,-0.0023848612416474987,0,0,0,0,0,0,1500,1500,1500,1500,1500,1500
1747537484.2529213,0.03,-0.02,-0.36,-0.001090830782496456,-0.00545415391248228,-0.002181661564992912,-0.02297752032498709,0.1010966888725295,-0.0023848612416474987,0,0,0,0,0,0,1500,1500,1500,1500,1500,1500
1747537484.3525302,0.03,0.02,-0.36,0.0,-0.004363323129985824,0.001090830782496456,-0.02297752032498709,0.1010966888725295,-0.0023848612416474987,0,0,0,0,0,0,1500,1500,1500,1500,1500,1500
1747537484.453209,0.03,0.02,-0.36,0.0,-0.004363323129985824,0.001090830782496456,-0.02297752032498709,0.1010966888725295,-0.0023848612416474987,0,0,0,0,0,0,1500,1500,1500,1500,1500,1500
1747537484.5515661,0.03,0.0,-0.3,0.0,-0.003272492347489368,0.001090830782496456,-0.02297752032498709,0.1010966888725295,-0.0023848612416474987,0,0,0,0,0,0,1500,1500,1500,1500,1500,1500
1747537484.6352723,0.03,0.0,-0.3,0.0,-0.003272492347489368,0.001090830782496456,-0.02297752032498709,0.1010966888725295,-0.0023848612416474987,0,0,0,0,0,0,1500,1500,1500,1500,1500,1500
1747537484.7354662,0.03,0.03,-0.28,-0.002181661564992912,-0.002181661564992912,0.002181661564992912,-0.02297752032498709,0.1010966888725295,-0.0023848612416474987,0,0,0,0,0,0,1500,1500,1500,1500,1500,1500
1747537484.8215528,0.06,0.02,-0.37,0.003272492347489368,0.002181661564992912,0.001090830782496456,-0.02297752032498709,0.1010966888725295,-0.0023848612416474987,0,0,0,0,0,0,1500,1500,1500,1500,1500,1500
1747537484.9183614,0.06,0.02,-0.37,0.003272492347489368,0.002181661564992912,0.001090830782496456,-0.02297752032498709,0.1010966888725295,-0.0023848612416474987,0,0,0,0,0,0,1500,1500,1500,1500,1500,1500
1747537485.0184777,0.03,-0.01,-0.34,-0.002181661564992912,-0.001090830782496456,0.0,-0.02297752032498709,0.1010966888725295,-0.0023848612416474987,0,0,0,0,0,0,1500,1500,1500,1500,1500,1500
1747537485.1024177,0.03,-0.01,-0.34,-0.002181661564992912,-0.001090830782496456,0.0,-0.02297752032498709,0.1010966888725295,-0.0023848612416474987,0,0,0,0,0,0,1500,1500,1500,1500,1500,1500
1747537485.201951,0.05,-0.01,-0.28,0.002181661564992912,0.002181661564992912,0.001090830782496456,-0.02297752032498709,0.1010966888725295,-0.0023848612416474987,0,0,0,0,0,0,1500,1500,1500,1500,1500,1500
1747537485.2967536,0.02,0.04,-0.31,-0.002181661564992912,0.002181661564992912,-0.001090830782496456,-0.02297752032498709,0.1010966888725295,-0.0023848612416474987,0,0,0,0,0,0,1500,1500,1500,1500,1500,1500
1747537485.38537,0.02,0.04,-0.31,-0.002181661564992912,0.002181661564992912,-0.001090830782496456,-0.02297752032498709,0.1010966888725295,-0.0023848612416474987,0,0,0,0,0,0,1500,1500,1500,1500,1500,1500
1747537485.4852586,0.04,0.03,-0.37,0.001090830782496456,-0.006544984694978736,-0.001090830782496456,-0.02297752032498709,0.1010966888725295,-0.0023848612416474987,0,0,0,0,0,0,1500,1500,1500,1500,1500,1500
1747537485.5860558,0.04,0.03,-0.37,0.001090830782496456,-0.006544984694978736,-0.001090830782496456,-0.02297752032498709,0.1010966888725295,-0.0023848612416474987,0,0,0,0,0,0,1500,1500,1500,1500,1500,1500
1747537485.6852672,0.02,0.0,-0.36,0.001090830782496456,0.001090830782496456,0.001090830782496456,-0.02297752032498709,0.1010966888725295,-0.0023848612416474987,0,0,0,0,0,0,1500,1500,1500,1500,1500,1500
1747537485.7796252,0.03,-0.01,-0.27,0.0,-0.004363323129985824,0.0,-0.02297752032498709,0.1010966888725295,-0.0023848612416474987,0,0,0,0,0,0,1500,1500,1500,1500,1500,1500
1747537485.8696778,0.03,-0.01,-0.27,0.0,-0.004363323129985824,0.0,-0.02297752032498709,0.1010966888725295,-0.0023848612416474987,0,0,0,0,0,0,1500,1500,1500,1500,1500,1500
1747537485.9693034,0.03,0.04,-0.33,0.001090830782496456,0.00545415391248228,0.0,-0.02297752032498709,0.1010966888725295,-0.0023848612416474987,0,0,0,0,0,0,1500,1500,1500,1500,1500,1500
1747537486.064835,0.03,0.04,-0.33,0.001090830782496456,0.00545415391248228,0.0,-0.02297752032498709,0.1010966888725295,-0.0023848612416474987,0,0,0,0,0,0,1500,1500,1500,1500,1500,1500
1747537486.0658312,0.03,0.04,-0.33,0.001090830782496456,0.00545415391248228,0.0,-0.02297752032498709,0.1010966888725295,-0.0023848612416474987,0,0,0,0,0,0,1500,1500,1500,1500,1500,1500
1747537486.1525881,0.02,0.0,-0.35000000000000003,0.003272492347489368,0.003272492347489368,0.001090830782496456,-0.02297752032498709,0.1010966888725295,-0.0023848612416474987,0,0,0,0,0,0,1500,1500,1500,1500,1500,1500
1747537486.1537757,0.02,0.0,-0.35000000000000003,0.003272492347489368,0.003272492347489368,0.001090830782496456,-0.02297752032498709,0.1010966888725295,-0.0023848612416474987,0,0,0,0,0,0,1500,1500,1500,1500,1500,1500
1747537486.252875,0.02,0.01,-0.29,0.001090830782496456,0.003272492347489368,-0.002181661564992912,-0.02297752032498709,0.1010966888725295,-0.0023848612416474987,0,0,0,0,0,0,1500,1500,1500,1500,1500,1500
1747537486.252875,0.02,0.01,-0.29,0.001090830782496456,0.003272492347489368,-0.002181661564992912,-0.02297752032498709,0.1010966888725295,-0.0023848612416474987,0,0,0,0,0,0,1500,1500,1500,1500,1500,1500
1747537486.352454,0.03,-0.01,-0.28,-0.002181661564992912,0.003272492347489368,0.0,-0.02297752032498709,0.1010966888725295,-0.0023848612416474987,0,0,0,0,0,0,1500,1500,1500,1500,1500,1500
1747537486.3534515,0.03,-0.01,-0.28,-0.002181661564992912,0.003272492347489368,0.0,-0.02297752032498709,0.1010966888725295,-0.0023848612416474987,0,0,0,0,0,0,1500,1500,1500,1500,1500,1500
1747537486.4519308,0.04,-0.01,-0.34,0.0,0.001090830782496456,0.0,-0.02297752032498709,0.1010966888725295,-0.0023848612416474987,0,0,0,0,0,0,1500,1500,1500,1500,1500,1500
1747537486.4530084,0.04,-0.01,-0.34,0.0,0.001090830782496456,0.0,-0.02297752032498709,0.1010966888725295,-0.0023848612416474987,0,0,0,0,0,0,1500,1500,1500,1500,1500,1500
1747537486.5529733,0.04,0.05,-0.33,0.001090830782496456,0.003272492347489368,-0.001090830782496456,-0.02297752032498709,0.1010966888725295,-0.0023848612416474987,0,0,0,0,0,0,1500,1500,1500,1500,1500,1500
1747537486.5529733,0.04,0.05,-0.33,0.001090830782496456,0.003272492347489368,-0.001090830782496456,-0.02297752032498709,0.1010966888725295,-0.0023848612416474987,0,0,0,0,0,0,1500,1500,1500,1500,1500,1500
1747537486.6352954,0.04,0.05,-0.33,0.001090830782496456,0.003272492347489368,-0.001090830782496456,-0.02297752032498709,0.1010966888725295,-0.0023848612416474987,0,0,0,0,0,0,1500,1500,1500,1500,1500,1500
1747537486.6366274,0.04,0.05,-0.33,0.001090830782496456,0.003272492347489368,-0.001090830782496456,-0.02297752032498709,0.1010966888725295,-0.0023848612416474987,0,0,0,0,0,0,1500,1500,1500,1500,1500,1500
1747537486.7355974,0.03,0.03,-0.36,-0.00545415391248228,0.001090830782496456,0.002181661564992912,-0.02297752032498709,0.1010966888725295,-0.0023848612416474987,0,0,0,0,0,0,1500,1500,1500,1500,1500,1500
1747537486.7370903,0.03,0.03,-0.36,-0.00545415391248228,0.001090830782496456,0.002181661564992912,-0.02297752032498709,0.1010966888725295,-0.0023848612416474987,0,0,0,0,0,0,1500,1500,1500,1500,1500,1500
1747537486.8304727,0.02,-0.01,-0.34,0.004363323129985824,0.003272492347489368,0.0,-0.02297752032498709,0.1010966888725295,-0.0023848612416474987,0,0,0,0,0,0,1500,1500,1500,1500,1500,1500
1747537486.8319697,0.02,-0.01,-0.34,0.004363323129985824,0.003272492347489368,0.0,-0.02297752032498709,0.1010966888725295,-0.0023848612416474987,0,0,0,0,0,0,1500,1500,1500,1500,1500,1500
1747537486.9188447,0.02,-0.01,-0.34,0.004363323129985824,0.003272492347489368,0.0,-0.02297752032498709,0.1010966888725295,-0.0023848612416474987,0,0,0,0,0,0,1500,1500,1500,1500,1500,1500
1747537486.919844,0.02,-0.01,-0.34,0.004363323129985824,0.003272492347489368,0.0,-0.02297752032498709,0.1010966888725295,-0.0023848612416474987,0,0,0,0,0,0,1500,1500,1500,1500,1500,1500
1747537487.0187564,0.01,-0.02,-0.3,0.002181661564992912,-0.001090830782496456,0.001090830782496456,-0.02297752032498709,0.1010966888725295,-0.0023848612416474987,0,0,0,0,0,0,1500,1500,1500,1500,1500,1500
1747537487.0187564,0.01,-0.02,-0.3,0.002181661564992912,-0.001090830782496456,0.001090830782496456,-0.02297752032498709,0.1010966888725295,-0.0023848612416474987,0,0,0,0,0,0,1500,1500,1500,1500,1500,1500
1747537487.1025085,0.04,-0.02,-0.3,-0.003272492347489368,0.002181661564992912,-0.002181661564992912,-0.02297752032498709,0.1010966888725295,-0.0023848612416474987,0,0,0,0,0,0,1500,1500,1500,1500,1500,1500
1747537487.1038198,0.04,-0.02,-0.3,-0.003272492347489368,0.002181661564992912,-0.002181661564992912,-0.02297752032498709,0.1010966888725295,-0.0023848612416474987,0,0,0,0,0,0,1500,1500,1500,1500,1500,1500
1747537487.2014453,0.03,0.04,-0.3,-0.002181661564992912,0.0,0.0,-0.02297752032498709,0.1010966888725295,-0.0023848612416474987,0,0,0,0,0,0,1500,1500,1500,1500,1500,1500
1747537487.2024605,0.03,0.04,-0.3,-0.002181661564992912,0.0,0.0,-0.02297752032498709,0.1010966888725295,-0.0023848612416474987,0,0,0,0,0,0,1500,1500,1500,1500,1500,1500
1747537487.3024645,0.05,0.03,-0.31,0.0,0.001090830782496456,0.001090830782496456,-0.02297752032498709,0.1010966888725295,-0.0023848612416474987,0,0,0,0,0,0,1500,1500,1500,1500,1500,1500
1747537487.3024645,0.05,0.03,-0.31,0.0,0.001090830782496456,0.001090830782496456,-0.02297752032498709,0.1010966888725295,-0.0023848612416474987,0,0,0,0,0,0,1500,1500,1500,1500,1500,1500
1747537487.3852472,0.02,0.01,-0.37,0.001090830782496456,0.003272492347489368,-0.001090830782496456,-0.02297752032498709,0.1010966888725295,-0.0023848612416474987,0,0,0,0,0,0,1500,1500,1500,1500,1500,1500
1747537487.3863761,0.02,0.01,-0.37,0.001090830782496456,0.003272492347489368,-0.001090830782496456,-0.02297752032498709,0.1010966888725295,-0.0023848612416474987,0,0,0,0,0,0,1500,1500,1500,1500,1500,1500
1747537487.4862201,0.02,0.01,-0.37,-0.001090830782496456,-0.004363323129985824,0.0,-0.02297752032498709,0.1010966888725295,-0.0023848612416474987,0,0,0,0,0,0,1500,1500,1500,1500,1500,1500
1747537487.4862201,0.02,0.01,-0.37,-0.001090830782496456,-0.004363323129985824,0.0,-0.02297752032498709,0.1010966888725295,-0.0023848612416474987,0,0,0,0,0,0,1500,1500,1500,1500,1500,1500
1747537487.5858948,0.05,-0.02,-0.32,-0.003272492347489368,-0.001090830782496456,0.002181661564992912,-0.02297752032498709,0.1010966888725295,-0.0023848612416474987,0,0,0,0,0,0,1500,1500,1500,1500,1500,1500
1747537487.5858948,0.05,-0.02,-0.32,-0.003272492347489368,-0.001090830782496456,0.002181661564992912,-0.02297752032498709,0.1010966888725295,-0.0023848612416474987,0,0,0,0,0,0,1500,1500,1500,1500,1500,1500
1747537487.686213,0.03,0.01,-0.32,0.001090830782496456,0.0,-0.001090830782496456,-0.02297752032498709,0.1010966888725295,-0.0023848612416474987,0,0,0,0,0,0,1500,1500,1500,1500,1500,1500
1747537487.6876633,0.03,0.01,-0.32,0.001090830782496456,0.0,-0.001090830782496456,-0.02297752032498709,0.1010966888725295,-0.0023848612416474987,0,0,0,0,0,0,1500,1500,1500,1500,1500,1500
1747537487.7859817,0.03,0.01,-0.32,0.001090830782496456,0.0,-0.001090830782496456,-0.02297752032498709,0.1010966888725295,-0.0023848612416474987,0,0,0,0,0,0,1500,1500,1500,1500,1500,1500
1747537487.7872455,0.03,0.01,-0.32,0.001090830782496456,0.0,-0.001090830782496456,-0.02297752032498709,0.1010966888725295,-0.0023848612416474987,0,0,0,0,0,0,1500,1500,1500,1500,1500,1500
1747537487.8699892,0.04,0.0,-0.3,0.001090830782496456,-0.002181661564992912,-0.001090830782496456,-0.02297752032498709,0.1010966888725295,-0.0023848612416474987,0,0,0,0,0,0,1500,1500,1500,1500,1500,1500
1747537487.870883,0.04,0.0,-0.3,0.001090830782496456,-0.002181661564992912,-0.001090830782496456,-0.02297752032498709,0.1010966888725295,-0.0023848612416474987,0,0,0,0,0,0,1500,1500,1500,1500,1500,1500
1747537487.9689293,0.02,0.04,-0.33,0.002181661564992912,-0.001090830782496456,-0.001090830782496456,-0.02297752032498709,0.1010966888725295,-0.0023848612416474987,0,0,0,0,0,0,1500,1500,1500,1500,1500,1500
1747537487.9702523,0.02,0.04,-0.33,0.002181661564992912,-0.001090830782496456,-0.001090830782496456,-0.02297752032498709,0.1010966888725295,-0.0023848612416474987,0,0,0,0,0,0,1500,1500,1500,1500,1500,1500
1747537488.0684705,0.05,-0.01,-0.34,0.0,0.0,0.003272492347489368,-0.02297752032498709,0.1010966888725295,-0.0023848612416474987,0,0,0,0,0,0,1500,1500,1500,1500,1500,1500
1747537488.0695493,0.05,-0.01,-0.34,0.0,0.0,0.003272492347489368,-0.02297752032498709,0.1010966888725295,-0.0023848612416474987,0,0,0,0,0,0,1500,1500,1500,1500,1500,1500
1747537488.1514986,0.05,0.02,-0.35000000000000003,-0.003272492347489368,0.004363323129985824,-0.001090830782496456,-0.02297752032498709,0.1010966888725295,-0.0023848612416474987,0,0,0,0,0,0,1500,1500,1500,1500,1500,1500
1747537488.1525133,0.05,0.02,-0.35000000000000003,-0.003272492347489368,0.004363323129985824,-0.001090830782496456,-0.02297752032498709,0.1010966888725295,-0.0023848612416474987,0,0,0,0,0,0,1500,1500,1500,1500,1500,1500
1747537488.2527604,0.02,-0.01,-0.3,-0.001090830782496456,-0.003272492347489368,0.0,-0.02297752032498709,0.1010966888725295,-0.0023848612416474987,0,0,0,0,0,0,1500,1500,1500,1500,1500,1500
1747537488.2527604,0.02,-0.01,-0.3,-0.001090830782496456,-0.003272492347489368,0.0,-0.02297752032498709,0.1010966888725295,-0.0023848612416474987,0,0,0,0,0,0,1500,1500,1500,1500,1500,1500
1747537488.3430233,0.05,0.03,-0.32,-0.004363323129985824,0.00545415391248228,0.001090830782496456,-0.02297752032498709,0.1010966888725295,-0.0023848612416474987,0,0,0,0,0,0,1500,1500,1500,1500,1500,1500
1747537488.3440754,0.05,0.03,-0.32,-0.004363323129985824,0.00545415391248228,0.001090830782496456,-0.02297752032498709,0.1010966888725295,-0.0023848612416474987,0,0,0,0,0,0,1500,1500,1500,1500,1500,1500
1747537488.435101,0.02,-0.02,-0.35000000000000003,-0.002181661564992912,0.00545415391248228,0.0,-0.02297752032498709,0.1010966888725295,-0.0023848612416474987,0,0,0,0,0,0,1500,1500,1500,1500,1500,1500
1747537488.436541,0.02,-0.02,-0.35000000000000003,-0.002181661564992912,0.00545415391248228,0.0,-0.02297752032498709,0.1010966888725295,-0.0023848612416474987,0,0,0,0,0,0,1500,1500,1500,1500,1500,1500
1747537488.5348847,0.04,0.0,-0.33,0.0,0.0,0.0,-0.02297752032498709,0.1010966888725295,-0.0023848612416474987,0,0,0,0,0,0,1500,1500,1500,1500,1500,1500
1747537488.5363288,0.04,0.0,-0.33,0.0,0.0,0.0,-0.02297752032498709,0.1010966888725295,-0.0023848612416474987,0,0,0,0,0,0,1500,1500,1500,1500,1500,1500
1747537488.6189508,0.04,0.0,-0.33,0.0,0.0,0.0,-0.02297752032498709,0.1010966888725295,-0.0023848612416474987,0,0,0,0,0,0,1500,1500,1500,1500,1500,1500
1747537488.620337,0.04,0.0,-0.33,0.0,0.0,0.0,-0.02297752032498709,0.1010966888725295,-0.0023848612416474987,0,0,0,0,0,0,1500,1500,1500,1500,1500,1500
1747537488.71883,0.03,0.01,-0.36,0.0,-0.002181661564992912,0.002181661564992912,-0.02297752032498709,0.1010966888725295,-0.0023848612416474987,0,0,0,0,0,0,1500,1500,1500,1500,1500,1500
1747537488.7198288,0.03,0.01,-0.36,0.0,-0.002181661564992912,0.002181661564992912,-0.02297752032498709,0.1010966888725295,-0.0023848612416474987,0,0,0,0,0,0,1500,1500,1500,1500,1500,1500
1747537488.8197587,0.03,0.0,-0.31,0.001090830782496456,0.0,-0.002181661564992912,-0.02297752032498709,0.1010966888725295,-0.0023848612416474987,0,0,0,0,0,0,1500,1500,1500,1500,1500,1500
1747537488.8197587,0.03,0.0,-0.31,0.001090830782496456,0.0,-0.002181661564992912,-0.02297752032498709,0.1010966888725295,-0.0023848612416474987,0,0,0,0,0,0,1500,1500,1500,1500,1500,1500
1747537488.9188883,0.02,0.03,-0.29,0.002181661564992912,-0.002181661564992912,0.0,-0.02297752032498709,0.1010966888725295,-0.0023848612416474987,0,0,0,0,0,0,1500,1500,1500,1500,1500,1500
1747537488.9198933,0.02,0.03,-0.29,0.002181661564992912,-0.002181661564992912,0.0,-0.02297752032498709,0.1010966888725295,-0.0023848612416474987,0,0,0,0,0,0,1500,1500,1500,1500,1500,1500
1747537489.0192325,0.02,0.03,-0.29,0.002181661564992912,-0.002181661564992912,0.0,-0.02297752032498709,0.1010966888725295,-0.0023848612416474987,0,0,0,0,0,0,1500,1500,1500,1500,1500,1500
1747537489.0192325,0.02,0.03,-0.29,0.002181661564992912,-0.002181661564992912,0.0,-0.02297752032498709,0.1010966888725295,-0.0023848612416474987,0,0,0,0,0,0,1500,1500,1500,1500,1500,1500
1747537489.101969,0.03,-0.01,-0.34,-0.002181661564992912,-0.002181661564992912,0.002181661564992912,-0.02297752032498709,0.1010966888725295,-0.0023848612416474987,0,0,0,0,0,0,1500,1500,1500,1500,1500,1500
1747537489.1039672,0.03,-0.01,-0.34,-0.002181661564992912,-0.002181661564992912,0.002181661564992912,-0.02297752032498709,0.1010966888725295,-0.0023848612416474987,0,0,0,0,0,0,1500,1500,1500,1500,1500,1500
1747537489.2025445,0.04,0.0,-0.35000000000000003,-0.001090830782496456,-0.004363323129985824,0.002181661564992912,-0.02297752032498709,0.1010966888725295,-0.0023848612416474987,0,0,0,0,0,0,1500,1500,1500,1500,1500,1500
1747537489.2037778,0.04,0.0,-0.35000000000000003,-0.001090830782496456,-0.004363323129985824,0.002181661564992912,-0.02297752032498709,0.1010966888725295,-0.0023848612416474987,0,0,0,0,0,0,1500,1500,1500,1500,1500,1500
1747537489.3014977,0.04,0.0,-0.35000000000000003,-0.001090830782496456,-0.004363323129985824,0.002181661564992912,-0.02297752032498709,0.1010966888725295,-0.0023848612416474987,0,0,0,0,0,0,1500,1500,1500,1500,1500,1500
1747537489.3025198,0.04,0.0,-0.35000000000000003,-0.001090830782496456,-0.004363323129985824,0.002181661564992912,-0.02297752032498709,0.1010966888725295,-0.0023848612416474987,0,0,0,0,0,0,1500,1500,1500,1500,1500,1500
1747537489.3853302,0.04,0.0,-0.31,0.001090830782496456,0.001090830782496456,-0.001090830782496456,-0.02297752032498709,0.1010966888725295,-0.0023848612416474987,0,0,0,0,0,0,1500,1500,1500,1500,1500,1500
1747537489.386402,0.04,0.0,-0.31,0.001090830782496456,0.001090830782496456,-0.001090830782496456,-0.02297752032498709,0.1010966888725295,-0.0023848612416474987,0,0,0,0,0,0,1500,1500,1500,1500,1500,1500
1747537489.4815094,0.05,-0.01,-0.31,0.002181661564992912,0.0,0.001090830782496456,-0.02297752032498709,0.1010966888725295,-0.0023848612416474987,0,0,0,0,0,0,1500,1500,1500,1500,1500,1500
1747537489.4825203,0.05,-0.01,-0.31,0.002181661564992912,0.0,0.001090830782496456,-0.02297752032498709,0.1010966888725295,-0.0023848612416474987,0,0,0,0,0,0,1500,1500,1500,1500,1500,1500
1747537489.5846229,0.04,0.03,-0.32,0.0,0.002181661564992912,0.0,-0.02297752032498709,0.1010966888725295,-0.0023848612416474987,0,0,0,0,0,0,1500,1500,1500,1500,1500,1500
1747537489.5859628,0.04,0.03,-0.32,0.0,0.002181661564992912,0.0,-0.02297752032498709,0.1010966888725295,-0.0023848612416474987,0,0,0,0,0,0,1500,1500,1500,1500,1500,1500
1747537489.6687033,0.04,0.02,-0.36,0.001090830782496456,-0.002181661564992912,0.003272492347489368,-0.02297752032498709,0.1010966888725295,-0.0023848612416474987,0,0,0,0,0,0,1500,1500,1500,1500,1500,1500
1747537489.6851263,0.04,0.02,-0.36,0.001090830782496456,-0.002181661564992912,0.003272492347489368,-0.02297752032498709,0.1010966888725295,-0.0023848612416474987,0,0,0,0,0,0,1500,1500,1500,1500,1500,1500
1747537489.7596164,0.02,0.04,-0.35000000000000003,0.001090830782496456,-0.001090830782496456,-0.001090830782496456,-0.02297752032498709,0.1010966888725295,-0.0023848612416474987,0,0,0,0,0,0,1500,1500,1500,1500,1500,1500
1747537489.7850862,0.02,0.04,-0.35000000000000003,0.001090830782496456,-0.001090830782496456,-0.001090830782496456,-0.02297752032498709,0.1010966888725295,-0.0023848612416474987,0,0,0,0,0,0,1500,1500,1500,1500,1500,1500
1747537489.8515682,0.02,0.04,-0.35000000000000003,0.001090830782496456,-0.001090830782496456,-0.001090830782496456,-0.02297752032498709,0.1010966888725295,-0.0023848612416474987,0,0,0,0,0,0,1500,1500,1500,1500,1500,1500
1747537489.867557,0.04,-0.01,-0.34,-0.001090830782496456,0.002181661564992912,-0.002181661564992912,-0.02297752032498709,0.1010966888725295,-0.0023848612416474987,0,0,0,0,0,0,1500,1500,1500,1500,1500,1500
1747537489.9528031,0.03,-0.01,-0.31,-0.002181661564992912,0.002181661564992912,0.001090830782496456,-0.02297752032498709,0.1010966888725295,-0.0023848612416474987,0,0,0,0,0,0,1500,1500,1500,1500,1500,1500
1747537489.9688163,0.03,-0.01,-0.31,-0.002181661564992912,0.002181661564992912,0.001090830782496456,-0.02297752032498709,0.1010966888725295,-0.0023848612416474987,0,0,0,0,0,0,1500,1500,1500,1500,1500,1500
1747537490.0523577,0.05,0.0,-0.34,0.0,-0.001090830782496456,0.001090830782496456,-0.02297752032498709,0.1010966888725295,-0.0023848612416474987,0,0,0,0,0,0,1500,1500,1500,1500,1500,1500
1747537490.06872,0.05,0.0,-0.34,0.0,-0.001090830782496456,0.001090830782496456,-0.02297752032498709,0.1010966888725295,-0.0023848612416474987,0,0,0,0,0,0,1500,1500,1500,1500,1500,1500
1747537490.1351151,0.05,0.0,-0.34,0.0,-0.001090830782496456,0.001090830782496456,-0.02297752032498709,0.1010966888725295,-0.0023848612416474987,0,0,0,0,0,0,1500,1500,1500,1500,1500,1500
1747537490.1513968,0.03,0.01,-0.26,0.0,-0.001090830782496456,-0.003272492347489368,-0.02297752032498709,0.1010966888725295,-0.0023848612416474987,0,0,0,0,0,0,1500,1500,1500,1500,1500,1500
1747537490.234419,0.05,0.02,-0.33,0.001090830782496456,-0.004363323129985824,-0.001090830782496456,-0.02297752032498709,0.1010966888725295,-0.0023848612416474987,0,0,0,0,0,0,1500,1500,1500,1500,1500,1500
1747537490.251568,0.05,0.02,-0.33,0.001090830782496456,-0.004363323129985824,-0.001090830782496456,-0.02297752032498709,0.1010966888725295,-0.0023848612416474987,0,0,0,0,0,0,1500,1500,1500,1500,1500,1500
1747537490.3343709,0.02,0.04,-0.33,0.0,0.002181661564992912,0.0,-0.02297752032498709,0.1010966888725295,-0.0023848612416474987,0,0,0,0,0,0,1500,1500,1500,1500,1500,1500
1747537490.3520288,0.02,0.04,-0.33,0.0,0.002181661564992912,0.0,-0.02297752032498709,0.1010966888725295,-0.0023848612416474987,0,0,0,0,0,0,1500,1500,1500,1500,1500,1500
1747537490.4197898,0.02,0.04,-0.33,0.0,0.002181661564992912,0.0,-0.02297752032498709,0.1010966888725295,-0.0023848612416474987,0,0,0,0,0,0,1500,1500,1500,1500,1500,1500
1747537490.4531589,0.03,-0.02,-0.31,0.0,-0.001090830782496456,-0.002181661564992912,-0.02297752032498709,0.1010966888725295,-0.0023848612416474987,0,0,0,0,0,0,1500,1500,1500,1500,1500,1500
1747537490.5194075,0.02,0.0,-0.37,-0.003272492347489368,0.0,-0.001090830782496456,-0.02297752032498709,0.1010966888725295,-0.0023848612416474987,0,0,0,0,0,0,1500,1500,1500,1500,1500,1500
1747537490.5524201,0.02,0.0,-0.37,-0.003272492347489368,0.0,-0.001090830782496456,-0.02297752032498709,0.1010966888725295,-0.0023848612416474987,0,0,0,0,0,0,1500,1500,1500,1500,1500,1500
1747537490.6203105,0.04,-0.01,-0.31,-0.002181661564992912,0.001090830782496456,0.001090830782496456,-0.02297752032498709,0.1010966888725295,-0.0023848612416474987,0,0,0,0,0,0,1500,1500,1500,1500,1500,1500
1747537490.6353326,0.03,-0.01,-0.31,0.003272492347489368,0.0,0.0,-0.02297752032498709,0.1010966888725295,-0.0023848612416474987,0,0,0,0,0,0,1500,1500,1500,1500,1500,1500
1747537490.7186246,0.03,-0.01,-0.31,0.003272492347489368,0.0,0.0,-0.02297752032498709,0.1010966888725295,-0.0023848612416474987,0,0,0,0,0,0,1500,1500,1500,1500,1500,1500
1747537490.737775,0.03,-0.01,-0.31,0.003272492347489368,0.0,0.0,-0.02297752032498709,0.1010966888725295,-0.0023848612416474987,0,0,0,0,0,0,1500,1500,1500,1500,1500,1500
1747537490.818732,0.03,0.0,-0.3,-0.001090830782496456,-0.001090830782496456,0.001090830782496456,-0.02297752032498709,0.1010966888725295,-0.0023848612416474987,0,0,0,0,0,0,1500,1500,1500,1500,1500,1500
1747537490.8346791,0.03,0.0,-0.3,-0.001090830782496456,-0.001090830782496456,0.001090830782496456,-0.02297752032498709,0.1010966888725295,-0.0023848612416474987,0,0,0,0,0,0,1500,1500,1500,1500,1500,1500
1747537490.9037445,0.03,0.0,-0.3,-0.001090830782496456,-0.001090830782496456,0.001090830782496456,-0.02297752032498709,0.1010966888725295,-0.0023848612416474987,0,0,0,0,0,0,1500,1500,1500,1500,1500,1500
1747537490.9185567,0.02,0.0,-0.3,-0.002181661564992912,-0.002181661564992912,0.001090830782496456,-0.02297752032498709,0.1010966888725295,-0.0023848612416474987,0,0,0,0,0,0,1500,1500,1500,1500,1500,1500
1747537491.002098,0.02,0.0,-0.3,-0.002181661564992912,-0.002181661564992912,0.001090830782496456,-0.02297752032498709,0.1010966888725295,-0.0023848612416474987,0,0,0,0,0,0,1500,1500,1500,1500,1500,1500
1747537491.0185995,0.02,0.0,-0.3,-0.002181661564992912,-0.002181661564992912,0.001090830782496456,-0.02297752032498709,0.1010966888725295,-0.0023848612416474987,0,0,0,0,0,0,1500,1500,1500,1500,1500,1500
1747537491.1013103,0.02,0.01,-0.35000000000000003,0.002181661564992912,-0.002181661564992912,-0.001090830782496456,-0.02297752032498709,0.1010966888725295,-0.0023848612416474987,0,0,0,0,0,0,1500,1500,1500,1500,1500,1500
1747537491.102431,0.02,0.01,-0.35000000000000003,0.002181661564992912,-0.002181661564992912,-0.001090830782496456,-0.02297752032498709,0.1010966888725295,-0.0023848612416474987,0,0,0,0,0,0,1500,1500,1500,1500,1500,1500
1747537491.2019932,0.03,0.0,-0.33,-0.001090830782496456,0.004363323129985824,-0.001090830782496456,-0.02297752032498709,0.1010966888725295,-0.0023848612416474987,0,0,0,0,0,0,1500,1500,1500,1500,1500,1500
1747537491.2030637,0.03,0.0,-0.33,-0.001090830782496456,0.004363323129985824,-0.001090830782496456,-0.02297752032498709,0.1010966888725295,-0.0023848612416474987,0,0,0,0,0,0,1500,1500,1500,1500,1500,1500
1747537491.3016808,0.05,0.02,-0.35000000000000003,-0.001090830782496456,0.0,-0.001090830782496456,-0.02297752032498709,0.1010966888725295,-0.0023848612416474987,0,0,0,0,0,0,1500,1500,1500,1500,1500,1500
1747537491.3027315,0.05,0.02,-0.35000000000000003,-0.001090830782496456,0.0,-0.001090830782496456,-0.02297752032498709,0.1010966888725295,-0.0023848612416474987,0,0,0,0,0,0,1500,1500,1500,1500,1500,1500
1747537491.3846636,0.01,0.02,-0.27,-0.001090830782496456,0.004363323129985824,-0.001090830782496456,-0.02297752032498709,0.1010966888725295,-0.0023848612416474987,0,0,0,0,0,0,1500,1500,1500,1500,1500,1500
1747537491.385661,0.01,0.02,-0.27,-0.001090830782496456,0.004363323129985824,-0.001090830782496456,-0.02297752032498709,0.1010966888725295,-0.0023848612416474987,0,0,0,0,0,0,1500,1500,1500,1500,1500,1500
1747537491.4847734,0.02,0.01,-0.3,-0.001090830782496456,0.003272492347489368,-0.002181661564992912,-0.02297752032498709,0.1010966888725295,-0.0023848612416474987,0,0,0,0,0,0,1500,1500,1500,1500,1500,1500
1747537491.4858248,0.02,0.01,-0.3,-0.001090830782496456,0.003272492347489368,-0.002181661564992912,-0.02297752032498709,0.1010966888725295,-0.0023848612416474987,0,0,0,0,0,0,1500,1500,1500,1500,1500,1500
1747537491.585234,0.04,0.02,-0.33,0.001090830782496456,0.002181661564992912,-0.002181661564992912,-0.02297752032498709,0.1010966888725295,-0.0023848612416474987,0,0,0,0,0,0,1500,1500,1500,1500,1500,1500
1747537491.5863895,0.04,0.02,-0.33,0.001090830782496456,0.002181661564992912,-0.002181661564992912,-0.02297752032498709,0.1010966888725295,-0.0023848612416474987,0,0,0,0,0,0,1500,1500,1500,1500,1500,1500
1747537491.6854696,0.04,0.02,-0.33,0.001090830782496456,0.002181661564992912,-0.002181661564992912,-0.02297752032498709,0.1010966888725295,-0.0023848612416474987,0,0,0,0,0,0,1500,1500,1500,1500,1500,1500
1747537491.6865134,0.04,0.02,-0.33,0.001090830782496456,0.002181661564992912,-0.002181661564992912,-0.02297752032498709,0.1010966888725295,-0.0023848612416474987,0,0,0,0,0,0,1500,1500,1500,1500,1500,1500
1747537491.7848113,0.04,0.02,-0.33,0.001090830782496456,0.002181661564992912,-0.002181661564992912,-0.02297752032498709,0.1010966888725295,-0.0023848612416474987,0,0,0,0,0,0,1500,1500,1500,1500,1500,1500
1747537491.785882,0.04,0.02,-0.33,0.001090830782496456,0.002181661564992912,-0.002181661564992912,-0.02297752032498709,0.1010966888725295,-0.0023848612416474987,0,0,0,0,0,0,1500,1500,1500,1500,1500,1500
1747537491.8687553,0.04,0.02,-0.33,0.001090830782496456,0.002181661564992912,-0.002181661564992912,-0.02297752032498709,0.1010966888725295,-0.0023848612416474987,0,0,0,0,0,0,1500,1500,1500,1500,1500,1500
1747537491.8687553,0.04,0.02,-0.33,0.001090830782496456,0.002181661564992912,-0.002181661564992912,-0.02297752032498709,0.1010966888725295,-0.0023848612416474987,0,0,0,0,0,0,1500,1500,1500,1500,1500,1500
1747537491.968498,0.04,0.02,-0.33,0.001090830782496456,0.002181661564992912,-0.002181661564992912,-0.02297752032498709,0.1010966888725295,-0.0023848612416474987,0,0,0,0,0,0,1500,1500,1500,1500,1500,1500
1747537491.9697165,0.04,0.02,-0.33,0.001090830782496456,0.002181661564992912,-0.002181661564992912,-0.02297752032498709,0.1010966888725295,-0.0023848612416474987,0,0,0,0,0,0,1500,1500,1500,1500,1500,1500
1747537492.0678277,0.04,0.02,-0.33,0.001090830782496456,0.002181661564992912,-0.002181661564992912,-0.02297752032498709,0.1010966888725295,-0.0023848612416474987,0,0,0,0,0,0,1500,1500,1500,1500,1500,1500
1747537492.06924,0.04,0.02,-0.33,0.001090830782496456,0.002181661564992912,-0.002181661564992912,-0.02297752032498709,0.1010966888725295,-0.0023848612416474987,0,0,0,0,0,0,1500,1500,1500,1500,1500,1500
1747537492.1517882,0.04,0.02,-0.33,0.001090830782496456,0.002181661564992912,-0.002181661564992912,-0.02297752032498709,0.1010966888725295,-0.0023848612416474987,0,0,0,0,0,0,1500,1500,1500,1500,1500,1500
1747537492.1529992,0.04,0.02,-0.33,0.001090830782496456,0.002181661564992912,-0.002181661564992912,-0.02297752032498709,0.1010966888725295,-0.0023848612416474987,0,0,0,0,0,0,1500,1500,1500,1500,1500,1500
1747537492.2518697,0.04,0.02,-0.33,0.001090830782496456,0.002181661564992912,-0.002181661564992912,-0.02297752032498709,0.1010966888725295,-0.0023848612416474987,0,0,0,0,0,0,1500,1500,1500,1500,1500,1500
1747537492.2533147,0.04,0.02,-0.33,0.001090830782496456,0.002181661564992912,-0.002181661564992912,-0.02297752032498709,0.1010966888725295,-0.0023848612416474987,0,0,0,0,0,0,1500,1500,1500,1500,1500,1500
1747537492.3517387,0.04,0.02,-0.33,0.001090830782496456,0.002181661564992912,-0.002181661564992912,-0.02297752032498709,0.1010966888725295,-0.0023848612416474987,0,0,0,0,0,0,1500,1500,1500,1500,1500,1500
1747537492.3530045,0.04,0.02,-0.33,0.001090830782496456,0.002181661564992912,-0.002181661564992912,-0.02297752032498709,0.1010966888725295,-0.0023848612416474987,0,0,0,0,0,0,1500,1500,1500,1500,1500,1500
1747537492.451286,0.04,0.02,-0.33,0.001090830782496456,0.002181661564992912,-0.002181661564992912,-0.02297752032498709,0.1010966888725295,-0.0023848612416474987,0,0,0,0,0,0,1500,1500,1500,1500,1500,1500
1747537492.4525936,0.04,0.02,-0.33,0.001090830782496456,0.002181661564992912,-0.002181661564992912,-0.02297752032498709,0.1010966888725295,-0.0023848612416474987,0,0,0,0,0,0,1500,1500,1500,1500,1500,1500
1747537492.55212,0.04,0.02,-0.33,0.001090830782496456,0.002181661564992912,-0.002181661564992912,-0.02297752032498709,0.1010966888725295,-0.0023848612416474987,0,0,0,0,0,0,1500,1500,1500,1500,1500,1500
1747537492.5531192,0.04,0.02,-0.33,0.001090830782496456,0.002181661564992912,-0.002181661564992912,-0.02297752032498709,0.1010966888725295,-0.0023848612416474987,0,0,0,0,0,0,1500,1500,1500,1500,1500,1500
1747537492.6352172,0.04,0.02,-0.33,0.001090830782496456,0.002181661564992912,-0.002181661564992912,-0.02297752032498709,0.1010966888725295,-0.0023848612416474987,0,0,0,0,0,0,1500,1500,1500,1500,1500,1500
1747537492.6363137,0.04,0.02,-0.33,0.001090830782496456,0.002181661564992912,-0.002181661564992912,-0.02297752032498709,0.1010966888725295,-0.0023848612416474987,0,0,0,0,0,0,1500,1500,1500,1500,1500,1500
1747537492.734634,0.04,0.02,-0.33,0.001090830782496456,0.002181661564992912,-0.002181661564992912,-0.02297752032498709,0.1010966888725295,-0.0023848612416474987,0,0,0,0,0,0,1500,1500,1500,1500,1500,1500
1747537492.7357814,0.04,0.02,-0.33,0.001090830782496456,0.002181661564992912,-0.002181661564992912,-0.02297752032498709,0.1010966888725295,-0.0023848612416474987,0,0,0,0,0,0,1500,1500,1500,1500,1500,1500
1747537492.8348427,0.04,0.02,-0.33,0.001090830782496456,0.002181661564992912,-0.002181661564992912,-0.02297752032498709,0.1010966888725295,-0.0023848612416474987,0,0,0,0,0,0,1500,1500,1500,1500,1500,1500
1747537492.8360288,0.04,0.02,-0.33,0.001090830782496456,0.002181661564992912,-0.002181661564992912,-0.02297752032498709,0.1010966888725295,-0.0023848612416474987,0,0,0,0,0,0,1500,1500,1500,1500,1500,1500
1747537492.9187698,0.04,0.02,-0.33,0.001090830782496456,0.002181661564992912,-0.002181661564992912,-0.02297752032498709,0.1010966888725295,-0.0023848612416474987,0,0,0,0,0,0,1500,1500,1500,1500,1500,1500
1747537492.9344785,0.04,0.02,-0.33,0.001090830782496456,0.002181661564992912,-0.002181661564992912,-0.02297752032498709,0.1010966888725295,-0.0023848612416474987,0,0,0,0,0,0,1500,1500,1500,1500,1500,1500
1747537493.0185633,0.04,0.02,-0.33,0.001090830782496456,0.002181661564992912,-0.002181661564992912,-0.02297752032498709,0.1010966888725295,-0.0023848612416474987,0,0,0,0,0,0,1500,1500,1500,1500,1500,1500
1747537493.0348213,0.04,0.02,-0.33,0.001090830782496456,0.002181661564992912,-0.002181661564992912,-0.02297752032498709,0.1010966888725295,-0.0023848612416474987,0,0,0,0,0,0,1500,1500,1500,1500,1500,1500
1747537493.102299,0.04,0.02,-0.33,0.001090830782496456,0.002181661564992912,-0.002181661564992912,-0.02297752032498709,0.1010966888725295,-0.0023848612416474987,0,0,0,0,0,0,1500,1500,1500,1500,1500,1500
1747537493.1180823,0.04,0.02,-0.33,0.001090830782496456,0.002181661564992912,-0.002181661564992912,-0.02297752032498709,0.1010966888725295,-0.0023848612416474987,0,0,0,0,0,0,1500,1500,1500,1500,1500,1500
1747537493.1370196,0.04,0.02,-0.33,0.001090830782496456,0.002181661564992912,-0.002181661564992912,-0.02297752032498709,0.1010966888725295,-0.0023848612416474987,0,0,0,0,0,0,1500,1500,1500,1500,1500,1500
1747537493.2023885,0.04,0.02,-0.33,0.001090830782496456,0.002181661564992912,-0.002181661564992912,-0.02297752032498709,0.1010966888725295,-0.0023848612416474987,0,0,0,0,0,0,1500,1500,1500,1500,1500,1500
1747537493.2187018,0.04,0.0,-0.39,-0.002181661564992912,-0.004363323129985824,-0.001090830782496456,-0.023281784235280042,0.10049805091098046,-0.001170955978135991,0,0,0,0,0,0,1500,1500,1500,1500,1500,1500
1747537493.2355518,0.04,0.0,-0.39,-0.002181661564992912,-0.004363323129985824,-0.001090830782496456,-0.023281784235280042,0.10049805091098046,-0.001170955978135991,0,0,0,0,0,0,1500,1500,1500,1500,1500,1500
1747537493.3016768,0.04,0.0,-0.39,-0.002181661564992912,-0.004363323129985824,-0.001090830782496456,-0.023281784235280042,0.10049805091098046,-0.001170955978135991,0,0,0,0,0,0,1500,1500,1500,1500,1500,1500
1747537493.3181565,0.04,0.0,-0.39,-0.002181661564992912,-0.004363323129985824,-0.001090830782496456,-0.023281784235280042,0.10049805091098046,-0.001170955978135991,0,0,0,0,0,0,1500,1500,1500,1500,1500,1500
1747537493.334965,0.04,0.0,-0.39,-0.002181661564992912,-0.004363323129985824,-0.001090830782496456,-0.023281784235280042,0.10049805091098046,-0.001170955978135991,0,0,0,0,0,0,1500,1500,1500,1500,1500,1500
1747537493.3851628,0.03,0.0,-0.32,-0.002181661564992912,-0.001090830782496456,0.001090830782496456,-0.023281784235280042,0.10049805091098046,-0.001170955978135991,0,0,0,0,0,0,1500,1500,1500,1500,1500,1500
1747537493.402082,0.03,0.0,-0.32,-0.002181661564992912,-0.001090830782496456,0.001090830782496456,-0.023281784235280042,0.10049805091098046,-0.001170955978135991,0,0,0,0,0,0,1500,1500,1500,1500,1500,1500
1747537493.4187376,0.03,0.0,-0.32,-0.002181661564992912,-0.001090830782496456,0.001090830782496456,-0.023281784235280042,0.10049805091098046,-0.001170955978135991,0,0,0,0,0,0,1500,1500,1500,1500,1500,1500
1747537493.4851127,0.03,0.0,-0.32,-0.002181661564992912,-0.001090830782496456,0.001090830782496456,-0.023281784235280042,0.10049805091098046,-0.001170955978135991,0,0,0,0,0,0,1500,1500,1500,1500,1500,1500
1747537493.5015588,0.03,0.0,-0.32,-0.002181661564992912,-0.001090830782496456,0.001090830782496456,-0.023281784235280042,0.10049805091098046,-0.001170955978135991,0,0,0,0,0,0,1500,1500,1500,1500,1500,1500
1747537493.5189254,0.03,0.0,-0.32,-0.002181661564992912,-0.001090830782496456,0.001090830782496456,-0.023281784235280042,0.10049805091098046,-0.001170955978135991,0,0,0,0,0,0,1500,1500,1500,1500,1500,1500
1747537493.585572,0.0,0.02,-0.29,-0.003272492347489368,-0.003272492347489368,0.001090830782496456,-0.023281784235280042,0.10049805091098046,-0.001170955978135991,0,0,0,0,0,0,1500,1500,1500,1500,1500,1500
1747537493.586629,0.0,0.02,-0.29,-0.003272492347489368,-0.003272492347489368,0.001090830782496456,-0.023281784235280042,0.10049805091098046,-0.001170955978135991,0,0,0,0,0,0,1500,1500,1500,1500,1500,1500
1747537493.6187835,0.0,0.02,-0.29,-0.003272492347489368,-0.003272492347489368,0.001090830782496456,-0.023281784235280042,0.10049805091098046,-0.001170955978135991,0,0,0,0,0,0,1500,1500,1500,1500,1500,1500
1747537493.68538,0.04,0.03,-0.33,0.001090830782496456,-0.001090830782496456,-0.002181661564992912,-0.023281784235280042,0.10049805091098046,-0.001170955978135991,0,0,0,0,0,0,1500,1500,1500,1500,1500,1500
1747537493.6863894,0.04,0.03,-0.33,0.001090830782496456,-0.001090830782496456,-0.002181661564992912,-0.023281784235280042,0.10049805091098046,-0.001170955978135991,0,0,0,0,0,0,1500,1500,1500,1500,1500,1500
1747537493.7189302,0.04,0.03,-0.33,0.001090830782496456,-0.001090830782496456,-0.002181661564992912,-0.023281784235280042,0.10049805091098046,-0.001170955978135991,0,0,0,0,0,0,1500,1500,1500,1500,1500,1500
1747537493.785347,0.04,0.03,-0.33,0.001090830782496456,-0.001090830782496456,-0.002181661564992912,-0.023281784235280042,0.10049805091098046,-0.001170955978135991,0,0,0,0,0,0,1500,1500,1500,1500,1500,1500
1747537493.785347,0.04,0.03,-0.33,0.001090830782496456,-0.001090830782496456,-0.002181661564992912,-0.023281784235280042,0.10049805091098046,-0.001170955978135991,0,0,0,0,0,0,1500,1500,1500,1500,1500,1500
1747537493.8182807,0.04,0.03,-0.33,0.001090830782496456,-0.001090830782496456,-0.002181661564992912,-0.023281784235280042,0.10049805091098046,-0.001170955978135991,0,0,0,0,0,0,1500,1500,1500,1500,1500,1500
1747537493.8688314,0.03,0.0,-0.35000000000000003,-0.002181661564992912,-0.001090830782496456,-0.003272492347489368,-0.023281784235280042,0.10049805091098046,-0.001170955978135991,0,0,0,0,0,0,1500,1500,1500,1500,1500,1500
1747537493.8688314,0.03,0.0,-0.35000000000000003,-0.002181661564992912,-0.001090830782496456,-0.003272492347489368,-0.023281784235280042,0.10049805091098046,-0.001170955978135991,0,0,0,0,0,0,1500,1500,1500,1500,1500,1500
1747537493.9021227,0.03,0.0,-0.35000000000000003,-0.002181661564992912,-0.001090830782496456,-0.003272492347489368,-0.023281784235280042,0.10049805091098046,-0.001170955978135991,0,0,0,0,0,0,1500,1500,1500,1500,1500,1500
1747537493.967809,0.03,0.0,-0.35000000000000003,-0.002181661564992912,-0.001090830782496456,-0.003272492347489368,-0.023281784235280042,0.10049805091098046,-0.001170955978135991,0,0,0,0,0,0,1500,1500,1500,1500,1500,1500
1747537493.9688058,0.03,0.0,-0.35000000000000003,-0.002181661564992912,-0.001090830782496456,-0.003272492347489368,-0.023281784235280042,0.10049805091098046,-0.001170955978135991,0,0,0,0,0,0,1500,1500,1500,1500,1500,1500
1747537494.0014405,0.03,0.0,-0.35000000000000003,-0.002181661564992912,-0.001090830782496456,-0.003272492347489368,-0.023281784235280042,0.10049805091098046,-0.001170955978135991,0,0,0,0,0,0,1500,1500,1500,1500,1500,1500
1747537494.0686219,0.03,0.0,-0.31,0.0,-0.001090830782496456,-0.001090830782496456,-0.023281784235280042,0.10049805091098046,-0.001170955978135991,0,0,0,0,0,0,1500,1500,1500,1500,1500,1500
1747537494.0697567,0.03,0.0,-0.31,0.0,-0.001090830782496456,-0.001090830782496456,-0.023281784235280042,0.10049805091098046,-0.001170955978135991,0,0,0,0,0,0,1500,1500,1500,1500,1500,1500
1747537494.1019278,0.03,0.0,-0.31,0.0,-0.001090830782496456,-0.001090830782496456,-0.023281784235280042,0.10049805091098046,-0.001170955978135991,0,0,0,0,0,0,1500,1500,1500,1500,1500,1500
1747537494.1526067,0.03,0.0,-0.31,0.0,-0.001090830782496456,-0.001090830782496456,-0.023281784235280042,0.10049805091098046,-0.001170955978135991,0,0,0,0,0,0,1500,1500,1500,1500,1500,1500
1747537494.169082,0.02,0.03,-0.32,0.0,0.003272492347489368,0.0,-0.023281784235280042,0.10049805091098046,-0.001170955978135991,0,0,0,0,0,0,1500,1500,1500,1500,1500,1500
1747537494.2019818,0.02,0.03,-0.32,0.0,0.003272492347489368,0.0,-0.023281784235280042,0.10049805091098046,-0.001170955978135991,0,0,0,0,0,0,1500,1500,1500,1500,1500,1500
1747537494.2514627,0.02,0.03,-0.32,0.0,0.003272492347489368,0.0,-0.023281784235280042,0.10049805091098046,-0.001170955978135991,0,0,0,0,0,0,1500,1500,1500,1500,1500,1500
1747537494.2687435,0.02,0.03,-0.32,0.0,0.003272492347489368,0.0,-0.023281784235280042,0.10049805091098046,-0.001170955978135991,0,0,0,0,0,0,1500,1500,1500,1500,1500,1500
1747537494.302038,0.02,0.03,-0.32,0.0,0.003272492347489368,0.0,-0.023281784235280042,0.10049805091098046,-0.001170955978135991,0,0,0,0,0,0,1500,1500,1500,1500,1500,1500
1747537494.3520067,0.03,0.04,-0.35000000000000003,0.002181661564992912,-0.003272492347489368,0.001090830782496456,-0.023281784235280042,0.10049805091098046,-0.001170955978135991,0,0,0,0,0,0,1500,1500,1500,1500,1500,1500
1747537494.3530052,0.03,0.04,-0.35000000000000003,0.002181661564992912,-0.003272492347489368,0.001090830782496456,-0.023281784235280042,0.10049805091098046,-0.001170955978135991,0,0,0,0,0,0,1500,1500,1500,1500,1500,1500
1747537494.3846645,0.03,0.04,-0.35000000000000003,0.002181661564992912,-0.003272492347489368,0.001090830782496456,-0.023281784235280042,0.10049805091098046,-0.001170955978135991,0,0,0,0,0,0,1500,1500,1500,1500,1500,1500
1747537494.4516637,0.03,0.04,-0.35000000000000003,0.002181661564992912,-0.003272492347489368,0.001090830782496456,-0.023281784235280042,0.10049805091098046,-0.001170955978135991,0,0,0,0,0,0,1500,1500,1500,1500,1500,1500
1747537494.4531195,0.03,0.04,-0.35000000000000003,0.002181661564992912,-0.003272492347489368,0.001090830782496456,-0.023281784235280042,0.10049805091098046,-0.001170955978135991,0,0,0,0,0,0,1500,1500,1500,1500,1500,1500
1747537494.4811845,0.02,0.0,-0.31,-0.001090830782496456,0.002181661564992912,0.0,-0.023281784235280042,0.10049805091098046,-0.001170955978135991,0,0,0,0,0,0,1500,1500,1500,1500,1500,1500
1747537494.5514581,0.02,0.0,-0.31,-0.001090830782496456,0.002181661564992912,0.0,-0.023281784235280042,0.10049805091098046,-0.001170955978135991,0,0,0,0,0,0,1500,1500,1500,1500,1500,1500
1747537494.5529113,0.02,0.0,-0.31,-0.001090830782496456,0.002181661564992912,0.0,-0.023281784235280042,0.10049805091098046,-0.001170955978135991,0,0,0,0,0,0,1500,1500,1500,1500,1500,1500
1747537494.5845664,0.02,0.0,-0.31,-0.001090830782496456,0.002181661564992912,0.0,-0.023281784235280042,0.10049805091098046,-0.001170955978135991,0,0,0,0,0,0,1500,1500,1500,1500,1500,1500
1747537494.6357288,0.02,0.0,-0.31,-0.001090830782496456,0.002181661564992912,0.0,-0.023281784235280042,0.10049805091098046,-0.001170955978135991,0,0,0,0,0,0,1500,1500,1500,1500,1500,1500
1747537494.6367738,0.02,0.0,-0.31,-0.001090830782496456,0.002181661564992912,0.0,-0.023281784235280042,0.10049805091098046,-0.001170955978135991,0,0,0,0,0,0,1500,1500,1500,1500,1500,1500
1747537494.6687813,0.1,-0.75,-0.16,-0.020725784867432664,0.0,-0.004363323129985824,-0.023772017732585592,0.10049805091098046,-0.0011956076596883454,0,0,0,0,0,0,1500,1500,1500,1500,1500,1500
1747537494.734788,0.1,-0.75,-0.16,-0.020725784867432664,0.0,-0.004363323129985824,-0.023772017732585592,0.10049805091098046,-0.0011956076596883454,0,0,0,0,0,0,1500,1500,1500,1500,1500,1500
1747537494.7360396,0.1,-0.75,-0.16,-0.020725784867432664,0.0,-0.004363323129985824,-0.023772017732585592,0.10049805091098046,-0.0011956076596883454,0,0,0,0,0,0,1500,1500,1500,1500,1500,1500
1747537494.7678192,0.1,-0.75,-0.16,-0.020725784867432664,0.0,-0.004363323129985824,-0.023772017732585592,0.10049805091098046,-0.0011956076596883454,0,0,0,0,0,0,1500,1500,1500,1500,1500,1500
1747537494.8354368,-0.08,-0.74,-0.29,-0.019634954084936207,-0.013089969389957472,0.00545415391248228,-0.02218465964281864,0.10037417167064121,-0.0012366436225314894,0,0,0,0,0,0,1500,1500,1500,1500,1500,1500
1747537494.8354368,-0.08,-0.74,-0.29,-0.019634954084936207,-0.013089969389957472,0.00545415391248228,-0.02218465964281864,0.10037417167064121,-0.0012366436225314894,0,0,0,0,0,0,1500,1500,1500,1500,1500,1500
1747537494.8688402,-0.08,-0.74,-0.29,-0.019634954084936207,-0.013089969389957472,0.00545415391248228,-0.02218465964281864,0.10037417167064121,-0.0012366436225314894,0,0,0,0,0,0,1500,1500,1500,1500,1500,1500
1747537494.9356158,-0.08,-0.74,-0.29,-0.019634954084936207,-0.013089969389957472,0.00545415391248228,-0.02218465964281864,0.10037417167064121,-0.0012366436225314894,0,0,0,0,0,0,1500,1500,1500,1500,1500,1500
1747537494.9366128,-0.08,-0.74,-0.29,-0.019634954084936207,-0.013089969389957472,0.00545415391248228,-0.02218465964281864,0.10037417167064121,-0.0012366436225314894,0,0,0,0,0,0,1500,1500,1500,1500,1500,1500
1747537494.968189,-0.08,-0.74,-0.29,-0.019634954084936207,-0.013089969389957472,0.00545415391248228,-0.02218465964281864,0.10037417167064121,-0.0012366436225314894,0,0,0,0,0,0,1500,1500,1500,1500,1500,1500
1747537495.0356357,-1.24,0.44,0.27,-0.10471975511965978,-0.02945243112740431,0.018544123302439753,-0.026118844510447943,0.10037074204311279,-0.001678660875843522,0,0,0,0,0,0,1500,1500,1500,1500,1500,1500
1747537495.0366735,-1.24,0.44,0.27,-0.10471975511965978,-0.02945243112740431,0.018544123302439753,-0.026118844510447943,0.10037074204311279,-0.001678660875843522,0,0,0,0,0,0,1500,1500,1500,1500,1500,1500
1747537495.0688493,-1.24,0.44,0.27,-0.10471975511965978,-0.02945243112740431,0.018544123302439753,-0.026118844510447943,0.10037074204311279,-0.001678660875843522,0,0,0,0,0,0,1500,1500,1500,1500,1500,1500
1747537495.1186907,-1.24,0.44,0.27,-0.10471975511965978,-0.02945243112740431,0.018544123302439753,-0.026118844510447943,0.10037074204311279,-0.001678660875843522,0,0,0,0,0,0,1500,1500,1500,1500,1500,1500
1747537495.1199431,-1.24,0.44,0.27,-0.10471975511965978,-0.02945243112740431,0.018544123302439753,-0.026118844510447943,0.10037074204311279,-0.001678660875843522,0,0,0,0,0,0,1500,1500,1500,1500,1500,1500
1747537495.1523397,0.12,-2.94,0.54,-3.332488040526673,-1.0330167510241437,-0.7657632093125121,-0.2462725113587187,0.033877340587409044,-0.04876163473459324,0,0,0,0,0,0,1500,1500,1500,1500,1500,1500
1747537495.2181027,0.12,-2.94,0.54,-3.332488040526673,-1.0330167510241437,-0.7657632093125121,-0.2462725113587187,0.033877340587409044,-0.04876163473459324,0,0,0,0,0,0,1500,1500,1500,1500,1500,1500
1747537495.2191303,0.12,-2.94,0.54,-3.332488040526673,-1.0330167510241437,-0.7657632093125121,-0.2462725113587187,0.033877340587409044,-0.04876163473459324,0,0,0,0,0,0,1500,1500,1500,1500,1500,1500
1747537495.2513156,0.12,-2.94,0.54,-3.332488040526673,-1.0330167510241437,-0.7657632093125121,-0.2462725113587187,0.033877340587409044,-0.04876163473459324,0,0,0,0,0,0,1500,1500,1500,1500,1500,1500
1747537495.318638,-3.1,-2.0,-0.13,-0.09817477042468103,-0.7624907169650227,0.7941248096574199,-0.5501208627851054,-0.06658249720667007,0.005471205227685202,0,0,0,0,0,0,1500,1500,1500,1500,1500,1500
1747537495.3196912,-3.1,-2.0,-0.13,-0.09817477042468103,-0.7624907169650227,0.7941248096574199,-0.5501208627851054,-0.06658249720667007,0.005471205227685202,0,0,0,0,0,0,1500,1500,1500,1500,1500,1500
1747537495.3514986,-3.1,-2.0,-0.13,-0.09817477042468103,-0.7624907169650227,0.7941248096574199,-0.5501208627851054,-0.06658249720667007,0.005471205227685202,0,0,0,0,0,0,1500,1500,1500,1500,1500,1500
1747537495.402142,-3.1,-2.0,-0.13,-0.09817477042468103,-0.7624907169650227,0.7941248096574199,-0.5501208627851054,-0.06658249720667007,0.005471205227685202,0,0,0,0,0,0,1500,1500,1500,1500,1500,1500
1747537495.4183154,-3.1,-2.0,-0.13,-0.09817477042468103,-0.7624907169650227,0.7941248096574199,-0.5501208627851054,-0.06658249720667007,0.005471205227685202,0,0,0,0,0,0,1500,1500,1500,1500,1500,1500
1747537495.4516168,-2.61,0.33,-0.98,1.1617347833587257,-1.054833366674073,2.011491962923465,-0.4310435914046238,-0.1022455482252456,0.2531308015541847,0,0,0,0,0,0,1500,1500,1500,1500,1500,1500
1747537495.5023744,-2.61,0.33,-0.98,1.1617347833587257,-1.054833366674073,2.011491962923465,-0.4310435914046238,-0.1022455482252456,0.2531308015541847,0,0,0,0,0,0,1500,1500,1500,1500,1500,1500
1747537495.5184312,-2.61,0.33,-0.98,1.1617347833587257,-1.054833366674073,2.011491962923465,-0.4310435914046238,-0.1022455482252456,0.2531308015541847,0,0,0,0,0,0,1500,1500,1500,1500,1500,1500
1747537495.5516787,-2.61,0.33,-0.98,1.1617347833587257,-1.054833366674073,2.011491962923465,-0.4310435914046238,-0.1022455482252456,0.2531308015541847,0,0,0,0,0,0,1500,1500,1500,1500,1500,1500
1747537495.589154,-1.51,-0.76,-2.19,0.5126904677733343,-0.9413869652944415,2.3518311670623593,-0.36940453655088856,-0.10969785998939208,0.6436422986861421,0,0,0,0,0,0,1500,1500,1500,1500,1500,1500
1747537495.6187625,-1.51,-0.76,-2.19,0.5126904677733343,-0.9413869652944415,2.3518311670623593,-0.36940453655088856,-0.10969785998939208,0.6436422986861421,0,0,0,0,0,0,1500,1500,1500,1500,1500,1500
1747537495.635311,-1.51,-0.76,-2.19,0.5126904677733343,-0.9413869652944415,2.3518311670623593,-0.36940453655088856,-0.10969785998939208,0.6436422986861421,0,0,0,0,0,0,1500,1500,1500,1500,1500,1500
1747537495.6850343,-1.51,-0.76,-2.19,0.5126904677733343,-0.9413869652944415,2.3518311670623593,-0.36940453655088856,-0.10969785998939208,0.6436422986861421,0,0,0,0,0,0,1500,1500,1500,1500,1500,1500
1747537495.7185183,-1.51,-0.76,-2.19,0.5126904677733343,-0.9413869652944415,2.3518311670623593,-0.36940453655088856,-0.10969785998939208,0.6436422986861421,0,0,0,0,0,0,1500,1500,1500,1500,1500,1500
1747537495.735017,-1.51,-0.76,-2.19,0.5126904677733343,-0.9413869652944415,2.3518311670623593,-0.36940453655088856,-0.10969785998939208,0.6436422986861421,0,0,0,0,0,0,1500,1500,1500,1500,1500,1500
1747537495.785545,-0.56,-0.62,-2.91,0.4406956361285682,-0.56941366846315,2.232930611770245,-0.3303617590278235,-0.10793459216527793,1.0230979255175032,0,0,0,0,0,0,1500,1500,1500,1500,1500,1500
1747537495.8181498,-0.56,-0.62,-2.91,0.4406956361285682,-0.56941366846315,2.232930611770245,-0.3303617590278235,-0.10793459216527793,1.0230979255175032,0,0,0,0,0,0,1500,1500,1500,1500,1500,1500
1747537495.8348513,-0.56,-0.62,-2.91,0.4406956361285682,-0.56941366846315,2.232930611770245,-0.3303617590278235,-0.10793459216527793,1.0230979255175032,0,0,0,0,0,0,1500,1500,1500,1500,1500,1500
1747537495.8689988,-0.56,-0.62,-2.91,0.4406956361285682,-0.56941366846315,2.232930611770245,-0.3303617590278235,-0.10793459216527793,1.0230979255175032,0,0,0,0,0,0,1500,1500,1500,1500,1500,1500
1747537495.9013603,-0.56,-0.62,-2.91,0.4406956361285682,-0.56941366846315,2.232930611770245,-0.3303617590278235,-0.10793459216527793,1.0230979255175032,0,0,0,0,0,0,1500,1500,1500,1500,1500,1500
1747537495.9186862,0.39,-0.93,-3.27,0.4985096676008804,-0.23889194136672387,1.5587971881874356,-0.2896453711705003,-0.06633221615578443,1.3074563872071912,0,0,0,0,0,0,1500,1500,1500,1500,1500,1500
1747537495.9682918,0.39,-0.93,-3.27,0.4985096676008804,-0.23889194136672387,1.5587971881874356,-0.2896453711705003,-0.06633221615578443,1.3074563872071912,0,0,0,0,0,0,1500,1500,1500,1500,1500,1500
1747537496.001611,0.39,-0.93,-3.27,0.4985096676008804,-0.23889194136672387,1.5587971881874356,-0.2896453711705003,-0.06633221615578443,1.3074563872071912,0,0,0,0,0,0,1500,1500,1500,1500,1500,1500
1747537496.0179665,0.39,-0.93,-3.27,0.4985096676008804,-0.23889194136672387,1.5587971881874356,-0.2896453711705003,-0.06633221615578443,1.3074563872071912,0,0,0,0,0,0,1500,1500,1500,1500,1500,1500
1747537496.064731,1.19,-2.71,-1.02,-0.031634092692397225,-0.6959500392327389,1.0679233360640303,-0.26971585874551735,-0.07748896731787529,1.5283825079805398,0,0,0,0,0,0,1500,1500,1500,1500,1500,1500
1747537496.101659,1.19,-2.71,-1.02,-0.031634092692397225,-0.6959500392327389,1.0679233360640303,-0.26971585874551735,-0.07748896731787529,1.5283825079805398,0,0,0,0,0,0,1500,1500,1500,1500,1500,1500
1747537496.1029146,1.19,-2.71,-1.02,-0.031634092692397225,-0.6959500392327389,1.0679233360640303,-0.26971585874551735,-0.07748896731787529,1.5283825079805398,0,0,0,0,0,0,1500,1500,1500,1500,1500,1500
1747537496.151284,1.19,-2.71,-1.02,-0.031634092692397225,-0.6959500392327389,1.0679233360640303,-0.26971585874551735,-0.07748896731787529,1.5283825079805398,0,0,0,0,0,0,1500,1500,1500,1500,1500,1500
1747537496.201525,1.19,-2.71,-1.02,-0.031634092692397225,-0.6959500392327389,1.0679233360640303,-0.26971585874551735,-0.07748896731787529,1.5283825079805398,0,0,0,0,0,0,1500,1500,1500,1500,1500,1500
1747537496.2028291,1.19,-2.71,-1.02,-0.031634092692397225,-0.6959500392327389,1.0679233360640303,-0.26971585874551735,-0.07748896731787529,1.5283825079805398,0,0,0,0,0,0,1500,1500,1500,1500,1500,1500
1747537496.251523,0.65,-0.8200000000000001,-2.6,0.18544123302439752,-0.5170537909033202,0.7199483164476609,-0.27701690068283996,-0.14399348243019908,1.6854239422374846,0,0,0,0,0,0,1500,1500,1500,1500,1500,1500
1747537496.3014033,0.65,-0.8200000000000001,-2.6,0.18544123302439752,-0.5170537909033202,0.7199483164476609,-0.27701690068283996,-0.14399348243019908,1.6854239422374846,0,0,0,0,0,0,1500,1500,1500,1500,1500,1500
1747537496.3024473,0.65,-0.8200000000000001,-2.6,0.18544123302439752,-0.5170537909033202,0.7199483164476609,-0.27701690068283996,-0.14399348243019908,1.6854239422374846,0,0,0,0,0,0,1500,1500,1500,1500,1500,1500
1747537496.351498,0.65,-0.8200000000000001,-2.6,0.18544123302439752,-0.5170537909033202,0.7199483164476609,-0.27701690068283996,-0.14399348243019908,1.6854239422374846,0,0,0,0,0,0,1500,1500,1500,1500,1500,1500
1747537496.3848815,1.22,-1.45,-1.75,0.06217735460229799,-0.557414529855689,-0.41996985126113556,-0.2409283033596492,-0.21286347754776397,1.7244436840801503,0,0,0,0,0,0,1500,1500,1500,1500,1500,1500
1747537496.3858905,1.22,-1.45,-1.75,0.06217735460229799,-0.557414529855689,-0.41996985126113556,-0.2409283033596492,-0.21286347754776397,1.7244436840801503,0,0,0,0,0,0,1500,1500,1500,1500,1500,1500
1747537496.4520545,1.22,-1.45,-1.75,0.06217735460229799,-0.557414529855689,-0.41996985126113556,-0.2409283033596492,-0.21286347754776397,1.7244436840801503,0,0,0,0,0,0,1500,1500,1500,1500,1500,1500
1747537496.4849627,1.22,-1.45,-1.75,0.06217735460229799,-0.557414529855689,-0.41996985126113556,-0.2409283033596492,-0.21286347754776397,1.7244436840801503,0,0,0,0,0,0,1500,1500,1500,1500,1500,1500
1747537496.4859588,1.22,-1.45,-1.75,0.06217735460229799,-0.557414529855689,-0.41996985126113556,-0.2409283033596492,-0.21286347754776397,1.7244436840801503,0,0,0,0,0,0,1500,1500,1500,1500,1500,1500
1747537496.5518646,1.02,-1.44,0.16,-1.3668109704680593,-0.16907877128695067,-0.032724923474893676,-0.34562313911938125,-0.28077096860919265,1.6962876870333303,0,0,0,0,0,0,1500,1500,1500,1500,1500,1500
1747537496.584715,1.02,-1.44,0.16,-1.3668109704680593,-0.16907877128695067,-0.032724923474893676,-0.34562313911938125,-0.28077096860919265,1.6962876870333303,0,0,0,0,0,0,1500,1500,1500,1500,1500,1500
1747537496.5860069,1.02,-1.44,0.16,-1.3668109704680593,-0.16907877128695067,-0.032724923474893676,-0.34562313911938125,-0.28077096860919265,1.6962876870333303,0,0,0,0,0,0,1500,1500,1500,1500,1500,1500
1747537496.6344364,1.02,-1.44,0.16,-1.3668109704680593,-0.16907877128695067,-0.032724923474893676,-0.34562313911938125,-0.28077096860919265,1.6962876870333303,0,0,0,0,0,0,1500,1500,1500,1500,1500,1500
1747537496.6687136,1.02,-1.44,0.16,-1.3668109704680593,-0.16907877128695067,-0.032724923474893676,-0.34562313911938125,-0.28077096860919265,1.6962876870333303,0,0,0,0,0,0,1500,1500,1500,1500,1500,1500
1747537496.6850345,1.02,-1.44,0.16,-1.3668109704680593,-0.16907877128695067,-0.032724923474893676,-0.34562313911938125,-0.28077096860919265,1.6962876870333303,0,0,0,0,0,0,1500,1500,1500,1500,1500,1500
1747537496.7344408,0.75,-1.79,0.84,-0.5988660995905544,-0.5006913291658733,0.2378011105842274,-0.537670256915821,-0.30552353660432857,1.7438878448221276,0,0,0,0,0,0,1500,1500,1500,1500,1500,1500
1747537496.7676775,0.75,-1.79,0.84,-0.5988660995905544,-0.5006913291658733,0.2378011105842274,-0.537670256915821,-0.30552353660432857,1.7438878448221276,0,0,0,0,0,0,1500,1500,1500,1500,1500,1500
1747537496.785553,0.75,-1.79,0.84,-0.5988660995905544,-0.5006913291658733,0.2378011105842274,-0.537670256915821,-0.30552353660432857,1.7438878448221276,0,0,0,0,0,0,1500,1500,1500,1500,1500,1500
1747537496.8347864,0.75,-1.79,0.84,-0.5988660995905544,-0.5006913291658733,0.2378011105842274,-0.537670256915821,-0.30552353660432857,1.7438878448221276,0,0,0,0,0,0,1500,1500,1500,1500,1500,1500
1747537496.8627691,0.7000000000000001,-0.61,0.53,0.09817477042468103,-0.7243116395776468,0.41996985126113556,-0.5841479125953762,-0.3817488837898702,1.8381551425949447,0,0,0,0,0,0,1500,1500,1500,1500,1500,1500
1747537496.8677542,0.7000000000000001,-0.61,0.53,0.09817477042468103,-0.7243116395776468,0.41996985126113556,-0.5841479125953762,-0.3817488837898702,1.8381551425949447,0,0,0,0,0,0,1500,1500,1500,1500,1500,1500
1747537496.9343517,0.7000000000000001,-0.61,0.53,0.09817477042468103,-0.7243116395776468,0.41996985126113556,-0.5841479125953762,-0.3817488837898702,1.8381551425949447,0,0,0,0,0,0,1500,1500,1500,1500,1500,1500
1747537496.9519324,0.7000000000000001,-0.61,0.53,0.09817477042468103,-0.7243116395776468,0.41996985126113556,-0.5841479125953762,-0.3817488837898702,1.8381551425949447,0,0,0,0,0,0,1500,1500,1500,1500,1500,1500
1747537496.968031,0.7000000000000001,-0.61,0.53,0.09817477042468103,-0.7243116395776468,0.41996985126113556,-0.5841479125953762,-0.3817488837898702,1.8381551425949447,0,0,0,0,0,0,1500,1500,1500,1500,1500,1500
1747537497.0353143,-0.06,-0.04,-0.11,0.657770961845363,-0.385063266221249,0.11562806294462433,-0.5530651607087299,-0.4223022720981849,1.9266583264145083,0,0,0,0,0,0,1500,1500,1500,1500,1500,1500
1747537497.051569,-0.06,-0.04,-0.11,0.657770961845363,-0.385063266221249,0.11562806294462433,-0.5530651607087299,-0.4223022720981849,1.9266583264145083,0,0,0,0,0,0,1500,1500,1500,1500,1500,1500
1747537497.0691817,-0.06,-0.04,-0.11,0.657770961845363,-0.385063266221249,0.11562806294462433,-0.5530651607087299,-0.4223022720981849,1.9266583264145083,0,0,0,0,0,0,1500,1500,1500,1500,1500,1500
