time,ay,ax,az,gy,gx,gz,roll,pitch,yaw,cmd_fx,cmd_fy,cmd_fz,cmd_tx,cmd_ty,cmd_tz,pwm_1,pwm_2,pwm_3,pwm_4,pwm_5,pwm_6
1747555363.0145004,0.0,0.0,0.0,0.0,0.0,0.0,0.0,0.0,0.0,0,0,0,0,0,0,1500,1500,1500,1500,1500,1500
1747555363.1031017,-0.03,-0.05,-0.1,0.011999138607461015,0.017453292519943295,0.026179938779914945,2.958468834409218,0.48474333872360953,2.4384900587279215,0,0,0,0,0,0,1500,1500,1500,1500,1500,1500
1747555363.203439,-0.03,-0.05,-0.1,0.011999138607461015,0.017453292519943295,0.026179938779914945,2.958468834409218,0.48474333872360953,2.4384900587279215,0,0,0,0,0,0,1500,1500,1500,1500,1500,1500
1747555363.303635,0.05,0.08,-0.04,0.006544984694978736,-0.011999138607461015,0.02181661564992912,2.958002277908727,0.48333842805577193,2.4339711275213944,0,0,0,0,0,0,1500,1500,1500,1500,1500,1500
1747555363.3874345,0.05,0.08,-0.04,0.006544984694978736,-0.011999138607461015,0.02181661564992912,2.958002277908727,0.48333842805577193,2.4339711275213944,0,0,0,0,0,0,1500,1500,1500,1500,1500,1500
1747555363.4866176,0.12,0.07,-0.06,-0.01090830782496456,-0.014180800172453928,-0.01090830782496456,2.9568810907055325,0.4855312746540489,2.4325030616300043,0,0,0,0,0,0,1500,1500,1500,1500,1500,1500
1747555363.5869465,0.19,-0.05,0.11,0.004363323129985824,-0.004363323129985824,-0.013089969389957472,2.9570048304073575,0.48762006745854153,2.4348671529339416,0,0,0,0,0,0,1500,1500,1500,1500,1500,1500
1747555363.6868324,0.19,-0.05,0.11,0.004363323129985824,-0.004363323129985824,-0.013089969389957472,2.9570048304073575,0.48762006745854153,2.4348671529339416,0,0,0,0,0,0,1500,1500,1500,1500,1500,1500
1747555363.7867837,0.1,-0.08,0.08,0.02181661564992912,-0.003272492347489368,0.004363323129985824,2.9587945396087414,0.48755161396767255,2.435024543936091,0,0,0,0,0,0,1500,1500,1500,1500,1500,1500
1747555363.8704836,0.05,0.0,0.05,0.011999138607461015,0.001090830782496456,0.007635815477475192,2.962194348079664,0.48766982577516105,2.434862320757276,0,0,0,0,0,0,1500,1500,1500,1500,1500,1500
1747555363.970634,0.05,0.0,0.05,0.011999138607461015,0.001090830782496456,0.007635815477475192,2.962194348079664,0.48766982577516105,2.434862320757276,0,0,0,0,0,0,1500,1500,1500,1500,1500,1500
1747555364.0706563,0.09,0.0,0.04,-0.007635815477475192,0.01090830782496456,-0.003272492347489368,2.9625257133468215,0.4865604256395034,2.4349996142199752,0,0,0,0,0,0,1500,1500,1500,1500,1500,1500
1747555364.1697361,0.09,0.0,0.04,-0.007635815477475192,0.01090830782496456,-0.003272492347489368,2.9625257133468215,0.4865604256395034,2.4349996142199752,0,0,0,0,0,0,1500,1500,1500,1500,1500,1500
1747555364.2698658,0.08,-0.1,-0.09,-0.008726646259971648,-0.013089969389957472,-0.014180800172453928,2.9616435445333,0.4867873754614527,2.4360064291206447,0,0,0,0,0,0,1500,1500,1500,1500,1500,1500
1747555364.3545902,0.14,-0.1,-0.01,-0.01090830782496456,-0.04254240051736178,-0.001090830782496456,2.9602217768851635,0.4918594926774502,2.4360351707020285,0,0,0,0,0,0,1500,1500,1500,1500,1500,1500
1747555364.4537194,0.14,-0.1,-0.01,-0.01090830782496456,-0.04254240051736178,-0.001090830782496456,2.9602217768851635,0.4918594926774502,2.4360351707020285,0,0,0,0,0,0,1500,1500,1500,1500,1500,1500
1747555364.553948,0.12,-0.02,0.11,-0.001090830782496456,-0.011999138607461015,0.018544123302439753,2.959099486049424,0.4959583000753374,2.4339132076872456,0,0,0,0,0,0,1500,1500,1500,1500,1500,1500
1747555364.636915,0.12,-0.02,0.11,-0.001090830782496456,-0.011999138607461015,0.018544123302439753,2.959099486049424,0.4959583000753374,2.4339132076872456,0,0,0,0,0,0,1500,1500,1500,1500,1500,1500
1747555364.7371287,0.06,0.04,0.01,0.004363323129985824,0.017453292519943295,0.017453292519943295,2.957659761527186,0.49437711271926305,2.430888835537522,0,0,0,0,0,0,1500,1500,1500,1500,1500,1500
1747555364.8219056,0.08,0.01,-0.05,0.007635815477475192,-0.014180800172453928,-0.001090830782496456,2.957656667228904,0.49422298921604363,2.4302682105157407,0,0,0,0,0,0,1500,1500,1500,1500,1500,1500
1747555364.9206522,0.08,0.01,-0.05,0.007635815477475192,-0.014180800172453928,-0.001090830782496456,2.957656667228904,0.49422298921604363,2.4302682105157407,0,0,0,0,0,0,1500,1500,1500,1500,1500,1500
1747555365.0206816,0.15,-0.03,0.02,0.009817477042468103,-0.025089107997418487,-0.011999138607461015,2.95918421692382,0.49830550893841263,2.4304057188798693,0,0,0,0,0,0,1500,1500,1500,1500,1500,1500
1747555365.1036017,0.15,-0.03,0.02,0.009817477042468103,-0.025089107997418487,-0.011999138607461015,2.95918421692382,0.49830550893841263,2.4304057188798693,0,0,0,0,0,0,1500,1500,1500,1500,1500,1500
1747555365.2047427,0.21,-0.06,0.02,0.0,-0.008726646259971648,-0.011999138607461015,2.960286072862528,0.5014050433418246,2.432414391135331,0,0,0,0,0,0,1500,1500,1500,1500,1500,1500
1747555365.2915862,0.21,-0.07,0.08,-0.001090830782496456,0.013089969389957472,0.00545415391248228,2.9603994261549125,0.500889272992683,2.4326132617126723,0,0,0,0,0,0,1500,1500,1500,1500,1500,1500
1747555365.387343,0.21,-0.07,0.08,-0.001090830782496456,0.013089969389957472,0.00545415391248228,2.9603994261549125,0.500889272992683,2.4326132617126723,0,0,0,0,0,0,1500,1500,1500,1500,1500,1500
1747555365.4875588,0.07,-0.04,-0.04,-0.007635815477475192,0.011999138607461015,0.009817477042468103,2.9605193850317812,0.49809380912012585,2.4328843915962,0,0,0,0,0,0,1500,1500,1500,1500,1500,1500
1747555365.569795,0.07,-0.04,-0.04,-0.007635815477475192,0.011999138607461015,0.009817477042468103,2.9605193850317812,0.49809380912012585,2.4328843915962,0,0,0,0,0,0,1500,1500,1500,1500,1500,1500
1747555365.6707523,0.05,-0.05,-0.1,-0.018544123302439753,-0.01090830782496456,0.00545415391248228,2.958730951232012,0.49760127726912895,2.4329825837384345,0,0,0,0,0,0,1500,1500,1500,1500,1500,1500
1747555365.7662601,0.16,-0.04,0.0,-0.006544984694978736,-0.018544123302439753,0.006544984694978736,2.9565031788219622,0.5000788767240402,2.4323564421743233,0,0,0,0,0,0,1500,1500,1500,1500,1500,1500
1747555365.8546236,0.16,-0.04,0.0,-0.006544984694978736,-0.018544123302439753,0.006544984694978736,2.9565031788219622,0.5000788767240402,2.4323564421743233,0,0,0,0,0,0,1500,1500,1500,1500,1500,1500
1747555365.9540617,0.17,0.0,-0.06,0.00545415391248228,-0.018544123302439753,0.009817477042468103,2.9563189049775036,0.5028761211146118,2.4317908099764876,0,0,0,0,0,0,1500,1500,1500,1500,1500,1500
1747555366.0545592,0.17,0.0,-0.06,0.00545415391248228,-0.018544123302439753,0.009817477042468103,2.9563189049775036,0.5028761211146118,2.4317908099764876,0,0,0,0,0,0,1500,1500,1500,1500,1500,1500
1747555366.1532772,0.16,0.03,0.1,0.007635815477475192,-0.00545415391248228,0.001090830782496456,2.9562048157097665,0.5043391396332324,2.431508700686578,0,0,0,0,0,0,1500,1500,1500,1500,1500,1500
1747555366.254731,0.18,-0.02,0.02,0.003272492347489368,0.007635815477475192,-0.01090830782496456,2.956292171196059,0.504375316618903,2.4318342354879348,0,0,0,0,0,0,1500,1500,1500,1500,1500,1500
1747555366.3376205,0.18,-0.02,0.02,0.003272492347489368,0.007635815477475192,-0.01090830782496456,2.956292171196059,0.504375316618903,2.4318342354879348,0,0,0,0,0,0,1500,1500,1500,1500,1500,1500
1747555366.436921,0.17,-0.1,-0.08,-0.004363323129985824,0.006544984694978736,-0.004363323129985824,2.9572072007719385,0.5031944440317893,2.4333983496877933,0,0,0,0,0,0,1500,1500,1500,1500,1500,1500
1747555366.5370064,0.17,-0.1,-0.08,-0.004363323129985824,0.006544984694978736,-0.004363323129985824,2.9572072007719385,0.5031944440317893,2.4333983496877933,0,0,0,0,0,0,1500,1500,1500,1500,1500,1500
1747555366.6205437,0.18,-0.08,-0.05,0.003272492347489368,-0.017453292519943295,0.013089969389957472,2.9581479562630593,0.5018822223080764,2.43306142295265,0,0,0,0,0,0,1500,1500,1500,1500,1500,1500
1747555366.7161844,0.12,-0.01,0.0,0.0,-0.02399827721492203,0.018544123302439753,2.9567243712410343,0.5035793089435547,2.4290188635096714,0,0,0,0,0,0,1500,1500,1500,1500,1500,1500
1747555366.8205755,0.12,-0.01,0.0,0.0,-0.02399827721492203,0.018544123302439753,2.9567243712410343,0.5035793089435547,2.4290188635096714,0,0,0,0,0,0,1500,1500,1500,1500,1500,1500
1747555366.9206948,0.12,0.0,0.04,-0.006544984694978736,-0.008726646259971648,-0.00545415391248228,2.9560617459683516,0.504712518157328,2.427808003045512,0,0,0,0,0,0,1500,1500,1500,1500,1500,1500
1747555367.0205207,0.12,0.0,0.04,-0.006544984694978736,-0.008726646259971648,-0.00545415391248228,2.9560617459683516,0.504712518157328,2.427808003045512,0,0,0,0,0,0,1500,1500,1500,1500,1500,1500
1747555367.1035898,0.08,-0.05,0.05,-0.004363323129985824,0.006544984694978736,-0.009817477042468103,2.956551915677676,0.5047363005602802,2.4291008104563665,0,0,0,0,0,0,1500,1500,1500,1500,1500,1500
1747555367.2044692,0.1,-0.11,-0.12,0.006544984694978736,0.008726646259971648,0.004363323129985824,2.9571749002825083,0.5041344737053601,2.429517946195383,0,4.808609,0,0,0,0,1540,1540,1540,1500,1500,1500
1747555367.304267,0.1,-0.11,-0.12,0.006544984694978736,0.008726646259971648,0.004363323129985824,2.9571749002825083,0.5041344737053601,2.429517946195383,0,12.5,0,0,0,0,1580,1580,1580,1500,1500,1500
1747555367.4046588,0.19,-0.06,-0.01,0.01090830782496456,-0.008726646259971648,0.018544123302439753,2.9573838015867153,0.5025874319232048,2.427642643497947,0,12.5,0,0,0,0,1620,1620,1620,1500,1500,1500
1747555367.5035298,0.19,-0.06,-0.01,0.01090830782496456,-0.008726646259971648,0.018544123302439753,2.9573838015867153,0.5025874319232048,2.427642643497947,0,12.5,0,0,0,0,1655,1651,1627,1500,1500,1500
1747555367.5871663,0.44,-0.08,0.03,0.03599741582238305,-0.037088246604879506,0.016362461737446838,2.9590617623172415,0.5012844746094435,2.4237954446789205,0,12.5,0,0,0,0,1655,1651,1627,1500,1500,1500
1747555367.6879447,0.89,-0.45,0.54,0.08399397025222712,-0.08508480103472356,0.026179938779914945,2.965540439836398,0.5071588421854527,2.4204064253558544,0,12.5,0,0,0,0,1655,1651,1627,1500,1500,1500
1747555367.7873895,0.89,-0.45,0.54,0.08399397025222712,-0.08508480103472356,0.026179938779914945,2.965540439836398,0.5071588421854527,2.4204064253558544,0,12.5,0,0,0,0,1655,1651,1627,1500,1500,1500
1747555367.8704228,0.64,-0.12,0.13,0.11126473981463851,-0.15489797111449674,0.04908738521234052,2.973940593437233,0.5126689321171212,2.4083797052707614,0,12.5,0,0,0,0,1655,1651,1627,1500,1500,1500
1747555367.9781013,0.64,-0.12,0.13,0.11126473981463851,-0.15489797111449674,0.04908738521234052,2.973940593437233,0.5126689321171212,2.4083797052707614,0,12.5,0,0,0,0,1655,1651,1627,1500,1500,1500
1747555368.0877771,0.66,0.02,-0.38,0.136353847812057,-0.21489366415180183,0.05126904677733343,2.98633719037457,0.5381760897537424,2.393765356132719,0,12.5,0,0,0,0,1655,1651,1627,1500,1500,1500
1747555368.1879675,0.14,-0.23,0.07,0.1439896632895322,-0.25743606466916363,0.04145156973486533,2.999553929031477,0.5703651859344347,2.380018616025815,0,12.5,0,0,0,0,1655,1651,1627,1500,1500,1500
1747555368.2878768,0.14,-0.23,0.07,0.1439896632895322,-0.25743606466916363,0.04145156973486533,2.999553929031477,0.5703651859344347,2.380018616025815,0,12.5,0,0,0,0,1655,1651,1627,1500,1500,1500
1747555368.3712356,0.3,0.0,0.05,0.1559888018969932,-0.33161255787892263,0.04363323129985824,3.0141442963200027,0.6109410772155477,2.365304285767309,0,12.5,0,0,0,0,1655,1651,1627,1500,1500,1500
1747555368.470742,0.11,0.15,-0.22,0.14835298641951802,-0.37742745074377376,0.05890486225480862,3.0270527679396158,0.6641239097103703,2.346889201863185,0,12.5,0,0,0,0,1655,1651,1627,1500,1500,1500
1747555368.5714166,0.11,0.15,-0.22,0.14835298641951802,-0.37742745074377376,0.05890486225480862,3.0270527679396158,0.6641239097103703,2.346889201863185,0,12.5,0,0,0,0,1655,1651,1627,1500,1500,1500
1747555368.6707332,0.53,0.18,0.04,0.15162547876700738,-0.39924406639370286,0.08508480103472356,3.0356307068295463,0.7229443989341605,2.3241103733764894,0,12.5,0,0,0,0,1655,1651,1627,1500,1500,1500
1747555368.760717,0.38,0.01,0.13,0.17453292519943295,-0.4036073895236887,0.11671889372712078,3.0401602175280074,0.7832547562172858,2.294189239346211,0,12.5,0,0,0,0,1655,1651,1627,1500,1500,1500
1747555368.8532944,0.38,0.01,0.13,0.17453292519943295,-0.4036073895236887,0.11671889372712078,3.0401602175280074,0.7832547562172858,2.294189239346211,0,12.5,0,0,0,0,1655,1651,1627,1500,1500,1500
1747555368.953371,0.5,0.1,0.12,0.1908953869368798,-0.43524148221608594,0.14508049407202864,3.0413667553482204,0.8453977420780564,2.2559595289826744,0,12.5,0,0,0,0,1655,1651,1627,1500,1500,1500
1747555369.0536318,0.5,0.1,0.12,0.1908953869368798,-0.43524148221608594,0.14508049407202864,3.0413667553482204,0.8453977420780564,2.2559595289826744,0,12.5,0,0,0,0,1655,1651,1627,1500,1500,1500
1747555369.13846,0.11,0.06,0.54,0.21380283336930536,-0.45814892864851153,0.16253378659197193,3.036683313750174,0.9074487389722714,2.2112170449931976,0,12.5,0,0,0,0,1655,1651,1627,1500,1500,1500
1747555369.228861,0.14,0.19,0.39,0.22471114119426994,-0.47778388273344774,0.17562375598192942,3.0224130490247627,0.9757453789572521,2.1516766719045197,0,12.5,0,0,0,0,1655,1651,1627,1500,1500,1500
1747555369.3197467,0.14,0.19,0.39,0.22471114119426994,-0.47778388273344774,0.17562375598192942,3.0224130490247627,0.9757453789572521,2.1516766719045197,0,12.5,0,0,0,0,1655,1651,1627,1500,1500,1500
1747555369.4198182,0.07,0.03,-0.06,0.20725784867432664,-0.5006913291658733,0.19744037163185854,2.9944809204582596,1.0426068260704193,2.0823413967014024,0,12.5,0,0,0,0,1655,1651,1627,1500,1500,1500
1747555369.52062,0.07,0.03,-0.06,0.20725784867432664,-0.5006913291658733,0.19744037163185854,2.9944809204582596,1.0426068260704193,2.0823413967014024,0,12.5,0,0,0,0,1655,1651,1627,1500,1500,1500
1747555369.6041267,0.26,0.09,-0.09,0.2301652951067522,-0.5268712679457882,0.21925698728178766,2.9417812829595515,1.1156218458860676,1.9844435609085551,0,12.5,0,0,0,0,1655,1651,1627,1500,1500,1500
1747555369.7046602,-0.02,-0.02,0.42,0.2683443724941282,-0.5443245604657315,0.2378011105842274,2.8642103795741507,1.1841971557832798,1.8591814246178369,0,12.5,0,0,0,0,1655,1651,1627,1500,1500,1500
1747555369.8041344,-0.02,-0.02,0.42,0.2683443724941282,-0.5443245604657315,0.2378011105842274,2.8642103795741507,1.1841971557832798,1.8591814246178369,0,12.5,0,0,0,0,1655,1651,1627,1500,1500,1500
1747555369.9046369,-0.04,0.02,-0.15,0.2596177262341565,-0.5748678223756323,0.24980024919168842,2.7248211000107134,1.2532895508521844,1.6675254256807268,0,12.5,0,0,0,0,1655,1651,1627,1500,1500,1500
1747555370.0046992,-0.04,0.02,-0.15,0.2596177262341565,-0.5748678223756323,0.24980024919168842,2.7248211000107134,1.2532895508521844,1.6675254256807268,0,12.5,0,0,0,0,1655,1651,1627,1500,1500,1500
1747555370.0871515,-0.37,-0.12,0.26,0.28361600344907856,-0.5803219762881145,0.2923426497090502,2.492394101894657,1.3094392158443262,1.3806490166234497,0,12.5,0,0,0,0,1655,1651,1627,1500,1500,1500
1747555370.187502,-0.42,0.01,0.26,0.2596177262341565,-0.5661411761156606,0.3010692959690218,2.1494944714994353,1.3364659208097258,0.9841914044855411,0,12.5,0,0,0,0,1655,1651,1627,1500,1500,1500
1747555370.287512,-0.42,0.01,0.26,0.2596177262341565,-0.5661411761156606,0.3010692959690218,2.1494944714994353,1.3364659208097258,0.9841914044855411,0,12.5,0,0,0,0,1655,1651,1627,1500,1500,1500
1747555370.3703423,0.79,0.21,0.02,0.27052603405912107,-0.5748678223756323,0.29888763440402893,1.7965837698147364,1.3283481783537336,0.582712787476587,0,12.5,0,0,0,0,1655,1651,1627,1500,1500,1500
1747555370.4726038,0.79,0.21,0.02,0.27052603405912107,-0.5748678223756323,0.29888763440402893,1.7965837698147364,1.3283481783537336,0.582712787476587,0,2.40468,0,0,0,0,1615,1611,1587,1500,1500,1500
1747555370.5551028,0.64,0.0,0.02,0.27598018797160334,-0.5923211148955756,0.3141592653589793,1.4904514379748965,1.2865628875584525,0.22230141885269497,0,0,0,0,0,0,1575,1571,1547,1500,1500,1500
1747555370.6546729,-0.5700000000000001,-0.03,0.13,0.23452861823673804,-0.595593607243065,0.33052172709642613,1.2940974718544724,1.2246239979031444,-0.02398319728082134,0,0,0,0,0,0,1535,1531,1507,1500,1500,1500
1747555370.7543144,-0.5700000000000001,-0.03,0.13,0.23452861823673804,-0.595593607243065,0.33052172709642613,1.2940974718544724,1.2246239979031444,-0.02398319728082134,0,0,0,0,0,0,1500,1500,1500,1500,1500,1500
1747555370.8381264,-0.61,-0.25,0.06,0.1407171709420428,-0.5890486225480862,0.33052172709642613,1.1583839060651886,1.1492241055053307,-0.19995781756201272,0,0,0,0,0,0,1500,1500,1500,1500,1500,1500
1747555370.9380348,-0.61,-0.25,0.06,0.1407171709420428,-0.5890486225480862,0.33052172709642613,1.1583839060651886,1.1492241055053307,-0.19995781756201272,0,-1.051097,0,0,0,0,1460,1460,1460,1500,1500,1500
1747555371.0371912,-0.16,-0.09,-0.15,0.07853981633974483,-0.5421428989007386,0.35015668118136234,1.0664518153746088,1.0657752515087218,-0.3218207988417424,0,-12.5,0,0,0,-0.062261,1420,1420,1420,1500,1500,1500
1747555371.1214058,-0.1,-0.05,-0.12,0.05781403147231216,-0.4930555136883981,0.36106498900632694,1.0112459286801372,0.981009621776536,-0.39878084689190385,0,-12.5,0,0,0,-0.080689,1380,1380,1380,1500,1500,1500
1747555371.2196643,-0.1,-0.05,-0.12,0.05781403147231216,-0.4930555136883981,0.36106498900632694,1.0112459286801372,0.981009621776536,-0.39878084689190385,0,-12.5,0,0,0,-0.101504,1340,1340,1354,1500,1500,1500
1747555371.3196173,-0.19,-0.06,-0.06,0.039269908169872414,-0.4428772976935611,0.37088246604879505,0.9789874433442254,0.8951456824198094,-0.4482452523119605,0,-12.5,0,0,0,-0.101504,1313,1334,1354,1500,1500,1500
1747555371.4192898,-0.9500000000000001,0.14,-0.07,-0.07526732399225546,-0.4406956361285682,0.39706240482870997,0.95515411991711,0.811366856544673,-0.48101337669030014,0,-12.5,0,0,0,-0.101504,1313,1334,1354,1500,1500,1500
1747555371.519461,-0.9500000000000001,0.14,-0.07,-0.07526732399225546,-0.4406956361285682,0.39706240482870997,0.95515411991711,0.811366856544673,-0.48101337669030014,0,-12.5,0,0,0,-0.101504,1313,1334,1354,1500,1500,1500
1747555371.6037822,-0.34,0.06,-0.32,-0.23889194136672387,-0.33488505022641196,0.26070855701665296,0.9161897977548131,0.7484472023589135,-0.5035823047528047,0,-12.5,0,0,0,-0.101504,1313,1334,1354,1500,1500,1500
1747555371.7039933,-0.34,0.06,-0.32,-0.23889194136672387,-0.33488505022641196,0.26070855701665296,0.9161897977548131,0.7484472023589135,-0.5035823047528047,0,-12.5,0,0,0,-0.062261,1321,1325,1354,1500,1500,1500
1747555371.8042855,0.0,-0.02,-0.47000000000000003,-0.34579335805137656,-0.2279836335417593,0.09381144729469522,0.8573561513993752,0.7053762788504618,-0.5227484744734722,0,0,0,0,0,0,1361,1365,1394,1500,1500,1500
1747555371.9040308,0.55,-0.27,-0.04,-0.35124751196385884,-0.16907877128695067,0.030543261909900768,0.7939946121177444,0.6869373950075702,-0.543077345343202,0,0,0,0,0,0,1401,1405,1434,1500,1500,1500
1747555372.0035903,0.55,-0.27,-0.04,-0.35124751196385884,-0.16907877128695067,0.030543261909900768,0.7939946121177444,0.6869373950075702,-0.543077345343202,0,0,0,0,0,0,1441,1445,1474,1500,1500,1500
1747555372.087571,0.79,-0.29,-0.18,-0.2901609881440573,-0.04799655442984406,0.032724923474893676,0.744036714380591,0.6718807131481018,-0.5502316997972176,0,0,0,0,0,-0.41377,1407,1485,1500,1500,1500,1500
1747555372.1862378,0.79,-0.29,-0.18,-0.2901609881440573,-0.04799655442984406,0.032724923474893676,0.744036714380591,0.6718807131481018,-0.5502316997972176,0,0,0,0,0,-0.7,1377,1525,1500,1500,1500,1500
1747555372.2868068,0.58,0.15,-0.16,-0.2781618495365963,0.017453292519943295,-0.031634092692397225,0.7000394795578544,0.6689213226979593,-0.5503650889574279,0,0,0,0,0,-0.7,1377,1565,1500,1500,1500,1500
1747555372.3703527,0.15,0.15,-0.05,-0.31525009614147576,0.11017390903214205,-0.22252947962927702,0.6475722970741409,0.6878667015660608,-0.5626957039291076,0,0,0,0,0,-0.7,1377,1605,1500,1500,1500,1500
1747555372.470329,0.15,0.15,-0.05,-0.31525009614147576,0.11017390903214205,-0.22252947962927702,0.6475722970741409,0.6878667015660608,-0.5626957039291076,0,1.4e-05,0,0,0,-0.023353,1417,1565,1500,1500,1500,1500
1747555372.570514,0.3,-0.04,-0.2,-0.29561514205653955,0.18980455615438332,-0.31634092692397225,0.5817734845796788,0.7321171140649138,-0.5902534367172332,0,1.4e-05,0,0,0,0,1457,1525,1500,1500,1500,1500
1747555372.6704504,0.3,-0.04,-0.2,-0.29561514205653955,0.18980455615438332,-0.31634092692397225,0.5817734845796788,0.7321171140649138,-0.5902534367172332,0,1.4e-05,0,0,0,0,1497,1500,1500,1500,1500,1500
1747555372.7704523,0.37,-0.23,0.08,-0.2530727415391778,0.18762289458939044,-0.38288160465625604,0.5062386690204302,0.7878917256071335,-0.6380046726231582,0,1.4e-05,0,0,0,0,1500,1500,1500,1500,1500,1500
1747555372.8535228,0.07,-0.14,-0.09,-0.17453292519943295,0.1538071403320003,-0.20398535632683726,0.4493905934716006,0.8275252564594408,-0.6744868467356243,0,1.4e-05,0,0,0,0,1500,1500,1500,1500,1500,1500
1747555372.953395,0.07,-0.14,-0.09,-0.17453292519943295,0.1538071403320003,-0.20398535632683726,0.4493905934716006,0.8275252564594408,-0.6744868467356243,0,1.4e-05,0,0,0,0,1500,1500,1500,1500,1500,1500
1747555373.0537965,0.07,-0.02,-0.03,-0.136353847812057,0.14289883250703572,-0.10035643198967395,0.41398158416463143,0.8573133525063661,-0.6904470424024668,0,1.4e-05,0,0,0,0,1500,1500,1500,1500,1500,1500
1747555373.1371264,0.12,-0.01,-0.09,-0.10362892433716332,0.13962634015954636,-0.04908738521234052,0.39487816736965475,0.8802484300267248,-0.6928406764958436,0,1.4e-05,0,0,0,0,1500,1500,1500,1500,1500,1500
1747555373.236971,0.12,-0.01,-0.09,-0.10362892433716332,0.13962634015954636,-0.04908738521234052,0.39487816736965475,0.8802484300267248,-0.6928406764958436,0,1.4e-05,0,0,-0.263742,0,1500,1500,1500,1500,1460,1460
1747555373.337005,0.07,0.0,-0.08,-0.06544984694978735,0.13308135546456762,0.001090830782496456,0.38858205123209,0.9009292498044855,-0.6842931044710348,0,1.4e-05,0,0,-0.56,0,1500,1500,1500,1500,1420,1420
1747555373.436473,0.07,0.0,-0.08,-0.06544984694978735,0.13308135546456762,0.001090830782496456,0.38858205123209,0.9009292498044855,-0.6842931044710348,0,1.4e-05,0,0,-0.56,0,1500,1500,1500,1500,1391,1391
1747555373.5369246,0.08,0.0,-0.06,-0.03381575425739013,0.12435470920459599,0.038179077387375956,0.39472539490236475,0.9172624640651398,-0.6677001104808172,0,1.4e-05,0,0,0,0,1500,1500,1500,1500,1431,1431
1747555373.6205778,0.38,0.08,-0.21,-0.14944381720201447,0.1265363707695889,0.0818123086872342,0.40780757844796695,0.9309716687063821,-0.6402805402680675,0,1.4e-05,0,0,0,0,1500,1500,1500,1500,1471,1471
1747555373.7205284,0.38,0.08,-0.21,-0.14944381720201447,0.1265363707695889,0.0818123086872342,0.40780757844796695,0.9309716687063821,-0.6402805402680675,0,1.4e-05,0,0,0,0,1500,1500,1500,1500,1500,1500
1747555373.8204691,0.25,-0.08,-0.02,-0.2628902185816459,0.11562806294462433,0.09381144729469522,0.40051226771064485,0.9425935355862337,-0.6042344174384046,3,1.4e-05,0,0,0,0,1540,1460,1500,1540,1540,1540
1747555373.9201102,0.25,-0.08,-0.02,-0.2628902185816459,0.11562806294462433,0.09381144729469522,0.40051226771064485,0.9425935355862337,-0.6042344174384046,3,1.4e-05,0,0,0,0,1564,1429,1500,1580,1580,1580
1747555374.0197628,-0.02,-0.03,0.0,-0.14180800172453928,0.10799224746714914,0.10690141668465268,0.40000430400436754,0.9514865178558227,-0.5704488946044474,3,1.4e-05,0,0,0,0,1564,1429,1500,1620,1590,1590
1747555374.1042602,0.23,0.01,0.04,0.10035643198967395,0.08835729338221293,0.11780972450961724,0.4171228443668945,0.9589830376616276,-0.5329825482277263,3,1.4e-05,0,0,0,0,1564,1429,1500,1620,1590,1590
1747555374.2044346,0.23,0.01,0.04,0.10035643198967395,0.08835729338221293,0.11780972450961724,0.4171228443668945,0.9589830376616276,-0.5329825482277263,3,1.4e-05,0,0,0,0,1564,1429,1500,1620,1590,1590
1747555374.3047493,-0.04,0.36,-0.01,0.45160394395353276,0.10362892433716332,0.1930770485018727,0.5081446561536989,0.9595876049830231,-0.4828996235318015,3,1.4e-05,0,0,0,0,1564,1429,1500,1620,1590,1590
1747555374.4046755,-0.1,0.11,-0.07,0.3665191429188092,0.14180800172453928,0.15707963267948966,0.619061777770051,0.9607619571059302,-0.4235871624082626,3,1.4e-05,0,0,0,0,1564,1429,1500,1620,1590,1590
1747555374.5037048,-0.1,0.11,-0.07,0.3665191429188092,0.14180800172453928,0.15707963267948966,0.619061777770051,0.9607619571059302,-0.4235871624082626,3,1.4e-05,0,0,0,0,1564,1429,1500,1620,1590,1590
1747555374.586898,0.16,0.15,-0.05,0.3141592653589793,0.16798794050445423,0.12217304763960307,0.7137358084163318,0.9657429370729838,-0.3684256259690131,3,1.4e-05,0,0,0,0,1564,1429,1500,1620,1590,1590
1747555374.6876066,0.16,0.15,-0.05,0.3141592653589793,0.16798794050445423,0.12217304763960307,0.7137358084163318,0.9657429370729838,-0.3684256259690131,3,1.4e-05,0,0,0,0,1564,1429,1500,1620,1590,1590
1747555374.7866368,0.0,-0.1,-0.12,0.28034351110158917,0.1832595714594046,0.09490227807719166,0.8064023787055986,0.9736289923495558,-0.31191675416600556,3,1.4e-05,0,0,0,0,1564,1429,1500,1620,1590,1590
1747555374.8710601,0.27,0.1,-0.13,0.23234695667174513,0.21489366415180183,0.06872233929727672,0.8778393899723026,0.9627681343072902,-0.264194618555234,3,1.4e-05,0,0,0,0,1564,1429,1500,1620,1590,1590
1747555374.9701855,0.27,0.1,-0.13,0.23234695667174513,0.21489366415180183,0.06872233929727672,0.8778393899723026,0.9627681343072902,-0.264194618555234,3,1.4e-05,0,0,0,0,1564,1429,1500,1620,1590,1590
1747555375.070253,0.31,0.18,-0.09,0.22252947962927702,0.23889194136672387,0.02945243112740431,0.9739904503475385,0.9988431006666882,-0.19696166012009442,3,1.4e-05,0,0,0,0,1564,1429,1500,1620,1590,1590
1747555375.1705713,-0.12,-0.05,-0.09,0.2530727415391778,0.2476185876266955,0.017453292519943295,1.065745720350985,1.0152339230275191,-0.13157029402426504,3,1.4e-05,0,0,0,0,1564,1429,1500,1620,1590,1590
1747555375.270327,-0.12,-0.05,-0.09,0.2530727415391778,0.2476185876266955,0.017453292519943295,1.065745720350985,1.0152339230275191,-0.13157029402426504,3,1.4e-05,0,0,0,0,1564,1429,1500,1620,1590,1590
1747555375.3532975,0.15,0.08,-0.06,0.2781618495365963,0.26070855701665296,0.015271630954950384,1.1684535057085268,1.0305734244087423,-0.06015358255847829,3,1.4e-05,0,0,0,0,1564,1429,1500,1620,1590,1590
1747555375.4539275,0.15,0.08,-0.06,0.2781618495365963,0.26070855701665296,0.015271630954950384,1.1684535057085268,1.0305734244087423,-0.06015358255847829,3,1.4e-05,0,0,0,0,1564,1429,1500,1620,1590,1590
1747555375.5531158,0.29,-0.04,-0.07,0.2977968036215325,0.2694352032766246,0.0,1.27166699110673,1.0434016105085857,0.011311181744598232,3,1.4e-05,0,0,0,0,1564,1429,1500,1620,1590,1590
1747555375.6337032,0.07,-0.22,-0.05,0.3327033886614191,0.2617993877991494,-0.004363323129985824,1.3901869251490921,1.0534686791541972,0.09154577645509328,3,1.4e-05,0,0,0,0,1564,1429,1500,1620,1590,1590
1747555375.737795,0.07,-0.22,-0.05,0.3327033886614191,0.2617993877991494,-0.004363323129985824,1.3901869251490921,1.0534686791541972,0.09154577645509328,3,1.4e-05,0,0,0,0,1564,1429,1500,1620,1590,1590
1747555375.83664,0.21,-0.1,-0.02,0.3763366199612773,0.2617993877991494,-0.004363323129985824,1.5083742085640655,1.0581606142704656,0.16811528833456266,3,1.4e-05,0,0,0,0,1564,1429,1500,1620,1590,1590
1747555375.9369698,0.21,-0.1,-0.02,0.3763366199612773,0.2617993877991494,-0.004363323129985824,1.5083742085640655,1.0581606142704656,0.16811528833456266,3,1.4e-05,0,0,0,0,1564,1429,1500,1620,1590,1590
1747555376.0369852,0.09,-0.2,-0.07,0.3981532356112064,0.2530727415391778,0.007635815477475192,1.638699976390754,1.058044039143419,0.24817916585730557,3,1.4e-05,0,0,0,0,1564,1429,1500,1620,1590,1590
1747555376.1199706,0.36,-0.05,-0.04,0.4068798818711781,0.2476185876266955,0.011999138607461015,1.7601696640510889,1.0523499301547286,0.31998759406404326,3,1.4e-05,0,0,0,0,1564,1429,1500,1620,1590,1590
1747555376.2203922,0.36,-0.05,-0.04,0.4068798818711781,0.2476185876266955,0.011999138607461015,1.7601696640510889,1.0523499301547286,0.31998759406404326,3,1.4e-05,0,0,0,0,1564,1429,1500,1620,1590,1590
1747555376.3194668,0.1,0.0,-0.12,0.41015237421866746,0.24652775684419906,0.02181661564992912,1.8863315836719368,1.0399327276248338,0.3927640922465158,3,1.4e-05,0,0,0,0,1564,1429,1500,1620,1590,1590
1747555376.4194546,0.1,0.0,-0.12,0.41015237421866746,0.24652775684419906,0.02181661564992912,1.8863315836719368,1.0399327276248338,0.3927640922465158,3,1.4e-05,0,0,0,0,1564,1429,1500,1620,1590,1590
1747555376.5206172,0.1,-0.27,-0.03,0.4276056667386107,0.2454369260617026,0.025089107997418487,2.0097717326675144,1.0223019784418907,0.45999385129645426,3,1.4e-05,0,0,0,0,1564,1429,1500,1620,1590,1590
1747555376.6043115,0.22,0.04,-0.15,0.43196898986859655,0.2476185876266955,0.03599741582238305,2.1272998465648314,0.9991780455582371,0.5198276517813892,3,1.4e-05,0,0,0,0,1564,1429,1500,1620,1590,1590
1747555376.7032728,0.22,0.04,-0.15,0.43196898986859655,0.2476185876266955,0.03599741582238305,2.1272998465648314,0.9991780455582371,0.5198276517813892,3,1.4e-05,0,0,0,0,1564,1429,1500,1620,1590,1590
1747555376.8040543,0.33,-0.13,-0.17,0.41015237421866746,0.24107360293171676,0.04363323129985824,2.228970088415284,0.9746473122617857,0.56740099431794,3,1.4e-05,0,0,0,0,1564,1429,1500,1620,1590,1590
1747555376.9039824,0.12,-0.31,0.01,0.3981532356112064,0.24434609527920614,0.03599741582238305,2.3280595037017657,0.9452739618299026,0.6113777773274803,3,1.4e-05,0,0,0,0,1564,1429,1500,1620,1590,1590
1747555377.0040112,0.12,-0.31,0.01,0.3981532356112064,0.24434609527920614,0.03599741582238305,2.3280595037017657,0.9452739618299026,0.6113777773274803,3,1.4e-05,0,0,0,0,1564,1429,1500,1620,1590,1590
1747555377.0870185,0.26,-0.19,-0.12,0.36760997370130566,0.24870941840919197,0.04581489286485115,2.412182156048623,0.914927748160991,0.6462469097115052,3,1.4e-05,0,0,0,0,1564,1429,1500,1620,1590,1590
1747555377.1865373,0.26,-0.19,-0.12,0.36760997370130566,0.24870941840919197,0.04581489286485115,2.412182156048623,0.914927748160991,0.6462469097115052,3,1.4e-05,0,0,0,0,1564,1429,1500,1620,1590,1590
1747555377.2872138,-0.04,-0.32,0.04,0.37088246604879505,0.24107360293171676,0.04908738521234052,2.49267412157829,0.8797424163507348,0.6767082332608008,3,1.4e-05,0,0,0,0,1564,1429,1500,1620,1590,1590
1747555377.370176,0.28,-0.24,-0.1,0.37742745074377376,0.24434609527920614,0.06654067773228381,2.5639007621270324,0.845457017748123,0.698015811790266,3,1.4e-05,0,0,0,0,1564,1429,1500,1620,1590,1590
1747555377.4697256,0.28,-0.24,-0.1,0.37742745074377376,0.24434609527920614,0.06654067773228381,2.5639007621270324,0.845457017748123,0.698015811790266,3,1.4e-05,0,0,0,0,1564,1429,1500,1620,1590,1590
1747555377.570567,0.31,-0.08,-0.04,0.3567016658763411,0.23452861823673804,0.06435901616729091,2.6335525186607347,0.8083126784301431,0.714390462221305,3,1.4e-05,0,0,0,0,1564,1429,1500,1620,1590,1590
1747555377.6707313,0.31,-0.08,-0.04,0.3567016658763411,0.23452861823673804,0.06435901616729091,2.6335525186607347,0.8083126784301431,0.714390462221305,3,1.4e-05,0,0,0,0,1564,1429,1500,1620,1590,1590
1747555377.7698808,0.16,-0.1,-0.1,0.36760997370130566,0.2279836335417593,0.06981317007977318,2.69841847495602,0.7713176303313445,0.725586544004306,3,1.4e-05,0,0,0,0,1564,1429,1500,1620,1590,1590
1747555377.852707,0.33,-0.16,-0.08,0.3687008044838021,0.2181661564992912,0.08944812416470939,2.7600967359394315,0.734237875526826,0.7302904734341695,3,1.4e-05,0,0,0,0,1564,1429,1500,1620,1590,1590
1747555377.954013,0.33,-0.16,-0.08,0.3687008044838021,0.2181661564992912,0.08944812416470939,2.7600967359394315,0.734237875526826,0.7302904734341695,3,1.4e-05,0,0,0,0,1564,1429,1500,1620,1590,1590
1747555378.0527172,0.15,-0.32,-0.01,0.36760997370130566,0.20943951023931956,0.08835729338221293,2.8129562272621786,0.6999222831059357,0.7291104403881074,0,1.4e-05,0,0,0,0,1524,1469,1500,1580,1550,1550
1747555378.1419728,0.15,-0.32,-0.01,0.36760997370130566,0.20943951023931956,0.08835729338221293,2.8129562272621786,0.6999222831059357,0.7291104403881074,-3,1.4e-05,0,0,0,0,1484,1509,1500,1540,1510,1510
1747555378.2364652,0.0,-0.18,-0.03,0.3534291735288517,0.21162117180431245,0.09490227807719166,2.8666927561936553,0.6640463839549258,0.7248523803303016,-3,1.4e-05,0,0,0,0,1444,1549,1500,1500,1470,1470
1747555378.3377073,0.1,-0.28,-0.14,0.18544123302439752,0.1712604328519436,0.06544984694978735,2.9052830220288866,0.6327214191418774,0.721495561592813,-3,1.4e-05,0,0,0,0,1429,1564,1500,1460,1430,1430
1747555378.4368849,0.1,-0.28,-0.14,0.18544123302439752,0.1712604328519436,0.06544984694978735,2.9052830220288866,0.6327214191418774,0.721495561592813,-3,1.4e-05,0,0,0,0,1429,1564,1500,1420,1399,1399
1747555378.5374756,0.38,-0.13,-0.04,0.11017390903214205,0.11235557059713497,0.04036073895236887,2.9261329637719706,0.6082703047422682,0.7182597461504949,-3,1.4e-05,0,0,0,0,1429,1564,1500,1380,1399,1399
1747555378.6206412,0.34,-0.55,-0.04,0.004363323129985824,0.06654067773228381,-0.04799655442984406,2.9423251283655816,0.5946277236337838,0.723188363655795,-3,1.4e-05,0,0,0,0,1429,1564,1500,1363,1399,1399
1747555378.7222877,0.34,-0.55,-0.04,0.004363323129985824,0.06654067773228381,-0.04799655442984406,2.9423251283655816,0.5946277236337838,0.723188363655795,-3,1.4e-05,0,0,0,0,1429,1564,1500,1363,1399,1399
1747555378.8354635,0.14,-0.36,0.01,-0.16035212502697901,0.05890486225480862,-0.014180800172453928,2.943599335977035,0.5862343637574088,0.7338336810112318,-3,1.4e-05,0,0,0,0,1429,1564,1500,1363,1399,1399
1747555378.937363,0.11,-0.11,0.0,-0.33052172709642613,0.055632369907319255,0.04036073895236887,2.9089042484450642,0.5766006960636972,0.7361009536756156,-3,1.4e-05,0,0,0,0,1429,1564,1500,1363,1399,1399
1747555379.040003,0.11,-0.11,0.0,-0.33052172709642613,0.055632369907319255,0.04036073895236887,2.9089042484450642,0.5766006960636972,0.7361009536756156,-3,1.4e-05,0,0,0,0,1429,1564,1500,1363,1399,1399
1747555379.1371799,-0.02,-0.24,0.01,-0.42215151282612845,0.03599741582238305,0.08508480103472356,2.847141246046036,0.5665847292821135,0.727898329124588,-3,1.4e-05,0,0,0,0,1429,1564,1500,1363,1399,1399
1747555379.2335665,0.14,-0.09,0.0,-0.421060682043632,0.01090830782496456,0.10581058590215622,2.7807464987346084,0.5588838991972651,0.7144134807162721,-3,1.4e-05,0,0,0,0,1429,1564,1500,1363,1399,1399
1747555379.3372076,0.14,-0.09,0.0,-0.421060682043632,0.01090830782496456,0.10581058590215622,2.7807464987346084,0.5588838991972651,0.7144134807162721,-3,1.4e-05,0,0,0,0,1429,1564,1500,1363,1399,1399
1747555379.4375184,0.25,-0.06,-0.03,-0.42978732830360367,0.0,0.11562806294462433,2.711827266219936,0.5514592792881163,0.6978801119037449,-3,1.4e-05,0,0,0,0,1429,1564,1500,1363,1399,1399
1747555379.5370288,0.25,-0.06,-0.03,-0.42978732830360367,0.0,0.11562806294462433,2.711827266219936,0.5514592792881163,0.6978801119037449,-3,1.4e-05,0,0,0,0,1429,1564,1500,1363,1399,1399
1747555379.6197836,0.25,-0.06,0.03,-0.4461497900410505,-0.01090830782496456,0.12871803233458182,2.633868270273675,0.5422730582950325,0.6785115888720747,-3,1.4e-05,0,0,0,0,1429,1564,1500,1363,1399,1399
1747555379.7202616,0.21,-0.18,0.13,-0.4657847441259867,-0.04036073895236887,0.12980886311707826,2.5574344338283104,0.534597686742931,0.657912069612801,-3,1.4e-05,0,0,0,0,1429,1564,1500,1363,1399,1399
1747555379.820079,0.21,-0.18,0.13,-0.4657847441259867,-0.04036073895236887,0.12980886311707826,2.5574344338283104,0.534597686742931,0.657912069612801,-3,1.4e-05,0,0,0,0,1429,1564,1500,1363,1399,1399
1747555379.919452,0.3,-0.04,0.02,-0.4788747135159442,-0.05890486225480862,0.11453723216212788,2.472619673114579,0.5285133194205988,0.6347908075771405,-3,1.4e-05,0,0,0,0,1429,1564,1500,1363,1399,1399
1747555380.0216691,0.3,-0.04,0.02,-0.4788747135159442,-0.05890486225480862,0.11453723216212788,2.472619673114579,0.5285133194205988,0.6347908075771405,-3,1.4e-05,0,0,0,0,1429,1564,1500,1363,1399,1399
1747555380.1033177,0.0,-0.08,0.24,-0.5050546522958591,-0.05890486225480862,0.09381144729469522,2.3859807911718702,0.5243390920755904,0.6132516481768766,-3,1.4e-05,0,0,0,0,1429,1564,1500,1363,1399,1399
1747555380.2035916,0.1,-0.19,0.05,-0.5377795757707527,-0.05781403147231216,0.06763150851478027,2.296434100884831,0.5217897545161493,0.5955912024765643,-3,1.4e-05,0,0,0,0,1429,1564,1500,1363,1399,1399
1747555380.303578,0.1,-0.19,0.05,-0.5377795757707527,-0.05781403147231216,0.06763150851478027,2.296434100884831,0.5217897545161493,0.5955912024765643,-3,1.4e-05,0,0,0,0,1429,1564,1500,1363,1399,1399
1747555380.3874476,0.14,-0.13,0.22,-0.5475970528132209,-0.06654067773228381,0.04690572364734761,2.210577074978554,0.5202189485530316,0.5815057950035295,-3,1.4e-05,0,0,0,0,1429,1564,1500,1363,1399,1399
1747555380.482251,0.32,-0.15,0.02,-0.5312345910757741,-0.08072147790473774,0.028361600344907856,2.119776944392713,0.521157480365175,0.5669556293050477,-3,1.4e-05,0,0,0,0,1429,1564,1500,1363,1399,1399
1747555380.5865753,0.32,-0.15,0.02,-0.5312345910757741,-0.08072147790473774,0.028361600344907856,2.119776944392713,0.521157480365175,0.5669556293050477,-3,1.4e-05,0,0,0,0,1429,1564,1500,1363,1399,1399
1747555380.6870735,0.34,-0.14,0.09,-0.49414634447089456,-0.08399397025222712,-0.002181661564992912,2.039230786467774,0.5255548012665916,0.5536963028540326,-3,1.4e-05,0,0,0,0,1429,1564,1500,1363,1399,1399
1747555380.7861543,0.34,-0.14,0.09,-0.49414634447089456,-0.08399397025222712,-0.002181661564992912,2.039230786467774,0.5255548012665916,0.5536963028540326,-3,1.4e-05,0,0,0,0,1429,1564,1500,1363,1399,1399
1747555380.8699205,0.12,-0.27,0.17,-0.4636030825609938,-0.08944812416470939,-0.032724923474893676,1.958276299327973,0.533654550302667,0.5396749890338898,-3,1.4e-05,0,0,0,0,1429,1564,1500,1363,1399,1399
1747555380.970524,0.33,-0.24,0.02,-0.4428772976935611,-0.08399397025222712,-0.05345070834232634,1.8866502874014541,0.5439063855372449,0.5280289496216066,-3,1.4e-05,0,0,0,0,1429,1564,1500,1363,1399,1399
1747555381.0708604,0.33,-0.24,0.02,-0.4428772976935611,-0.08399397025222712,-0.05345070834232634,1.8866502874014541,0.5439063855372449,0.5280289496216066,-3,1.4e-05,0,0,0,0,1429,1564,1500,1363,1399,1399
1747555381.16998,0.37,-0.18,0.08,-0.42542400517361784,-0.08399397025222712,-0.06763150851478027,1.8137348584172603,0.5565465808513341,0.5159279795633458,-3,1.4e-05,0,0,0,0,1429,1564,1500,1363,1399,1399
1747555381.2588754,0.25,-0.22,0.06,-0.38288160465625604,-0.08944812416470939,-0.06544984694978735,1.7487078327351673,0.5686656042548417,0.5039709156538217,-3,1.4e-05,0,0,0,0,1429,1564,1500,1363,1399,1399
1747555381.3538463,0.25,-0.22,0.06,-0.38288160465625604,-0.08944812416470939,-0.06544984694978735,1.7487078327351673,0.5686656042548417,0.5039709156538217,-3,1.4e-05,0,0,0,0,1429,1564,1500,1363,1399,1399
1747555381.4531357,0.24,-0.28,0.24,-0.36106498900632694,-0.09053895494720585,-0.061086523819801536,1.6833939675473109,0.5806727998104977,0.4896028993250625,-3,1.4e-05,0,0,0,0,1429,1564,1500,1363,1399,1399
1747555381.552979,0.24,-0.28,0.24,-0.36106498900632694,-0.09053895494720585,-0.061086523819801536,1.6833939675473109,0.5806727998104977,0.4896028993250625,-3,1.4e-05,0,0,0,0,1429,1564,1500,1363,1399,1399
1747555381.6359825,0.25,-0.22,0.09,-0.35997415822383044,-0.08399397025222712,-0.05890486225480862,1.6180088034003313,0.5900637846504362,0.4737142600120164,-3,1.4e-05,0,0,0,0,1429,1564,1500,1363,1399,1399
1747555381.733293,0.48,-0.21,0.13,-0.32179508083645453,-0.08617563181722002,-0.06435901616729091,1.5561430227244906,0.5994878795365084,0.45743863449421784,-3,1.4e-05,0,0,0,0,1429,1564,1500,1363,1399,1399
1747555381.8363025,0.48,-0.21,0.13,-0.32179508083645453,-0.08617563181722002,-0.06435901616729091,1.5561430227244906,0.5994878795365084,0.45743863449421784,0,1.4e-05,0,0,0,0,1469,1524,1500,1403,1439,1439
1747555381.9366772,0.29,-0.22,0.04,-0.30652344988150415,-0.08835729338221293,-0.06654067773228381,1.5000249657978653,0.6083430113234176,0.4403770906094213,0,1.4e-05,0,0,0,0,1500,1500,1500,1443,1479,1479
1747555382.0366251,0.29,-0.22,0.04,-0.30652344988150415,-0.08835729338221293,-0.06654067773228381,1.5000249657978653,0.6083430113234176,0.4403770906094213,0,1.4e-05,0,0,0,0,1500,1500,1500,1483,1500,1500
1747555382.1198382,-0.47000000000000003,-0.13,0.18,-0.19198621771937624,-0.08508480103472356,-0.04363323129985824,1.4441162977566184,0.6148194785520927,0.42060431272135546,0,1.4e-05,0,0,0,0,1500,1500,1500,1500,1500,1500
1747555382.2201903,0.21,0.0,0.17,0.019634954084936207,-0.05890486225480862,-0.050178215994836975,1.4270571882626026,0.6190208825545034,0.4065235435553389,0,1.4e-05,0,0,0,0,1500,1500,1500,1500,1500,1500
1747555382.3191214,0.21,0.0,0.17,0.019634954084936207,-0.05890486225480862,-0.050178215994836975,1.4270571882626026,0.6190208825545034,0.4065235435553389,0,1.4e-05,0,0,0,0,1500,1500,1500,1500,1500,1500
1747555382.4030733,0.17,-0.18,0.02,0.13526301702956053,-0.03381575425739013,-0.05672320068981571,1.432525534427147,0.6252121824774869,0.39541757677540945,0,1.4e-05,0,0,0,0,1500,1500,1500,1500,1500,1500
1747555382.503457,0.17,-0.18,0.02,0.13526301702956053,-0.03381575425739013,-0.05672320068981571,1.432525534427147,0.6252121824774869,0.39541757677540945,0,1.4e-05,0,0,0,0,1500,1500,1500,1500,1500,1500
1747555382.5867205,0.25,-0.13,0.08,0.23234695667174513,-0.02181661564992912,-0.05890486225480862,1.4553990139051365,0.6321526328598672,0.3885493309074162,0,1.4e-05,0,0,0,0,1500,1500,1500,1500,1500,1500
1747555382.6863906,0.19,-0.2,0.0,0.3021601267515183,-0.017453292519943295,-0.05781403147231216,1.4934989703863082,0.6397013459941129,0.3829370505504389,0,1.4e-05,0,0,0,0,1500,1500,1500,1500,1500,1500
1747555382.7875888,0.19,-0.2,0.0,0.3021601267515183,-0.017453292519943295,-0.05781403147231216,1.4934989703863082,0.6397013459941129,0.3829370505504389,0,1.4e-05,0,0,0,0,1500,1500,1500,1500,1500,1500
1747555382.8702395,0.24,-0.14,-0.01,0.3567016658763411,-0.014180800172453928,-0.055632369907319255,1.5430771313492182,0.647866366359086,2.2548634095032076,0,1.4e-05,0,0,0,0,1500,1500,1500,1500,1500,1500
1747555382.9707367,0.24,-0.14,-0.01,0.3567016658763411,-0.014180800172453928,-0.055632369907319255,1.5430771313492182,0.647866366359086,2.2548634095032076,0,1.4e-05,0,0,0,0,1500,1500,1500,1500,1500,1500
1747555383.0695627,0.24,0.12,0.04,0.3981532356112064,-0.016362461737446838,-0.05126904677733343,1.5998173389389296,0.6546506552011337,2.25255559759583,0,1.4e-05,0,0,0,0,1500,1500,1500,1500,1500,1500
1747555383.1538267,0.21,0.1,-0.06,0.4177881896961426,-0.014180800172453928,-0.04690572364734761,1.6573630750963266,0.6577420152766882,2.2516346348817584,0,1.4e-05,0,0,0,0,1500,1500,1500,1500,1500,1500
1747555383.2536623,0.21,0.1,-0.06,0.4177881896961426,-0.014180800172453928,-0.04690572364734761,1.6573630750963266,0.6577420152766882,2.2516346348817584,0,1.4e-05,0,0,0,0,1500,1500,1500,1500,1500,1500
1747555383.3363464,0.24,0.12,0.07,0.42542400517361784,-0.017453292519943295,-0.04145156973486533,1.721831641487517,0.6618398448348813,2.255758698634557,0,1.4e-05,0,0,0,0,1500,1500,1500,1500,1500,1500
1747555383.436283,0.24,0.12,0.07,0.42542400517361784,-0.017453292519943295,-0.04145156973486533,1.721831641487517,0.6618398448348813,2.255758698634557,0,1.4e-05,0,0,0,0,1500,1500,1500,1500,1500,1500
1747555383.5365686,0.18,0.07,-0.07,0.4177881896961426,-0.025089107997418487,-0.038179077387375956,1.7814749844031021,0.6654602421242375,2.2625586394060813,0,1.4e-05,0,0,0,0,1500,1500,1500,1500,1500,1500
1747555383.6200137,0.22,0.08,-0.04,0.39706240482870997,-0.026179938779914945,-0.03490658503988659,1.8391609434026175,0.6695088223311478,2.268607999577316,0,1.4e-05,0,0,0,0,1500,1500,1500,1500,1500,1500
1747555383.720007,0.22,0.08,-0.04,0.39706240482870997,-0.026179938779914945,-0.03490658503988659,1.8391609434026175,0.6695088223311478,2.268607999577316,0,1.4e-05,0,0,0,0,1500,1500,1500,1500,1500,1500
1747555383.8202324,0.14,0.04,-0.05,0.3817907738737596,-0.032724923474893676,-0.0272707695624114,1.8972116751177845,0.6736266504911057,2.277087008506115,0,1.4e-05,0,0,0,0,1500,1500,1500,1500,1500,1500
1747555383.9194858,0.16,0.05,-0.07,0.3490658503988659,-0.03490658503988659,-0.015271630954950384,1.9474460797568787,0.6768560579033481,2.2909394682559907,0,1.4e-05,0,0,0,0,1500,1500,1500,1500,1500,1500
1747555384.0203588,0.16,0.05,-0.07,0.3490658503988659,-0.03490658503988659,-0.015271630954950384,1.9474460797568787,0.6768560579033481,2.2909394682559907,0,1.4e-05,0,0,0,0,1500,1500,1500,1500,1500,1500
1747555384.1030016,0.17,0.03,0.05,0.32070425005395803,-0.032724923474893676,-0.008726646259971648,1.996153799344849,0.6787199522352377,2.299268023647861,0,1.4e-05,0,0,0,0,1500,1500,1500,1500,1500,1500
1747555384.2031994,0.17,0.03,0.05,0.32070425005395803,-0.032724923474893676,-0.008726646259971648,1.996153799344849,0.6787199522352377,2.299268023647861,0,1.4e-05,0,0,0,0,1500,1500,1500,1500,1500,1500
1747555384.3034365,0.1,0.01,-0.05,0.2814343418840856,-0.037088246604879506,0.002181661564992912,2.0387624737154897,0.6801508172098139,2.3056295524038224,0,1.4e-05,0,0,0,0,1500,1500,1500,1500,1500,1500
1747555384.386604,0.1,0.01,-0.05,0.2814343418840856,-0.037088246604879506,0.002181661564992912,2.0387624737154897,0.6801508172098139,2.3056295524038224,0,1.4e-05,0,0,0,0,1500,1500,1500,1500,1500,1500
1747555384.4871864,0.16,0.05,0.06,0.2519819107566813,-0.04363323129985824,0.011999138607461015,2.0752736896805115,0.6816314174245178,2.315926472998092,0,1.4e-05,0,0,0,0,1500,1500,1500,1500,1500,1500
1747555384.5864348,0.12,0.02,0.02,0.22252947962927702,-0.037088246604879506,0.019634954084936207,2.1041502676943464,0.6819770891053053,2.321700032753076,0,1.4e-05,0,0,0,0,1500,1500,1500,1500,1500,1500
1747555384.686981,0.12,0.02,0.02,0.22252947962927702,-0.037088246604879506,0.019634954084936207,2.1041502676943464,0.6819770891053053,2.321700032753076,0,1.4e-05,0,0,0,0,1500,1500,1500,1500,1500,1500
1747555384.7863605,0.17,0.05,-0.01,0.19198621771937624,-0.03490658503988659,0.025089107997418487,2.130930555034751,0.6821516938700202,2.3330809289130046,0,1.4e-05,0,0,0,0,1500,1500,1500,1500,1500,1500
1747555384.8697584,0.17,0.04,0.03,0.16253378659197193,-0.031634092692397225,0.02181661564992912,2.1514283885979215,0.6818988263698844,2.3472606667570086,0,1.4e-05,0,0,0,0,1500,1500,1500,1500,1500,1500
1747555384.9702818,0.17,0.04,0.03,0.16253378659197193,-0.031634092692397225,0.02181661564992912,2.1514283885979215,0.6818988263698844,2.3472606667570086,0,1.4e-05,0,0,0,0,1500,1500,1500,1500,1500,1500
1747555385.0699236,0.13,0.05,-0.04,0.13526301702956053,-0.02399827721492203,0.02181661564992912,2.1701170557572573,0.6810190173404214,2.359741721410532,0,1.4e-05,0,0,0,0,1500,1500,1500,1500,1500,1500
1747555385.1697068,0.18,0.09,-0.02,0.10799224746714914,-0.014180800172453928,0.017453292519943295,2.1848747167884834,0.6799702193545297,2.3743526473335086,0,1.4e-05,0,0,0,0,1500,1500,1500,1500,1500,1500
1747555385.2697315,0.18,0.09,-0.02,0.10799224746714914,-0.014180800172453928,0.017453292519943295,2.1848747167884834,0.6799702193545297,2.3743526473335086,0,1.4e-05,0,0,0,0,1500,1500,1500,1500,1500,1500
1747555385.3528874,0.12,0.03,0.01,0.09053895494720585,-0.004363323129985824,0.013089969389957472,2.1984537353734646,0.6786251074714159,2.389613973584473,0,1.4e-05,0,0,0,0,1500,1500,1500,1500,1500,1500
1747555385.4530725,0.12,0.03,0.01,0.09053895494720585,-0.004363323129985824,0.013089969389957472,2.1984537353734646,0.6786251074714159,2.389613973584473,0,1.4e-05,0,0,0,0,1500,1500,1500,1500,1500,1500
1747555385.553111,0.13,0.09,-0.08,0.06872233929727672,-0.001090830782496456,0.008726646259971648,2.2096564978813453,0.6773915990293209,2.39943926123104,0,1.4e-05,0,0,0,0,1500,1500,1500,1500,1500,1500
1747555385.636185,0.13,0.09,-0.08,0.06872233929727672,-0.001090830782496456,0.008726646259971648,2.2096564978813453,0.6773915990293209,2.39943926123104,0,1.4e-05,0,0,0,0,1500,1500,1500,1500,1500,1500
1747555385.736363,0.18,0.07,0.04,0.050178215994836975,0.006544984694978736,0.007635815477475192,2.218655743304754,0.6770692964997157,2.40144227832871,0,1.4e-05,0,0,0,0,1500,1500,1500,1500,1500,1500
1747555385.836676,0.15,0.06,-0.1,0.037088246604879506,0.014180800172453928,0.003272492347489368,2.225798127157388,0.6760861069659903,2.41410003645246,0,1.4e-05,0,0,0,0,1500,1500,1500,1500,1500,1500
1747555385.9362488,0.15,0.06,-0.1,0.037088246604879506,0.014180800172453928,0.003272492347489368,2.225798127157388,0.6760861069659903,2.41410003645246,0,1.4e-05,0,0,0,0,1500,1500,1500,1500,1500,1500
1747555386.0369003,0.2,0.07,0.01,0.03490658503988659,0.016362461737446838,-0.00545415391248228,2.2328363010300762,0.674527490967466,2.4253472150446336,0,1.4e-05,0,0,0,0,1500,1500,1500,1500,1500,1500
1747555386.1205337,0.14,0.06,-0.1,0.02945243112740431,0.0272707695624114,-0.016362461737446838,2.2402468672136453,0.6734592924269023,2.4364614474842656,0,1.4e-05,0,0,0,0,1500,1500,1500,1500,1500,1500
1747555386.2195153,0.14,0.06,-0.1,0.02945243112740431,0.0272707695624114,-0.016362461737446838,2.2402468672136453,0.6734592924269023,2.4364614474842656,0,1.4e-05,0,0,0,0,1500,1500,1500,1500,1500,1500
1747555386.3189685,0.19,0.09,0.02,0.031634092692397225,0.030543261909900768,-0.026179938779914945,2.2488996179276817,0.673505416850171,2.4481945634666236,0,1.4e-05,0,0,0,0,1500,1500,1500,1500,1500,1500
1747555386.4191296,0.17,0.06,-0.02,-0.002181661564992912,0.0,-0.01090830782496456,2.2549709085573535,0.6739788646430256,2.4512763161224513,0,1.4e-05,0,0,0,0,1500,1500,1500,1500,1500,1500
1747555386.518906,0.17,0.06,-0.02,-0.002181661564992912,0.0,-0.01090830782496456,2.2549709085573535,0.6739788646430256,2.4512763161224513,0,1.4e-05,0,0,0,0,1500,1500,1500,1500,1500,1500
1747555386.603067,0.15,-0.01,-0.25,0.0,-0.002181661564992912,-0.020725784867432664,2.256934308333539,0.6749104568980505,2.455387607939396,0,1.4e-05,0,0,0,0,1500,1500,1500,1500,1500,1500
1747555386.7032185,0.15,-0.01,-0.25,0.0,-0.002181661564992912,-0.020725784867432664,2.256934308333539,0.6749104568980505,2.455387607939396,0,1.4e-05,0,0,0,0,1500,1500,1500,1500,1500,1500
1747555386.8027787,0.14,-0.04,-0.21,0.003272492347489368,0.002181661564992912,-0.02945243112740431,2.260129103475043,0.6758202736754608,2.4669400734810227,0,1.4e-05,0,0,0,0,1500,1500,1500,1500,1500,1500
1747555386.8863628,0.2,-0.07,-0.17,0.004363323129985824,-0.002181661564992912,-0.032724923474893676,2.265246055742081,0.6777014752404663,2.4846424408900036,0,1.4e-05,0,0,0,0,1500,1500,1500,1500,1500,1500
1747555386.9882076,0.2,-0.07,-0.17,0.004363323129985824,-0.002181661564992912,-0.032724923474893676,2.265246055742081,0.6777014752404663,2.4846424408900036,0,1.4e-05,0,0,0,0,1500,1500,1500,1500,1500,1500
1747555387.0697958,0.12,-0.15,-0.2,0.001090830782496456,0.0,-0.038179077387375956,2.2725608025315327,0.6797145604243899,2.4968700496149965,0,1.4e-05,0,0,0,0,1500,1500,1500,1500,1500,1500
1747555387.169894,0.12,-0.15,-0.2,0.001090830782496456,0.0,-0.038179077387375956,2.2725608025315327,0.6797145604243899,2.4968700496149965,0,1.4e-05,0,0,0,0,1500,1500,1500,1500,1500,1500
1747555387.2701046,0.08,-0.17,-0.27,-0.003272492347489368,-0.006544984694978736,-0.04254240051736178,2.2818548953255178,0.6822746480644466,2.505928726651881,0,1.4e-05,0,0,0,0,1500,1500,1500,1500,1500,1500
1747555387.3535378,0.11,-0.16,-0.15,-0.006544984694978736,-0.003272492347489368,-0.04690572364734761,2.292258189178285,0.685647528757283,2.5160550249516036,0,1.4e-05,0,0,0,0,1500,1500,1500,1500,1500,1500
1747555387.4535785,0.11,-0.16,-0.15,-0.006544984694978736,-0.003272492347489368,-0.04690572364734761,2.292258189178285,0.685647528757283,2.5160550249516036,0,1.4e-05,0,0,0,0,1500,1500,1500,1500,1500,1500
1747555387.553539,0.04,-0.2,-0.28,-0.007635815477475192,-0.003272492347489368,-0.04690572364734761,2.3043834834167463,0.6893605275234793,2.5275057765172564,0,1.4e-05,0,0,0,0,1500,1500,1500,1500,1500,1500
1747555387.6524746,0.04,-0.2,-0.28,-0.007635815477475192,-0.003272492347489368,-0.04690572364734761,2.3043834834167463,0.6893605275234793,2.5275057765172564,0,1.4e-05,0,0,0,0,1500,1500,1500,1500,1500,1500
1747555387.756442,0.07,-0.19,-0.15,0.0,0.0,-0.0545415391248228,2.316009583718637,0.6939276828095567,2.538876222925849,0,1.4e-05,0,0,0,0,1500,1500,1500,1500,1500,1500
1747555387.8531795,0.04,-0.24,-0.19,0.002181661564992912,0.002181661564992912,-0.061086523819801536,2.3295289894358864,0.6996318414166383,2.552194777920061,0,1.4e-05,0,0,0,0,1500,1500,1500,1500,1500,1500
1747555387.9581306,0.04,-0.24,-0.19,0.002181661564992912,0.002181661564992912,-0.061086523819801536,2.3295289894358864,0.6996318414166383,2.552194777920061,0,1.4e-05,0,0,0,0,1500,1500,1500,1500,1500,1500
1747555388.05451,0.03,-0.25,-0.31,-0.00545415391248228,0.0,-0.05890486225480862,2.343257923593096,0.7054819896637541,2.5659235868457846,0,1.4e-05,0,0,0,0,1500,1500,1500,1500,1500,1500
1747555388.154093,0.08,-0.25,-0.15,-0.015271630954950384,0.004363323129985824,-0.05890486225480862,2.3579736790168977,0.711467786241326,2.5807008074279043,0,1.4e-05,0,0,0,0,1500,1500,1500,1500,1500,1500
1747555388.2536664,0.08,-0.25,-0.15,-0.015271630954950384,0.004363323129985824,-0.05890486225480862,2.3579736790168977,0.711467786241326,2.5807008074279043,0,1.4e-05,0,0,0,0,1500,1500,1500,1500,1500,1500
1747555388.3370266,0.02,-0.29,-0.26,-0.016362461737446838,0.004363323129985824,-0.05672320068981571,2.3706432394078205,0.7173969644286249,2.595358043537866,0,1.4e-05,0,0,0,0,1500,1500,1500,1500,1500,1500
1747555388.4361331,0.02,-0.29,-0.26,-0.016362461737446838,0.004363323129985824,-0.05672320068981571,2.3706432394078205,0.7173969644286249,2.595358043537866,0,1.4e-05,0,0,0,0,1500,1500,1500,1500,1500,1500
1747555388.5359178,0.05,-0.26,-0.25,-0.015271630954950384,-0.003272492347489368,-0.050178215994836975,2.3836815032712084,0.722594637931143,2.610024559309526,0,1.4e-05,0,0,0,0,1500,1500,1500,1500,1500,1500
1747555388.6224818,0.04,-0.25,-0.15,-0.017453292519943295,-0.002181661564992912,-0.05126904677733343,2.396608033278293,0.7277288283228838,2.624606522671595,0,0,0,0,0,0,1500,1500,1500,1500,1500,1500
1747555388.7203577,0.04,-0.25,-0.15,-0.017453292519943295,-0.002181661564992912,-0.05126904677733343,2.396608033278293,0.7277288283228838,2.624606522671595,0,0,0,0,0,0,1500,1500,1500,1500,1500,1500
1747555388.8199594,-0.01,-0.32,-0.25,-0.020725784867432664,-0.002181661564992912,-0.05345070834232634,2.409016817130558,0.7334214083719013,2.6392904261606778,0,0,0,0,0,0,1500,1500,1500,1500,1500,1500
1747555388.9217534,-0.01,-0.32,-0.25,-0.020725784867432664,-0.002181661564992912,-0.05345070834232634,2.409016817130558,0.7334214083719013,2.6392904261606778,0,0,0,0,0,0,1500,1500,1500,1500,1500,1500
1747555389.0226803,0.02,-0.29,-0.22,-0.016362461737446838,0.003272492347489368,-0.05126904677733343,2.4225148102906804,0.7391999384311584,2.654977004152148,0,0,0,0,0,0,1500,1500,1500,1500,1500,1500
1747555389.104234,0.01,-0.34,-0.16,-0.019634954084936207,0.0,-0.050178215994836975,2.4366111636792174,0.744771718434329,2.670853556490087,0,0,0,0,0,0,1500,1500,1500,1500,1500,1500
1747555389.2036169,0.01,-0.34,-0.16,-0.019634954084936207,0.0,-0.050178215994836975,2.4366111636792174,0.744771718434329,2.670853556490087,0,0,0,0,0,0,1500,1500,1500,1500,1500,1500
1747555389.3026166,0.03,-0.33,-0.21,-0.018544123302439753,0.002181661564992912,-0.04690572364734761,2.4512905500314264,0.7496072258185252,2.6872803351979324,0,0,0,0,0,0,1500,1500,1500,1500,1500,1500
1747555389.3859947,0.03,-0.33,-0.21,-0.018544123302439753,0.002181661564992912,-0.04690572364734761,2.4512905500314264,0.7496072258185252,2.6872803351979324,0,0,0,0,0,0,1500,1500,1500,1500,1500,1500
