time,ay,ax,az,gy,gx,gz,roll,pitch,yaw,cmd_fx,cmd_fy,cmd_fz,cmd_tx,cmd_ty,cmd_tz,pwm_1,pwm_2,pwm_3,pwm_4,pwm_5,pwm_6
1747554205.7677786,0.0,0.0,0.0,0.0,0.0,0.0,0.0,0.0,0.0,0,0,0,0,0,0,1500,1500,1500,1500,1500,1500
1747554205.8606656,-0.01,-0.26,0.13,-0.002181661564992912,0.001090830782496456,-0.00545415391248228,2.0198982637820193,-0.1535782505251917,-0.2439958339835992,0,0,0,0,0,0,1500,1500,1500,1500,1500,1500
1747554205.9607017,-0.01,-0.26,0.13,-0.002181661564992912,0.001090830782496456,-0.00545415391248228,2.0198982637820193,-0.1535782505251917,-0.2439958339835992,0,0,0,0,0,0,1500,1500,1500,1500,1500,1500
1747554206.0618296,-0.09,-0.34,0.04,-0.002181661564992912,-0.004363323129985824,-0.004363323129985824,2.0199429442885037,-0.15356055576959354,-0.24399582666759334,0,0,0,0,0,0,1500,1500,1500,1500,1500,1500
1747554206.1514318,-0.01,-0.25,0.11,0.0,0.002181661564992912,-0.003272492347489368,2.0200919992223256,-0.15345763763818246,-0.24407703815685963,0,0,0,0,0,0,1500,1500,1500,1500,1500,1500
1747554206.2442987,-0.01,-0.25,0.11,0.0,0.002181661564992912,-0.003272492347489368,2.0200919992223256,-0.15345763763818246,-0.24407703815685963,0,0,0,0,0,0,1500,1500,1500,1500,1500,1500
1747554206.3442543,-0.02,-0.03,0.03,0.003272492347489368,0.001090830782496456,-0.001090830782496456,2.0200919992223256,-0.15345763763818246,-0.24407703815685963,0,0,0,0,0,0,1500,1500,1500,1500,1500,1500
1747554206.4443965,-0.02,-0.03,0.03,0.003272492347489368,0.001090830782496456,-0.001090830782496456,2.0200919992223256,-0.15345763763818246,-0.24407703815685963,0,0,0,0,0,0,1500,1500,1500,1500,1500,1500
1747554206.5280294,0.01,0.0,0.0,0.004363323129985824,0.003272492347489368,0.002181661564992912,2.0200919992223256,-0.15345763763818246,-0.24407703815685963,0,0,0,0,0,0,1500,1500,1500,1500,1500,1500
1747554206.6247802,0.03,-0.01,0.0,0.003272492347489368,0.001090830782496456,0.002181661564992912,2.0200919992223256,-0.15345763763818246,-0.24407703815685963,0,0,0,0,0,0,1500,1500,1500,1500,1500,1500
1747554206.72797,0.03,-0.01,0.0,0.003272492347489368,0.001090830782496456,0.002181661564992912,2.0200919992223256,-0.15345763763818246,-0.24407703815685963,0,0,0,0,0,0,1500,1500,1500,1500,1500,1500
1747554206.8274393,-0.02,-0.02,-0.03,0.001090830782496456,-0.003272492347489368,-0.001090830782496456,2.0200919992223256,-0.15345763763818246,-0.24407703815685963,0,0,0,0,0,0,1500,1500,1500,1500,1500,1500
1747554206.9276462,-0.02,-0.02,-0.03,0.001090830782496456,-0.003272492347489368,-0.001090830782496456,2.0200919992223256,-0.15345763763818246,-0.24407703815685963,0,0,0,0,0,0,1500,1500,1500,1500,1500,1500
1747554207.0105462,0.01,0.01,-0.03,-0.00545415391248228,-0.007635815477475192,-0.002181661564992912,2.0200919992223256,-0.15345763763818246,-0.24407703815685963,0,0,0,0,0,0,1500,1500,1500,1500,1500,1500
1747554207.1109414,-0.03,-0.02,-0.05,-0.00545415391248228,-0.003272492347489368,0.001090830782496456,2.0200919992223256,-0.15345763763818246,-0.24407703815685963,0,0,0,0,0,0,1500,1500,1500,1500,1500,1500
1747554207.2112703,-0.03,-0.02,-0.05,-0.00545415391248228,-0.003272492347489368,0.001090830782496456,2.0200919992223256,-0.15345763763818246,-0.24407703815685963,0,0,0,0,0,0,1500,1500,1500,1500,1500,1500
1747554207.310569,-0.02,-0.04,-0.05,-0.002181661564992912,0.001090830782496456,-0.002181661564992912,2.0200919992223256,-0.15345763763818246,-0.24407703815685963,0,0,0,0,0,0,1500,1500,1500,1500,1500,1500
1747554207.41161,-0.02,-0.04,-0.05,-0.002181661564992912,0.001090830782496456,-0.002181661564992912,2.0200919992223256,-0.15345763763818246,-0.24407703815685963,0,0,0,0,0,0,1500,1500,1500,1500,1500,1500
1747554207.494412,0.0,0.0,0.01,-0.003272492347489368,0.002181661564992912,-0.003272492347489368,2.0200919992223256,-0.15345763763818246,-0.24407703815685963,0,0,0,0,0,0,1500,1500,1500,1500,1500,1500
1747554207.5944607,-0.03,-0.01,-0.06,-0.002181661564992912,0.003272492347489368,-0.002181661564992912,2.0200919992223256,-0.15345763763818246,-0.24407703815685963,0,0,0,0,0,0,1500,1500,1500,1500,1500,1500
1747554207.6945481,-0.03,-0.01,-0.06,-0.002181661564992912,0.003272492347489368,-0.002181661564992912,2.0200919992223256,-0.15345763763818246,-0.24407703815685963,0,0,0,0,0,0,1500,1500,1500,1500,1500,1500
1747554207.778034,0.02,0.0,0.03,-0.001090830782496456,0.0,0.002181661564992912,2.0200919992223256,-0.15345763763818246,-0.24407703815685963,0,0,0,0,0,0,1500,1500,1500,1500,1500,1500
1747554207.8771694,0.02,0.0,0.03,-0.001090830782496456,0.0,0.002181661564992912,2.0200919992223256,-0.15345763763818246,-0.24407703815685963,0,0,0,0,0,0,1500,1500,1500,1500,1500,1500
1747554207.962838,-0.03,-0.02,-0.05,0.001090830782496456,0.0,0.002181661564992912,2.0200919992223256,-0.15345763763818246,-0.24407703815685963,0,0,0,0,0,0,1500,1500,1500,1500,1500,1500
1747554208.0614796,0.03,0.02,-0.04,0.00545415391248228,-0.001090830782496456,0.001090830782496456,2.0200919992223256,-0.15345763763818246,-0.24407703815685963,0,0,0,0,0,0,1500,1500,1500,1500,1500,1500
1747554208.1613736,0.03,0.02,-0.04,0.00545415391248228,-0.001090830782496456,0.001090830782496456,2.0200919992223256,-0.15345763763818246,-0.24407703815685963,0,0,0,0,0,0,1500,1500,1500,1500,1500,1500
1747554208.243815,0.03,0.0,0.03,0.00545415391248228,0.0,0.003272492347489368,2.0200919992223256,-0.15345763763818246,-0.24407703815685963,0,0,0,0,0,0,1500,1500,1500,1500,1500,1500
1747554208.3445225,0.03,0.0,0.03,0.00545415391248228,0.0,0.003272492347489368,2.0200919992223256,-0.15345763763818246,-0.24407703815685963,0,0,0,0,0,0,1500,1500,1500,1500,1500,1500
1747554208.4445028,-0.01,0.0,-0.02,0.003272492347489368,-0.002181661564992912,0.002181661564992912,2.0200919992223256,-0.15345763763818246,-0.24407703815685963,0,0,0,0,0,0,1500,1500,1500,1500,1500,1500
1747554208.5267818,0.03,-0.03,0.04,-0.004363323129985824,0.001090830782496456,0.001090830782496456,2.0200919992223256,-0.15345763763818246,-0.24407703815685963,0,0,0,0,0,0,1500,1500,1500,1500,1500,1500
1747554208.628004,0.03,-0.03,0.04,-0.004363323129985824,0.001090830782496456,0.001090830782496456,2.0200919992223256,-0.15345763763818246,-0.24407703815685963,0,0,0,0,0,0,1500,1500,1500,1500,1500,1500
1747554208.728104,-0.02,-0.03,-0.03,0.0,-0.002181661564992912,0.001090830782496456,2.0200919992223256,-0.15345763763818246,-0.24407703815685963,0,0,0,0,0,0,1500,1500,1500,1500,1500,1500
1747554208.828041,-0.02,-0.03,-0.03,0.0,-0.002181661564992912,0.001090830782496456,2.0200919992223256,-0.15345763763818246,-0.24407703815685963,0,0,0,0,0,0,1500,1500,1500,1500,1500,1500
1747554208.928157,0.03,0.0,0.0,0.002181661564992912,0.0,0.0,2.0200919992223256,-0.15345763763818246,-0.24407703815685963,0,0,0,0,0,0,1500,1500,1500,1500,1500,1500
1747554209.0108993,0.01,-0.01,0.02,0.007635815477475192,-0.001090830782496456,-0.001090830782496456,2.0200919992223256,-0.15345763763818246,-0.24407703815685963,0,0,0,0,0,0,1500,1500,1500,1500,1500,1500
1747554209.110398,0.01,-0.01,0.02,0.007635815477475192,-0.001090830782496456,-0.001090830782496456,2.0200919992223256,-0.15345763763818246,-0.24407703815685963,0,0,0,0,0,0,1500,1500,1500,1500,1500,1500
1747554209.210902,-0.01,0.0,-0.04,0.003272492347489368,0.00545415391248228,-0.001090830782496456,2.0200919992223256,-0.15345763763818246,-0.24407703815685963,0,0,0,0,0,0,1500,1500,1500,1500,1500,1500
1747554209.3105743,-0.01,0.0,-0.04,0.003272492347489368,0.00545415391248228,-0.001090830782496456,2.0200919992223256,-0.15345763763818246,-0.24407703815685963,0,0,0,0,0,0,1500,1500,1500,1500,1500,1500
1747554209.4110506,0.01,-0.01,0.0,-0.001090830782496456,-0.003272492347489368,-0.002181661564992912,2.0200919992223256,-0.15345763763818246,-0.24407703815685963,0,0,0,0,0,0,1500,1500,1500,1500,1500,1500
1747554209.494785,-0.01,0.0,-0.04,-0.002181661564992912,0.002181661564992912,-0.004363323129985824,2.0200919992223256,-0.15345763763818246,-0.24407703815685963,0,0,0,0,0,0,1500,1500,1500,1500,1500,1500
1747554209.5942378,-0.01,0.0,-0.04,-0.002181661564992912,0.002181661564992912,-0.004363323129985824,2.0200919992223256,-0.15345763763818246,-0.24407703815685963,0,0,0,0,0,0,1500,1500,1500,1500,1500,1500
1747554209.6945293,0.01,-0.01,0.04,-0.006544984694978736,-0.003272492347489368,-0.004363323129985824,2.0200919992223256,-0.15345763763818246,-0.24407703815685963,0,0,0,0,0,0,1500,1500,1500,1500,1500,1500
1747554209.7945552,0.01,-0.01,0.04,-0.006544984694978736,-0.003272492347489368,-0.004363323129985824,2.0200919992223256,-0.15345763763818246,-0.24407703815685963,0,0,0,0,0,0,1500,1500,1500,1500,1500,1500
1747554209.894364,-0.02,-0.03,-0.04,0.004363323129985824,0.001090830782496456,0.0,2.0200919992223256,-0.15345763763818246,-0.24407703815685963,0,0,0,0,0,0,1500,1500,1500,1500,1500,1500
1747554210.0074816,0.0,0.0,-0.05,0.002181661564992912,0.003272492347489368,0.003272492347489368,2.0200919992223256,-0.15345763763818246,-0.24407703815685963,0,0,0,0,0,0,1500,1500,1500,1500,1500,1500
1747554210.1114974,0.0,0.0,-0.05,0.002181661564992912,0.003272492347489368,0.003272492347489368,2.0200919992223256,-0.15345763763818246,-0.24407703815685963,0,0,0,0,0,0,1500,1500,1500,1500,1500,1500
1747554210.2110622,0.01,0.0,0.05,0.003272492347489368,0.001090830782496456,0.00545415391248228,2.0200919992223256,-0.15345763763818246,-0.24407703815685963,0,0,0,0,0,0,1500,1500,1500,1500,1500,1500
1747554210.3112936,-0.01,0.0,-0.05,-0.004363323129985824,0.003272492347489368,0.004363323129985824,2.0200919992223256,-0.15345763763818246,-0.24407703815685963,0,0,0,0,0,0,1500,1500,1500,1500,1500,1500
1747554210.4105678,-0.01,0.0,-0.05,-0.004363323129985824,0.003272492347489368,0.004363323129985824,2.0200919992223256,-0.15345763763818246,-0.24407703815685963,0,0,0,0,0,0,1500,1500,1500,1500,1500,1500
1747554210.494642,0.02,0.01,0.02,-0.002181661564992912,-0.003272492347489368,0.002181661564992912,2.0200919992223256,-0.15345763763818246,-0.24407703815685963,0,0,0,0,0,0,1500,1500,1500,1500,1500,1500
1747554210.5912468,-0.03,0.0,-0.02,-0.001090830782496456,0.0,0.0,2.0200919992223256,-0.15345763763818246,-0.24407703815685963,0,0,0,0,0,0,1500,1500,1500,1500,1500,1500
1747554210.694956,-0.03,0.0,-0.02,-0.001090830782496456,0.0,0.0,2.0200919992223256,-0.15345763763818246,-0.24407703815685963,0,0,0,0,0,0,1500,1500,1500,1500,1500,1500
1747554210.7955992,0.0,0.0,-0.02,0.0,-0.00545415391248228,-0.002181661564992912,2.0200919992223256,-0.15345763763818246,-0.24407703815685963,0,0,0,0,0,0,1500,1500,1500,1500,1500,1500
1747554210.8944838,0.0,0.0,-0.02,0.0,-0.00545415391248228,-0.002181661564992912,2.0200919992223256,-0.15345763763818246,-0.24407703815685963,0,0,0,0,0,0,1500,1500,1500,1500,1500,1500
1747554210.9783702,0.0,-0.01,0.03,0.002181661564992912,-0.001090830782496456,0.001090830782496456,2.0200919992223256,-0.15345763763818246,-0.24407703815685963,0,0,0,0,0,0,1500,1500,1500,1500,1500,1500
1747554211.078254,0.0,-0.02,-0.05,0.0,0.003272492347489368,-0.003272492347489368,2.0200919992223256,-0.15345763763818246,-0.24407703815685963,0,0,0,0,0,0,1500,1500,1500,1500,1500,1500
1747554211.177655,0.0,-0.02,-0.05,0.0,0.003272492347489368,-0.003272492347489368,2.0200919992223256,-0.15345763763818246,-0.24407703815685963,0,0,0,0,0,0,1500,1500,1500,1500,1500,1500
1747554211.2615047,0.0,-0.01,0.01,-0.001090830782496456,0.004363323129985824,-0.007635815477475192,2.0200919992223256,-0.15345763763818246,-0.24407703815685963,0,0,0,0,0,0,1500,1500,1500,1500,1500,1500
1747554211.3612788,0.0,-0.01,0.01,-0.001090830782496456,0.004363323129985824,-0.007635815477475192,2.0200919992223256,-0.15345763763818246,-0.24407703815685963,0,0,0,0,0,0,1500,1500,1500,1500,1500,1500
1747554211.461038,-0.01,0.0,-0.03,-0.001090830782496456,0.002181661564992912,-0.002181661564992912,2.0200919992223256,-0.15345763763818246,-0.24407703815685963,0,0,0,0,0,0,1500,1500,1500,1500,1500,1500
1747554211.5630243,0.02,0.01,0.06,0.001090830782496456,0.001090830782496456,0.003272492347489368,2.0200919992223256,-0.15345763763818246,-0.24407703815685963,0,0,0,0,0,0,1500,1500,1500,1500,1500,1500
1747554211.6613252,0.02,0.01,0.06,0.001090830782496456,0.001090830782496456,0.003272492347489368,2.0200919992223256,-0.15345763763818246,-0.24407703815685963,0,0,0,0,0,0,1500,1500,1500,1500,1500,1500
1747554211.745786,0.0,0.0,0.03,0.0,0.003272492347489368,0.004363323129985824,2.0200919992223256,-0.15345763763818246,-0.24407703815685963,0,0,0,0,0,0,1500,1500,1500,1500,1500,1500
1747554211.843782,0.0,0.0,0.03,0.0,0.003272492347489368,0.004363323129985824,2.0200919992223256,-0.15345763763818246,-0.24407703815685963,0,0,0,0,0,0,1500,1500,1500,1500,1500,1500
1747554211.9449656,-0.01,0.01,-0.01,-0.001090830782496456,0.003272492347489368,0.001090830782496456,2.0200919992223256,-0.15345763763818246,-0.24407703815685963,-3,0,0,0,0,0,1538,1461,1500,1460,1460,1460
1747554212.0450456,0.01,0.0,0.03,0.0,-0.001090830782496456,-0.002181661564992912,2.0200919992223256,-0.15345763763818246,-0.24407703815685963,-3,0,0,0,0,0,1538,1461,1500,1430,1445,1445
1747554212.144637,0.01,0.0,0.03,0.0,-0.001090830782496456,-0.002181661564992912,2.0200919992223256,-0.15345763763818246,-0.24407703815685963,-3,0,0,0,0,0,1538,1461,1500,1430,1445,1445
1747554212.2284596,-0.17,-0.21,0.12,0.02181661564992912,-0.006544984694978736,-0.007635815477475192,2.020390549100781,-0.15350745671507532,-0.24403014575801088,-3,0,0,0,0,0,1538,1461,1500,1430,1445,1445
1747554212.3282843,-0.17,-0.21,0.12,0.02181661564992912,-0.006544984694978736,-0.007635815477475192,2.020390549100781,-0.15350745671507532,-0.24403014575801088,-3,0,0,0,0,0,1538,1461,1500,1430,1445,1445
1747554212.4282143,0.17,0.06,-0.02,-0.039269908169872414,-0.01090830782496456,0.09708393964218458,2.014998228502168,-0.160979058239581,-0.24861439386606946,-3,0,0,0,0,0,1538,1461,1500,1430,1445,1445
1747554212.5113873,-0.01,-0.07,-0.02,-0.02945243112740431,-0.016362461737446838,0.136353847812057,2.0116012104429064,-0.17615184582814736,-0.2582275544133813,-3,0,0,0,0,0,1538,1461,1500,1430,1445,1445
1747554212.6108618,-0.01,-0.07,-0.02,-0.02945243112740431,-0.016362461737446838,0.136353847812057,2.0116012104429064,-0.17615184582814736,-0.2582275544133813,-3,0,0,0,0,0,1538,1461,1500,1430,1445,1445
1747554212.7120852,0.01,0.0,0.08,-0.04690572364734761,-0.019634954084936207,0.15707963267948966,2.007785202680577,-0.19637193722035207,-0.2709069805403979,-3,0,0,0,0,0,1538,1461,1500,1430,1445,1445
1747554212.8108408,-0.07,-0.09,0.05,-0.06872233929727672,-0.02945243112740431,0.1636246173744684,2.0018636888285153,-0.21606221825623317,-0.28438552395584904,-3,0,0,0,0,0,1538,1461,1500,1430,1445,1445
1747554212.9117699,-0.07,-0.09,0.05,-0.06872233929727672,-0.02945243112740431,0.1636246173744684,2.0018636888285153,-0.21606221825623317,-0.28438552395584904,-3,0,0,0,0,0,1538,1461,1500,1430,1445,1445
1747554212.994546,0.0,-0.03,-0.11,-0.0818123086872342,-0.04036073895236887,0.16253378659197193,1.9933151111066734,-0.2372010447730997,-0.2997887343091531,-3,0,0,0,0,0,1538,1461,1500,1430,1445,1445
1747554213.0950737,0.0,-0.03,-0.11,-0.0818123086872342,-0.04036073895236887,0.16253378659197193,1.9933151111066734,-0.2372010447730997,-0.2997887343091531,-3,0,0,0,0,0,1538,1461,1500,1430,1445,1445
1747554213.1948216,0.05,-0.07,0.05,-0.09381144729469522,-0.05235987755982989,0.16035212502697901,1.9836168496054312,-0.2575390284091081,-0.3169345554175589,-3,0,0,0,0,0,1538,1461,1500,1430,1445,1445
1747554213.2955565,0.1,0.0,-0.09,-0.08726646259971647,-0.06763150851478027,0.16035212502697901,1.9743308245520137,-0.2770260191429423,-0.33597106687004064,-3,0,0,0,0,0,1538,1461,1500,1430,1445,1445
1747554213.3949795,0.1,0.0,-0.09,-0.08726646259971647,-0.06763150851478027,0.16035212502697901,1.9743308245520137,-0.2770260191429423,-0.33597106687004064,-3,0,0,0,0,0,1538,1461,1500,1430,1445,1445
1747554213.4783502,0.08,-0.03,0.05,-0.08835729338221293,-0.07853981633974483,0.16253378659197193,1.9666685849324057,-0.29470667730642813,-0.3555949429471496,-3,0,0,0,0,0,1538,1461,1500,1430,1445,1445
1747554213.5772061,0.08,-0.03,0.05,-0.08835729338221293,-0.07853981633974483,0.16253378659197193,1.9666685849324057,-0.29470667730642813,-0.3555949429471496,-3,0,0,0,0,0,1538,1461,1500,1430,1445,1445
1747554213.6776888,-0.02,-0.09,-0.05,-0.08944812416470939,-0.09926560120717749,0.15489797111449674,1.9594064059082736,-0.3124724946315457,-0.3785860066864839,-3,0,0,0,0,0,1538,1461,1500,1430,1445,1445
1747554213.76192,-0.05,-0.09,-0.03,-0.08944812416470939,-0.10471975511965978,0.14944381720201447,1.9535626283107885,-0.32755518978503184,-0.40176626118699527,-3,0,0,0,0,0,1538,1461,1500,1430,1445,1445
1747554213.8604784,-0.05,-0.09,-0.03,-0.08944812416470939,-0.10471975511965978,0.14944381720201447,1.9535626283107885,-0.32755518978503184,-0.40176626118699527,-3,0,0,0,0,0,1538,1461,1500,1430,1445,1445
1747554213.9615812,0.08,-0.04,-0.08,-0.08835729338221293,-0.1189005552921137,0.1439896632895322,1.9484709845001091,-0.34228175871488775,-0.42828934859009876,-3,0,0,0,0,0,1538,1461,1500,1430,1445,1445
1747554214.0615919,0.0,-0.14,-0.1,-0.08617563181722002,-0.13853550937704992,0.13744467859455345,1.9444436235660922,-0.35442156534859653,-0.45459556751691993,-3,0,0,0,0,0,1538,1461,1500,1430,1445,1445
1747554214.1615763,0.0,-0.14,-0.1,-0.08617563181722002,-0.13853550937704992,0.13744467859455345,1.9444436235660922,-0.35442156534859653,-0.45459556751691993,-3,0,0,0,0,0,1538,1461,1500,1430,1445,1445
1747554214.2446494,-0.04,-0.14,-0.02,-0.07744898555724837,-0.14726215563702155,0.12544553998709243,1.9422354986044483,-0.36543695183282354,-0.4844021554969168,-3,0,0,0,0,0,1538,1461,1500,1430,1445,1445
1747554214.3445678,-0.04,-0.14,-0.02,-0.07744898555724837,-0.14726215563702155,0.12544553998709243,1.9422354986044483,-0.36543695183282354,-0.4844021554969168,-3,0,0,0,0,0,1538,1461,1500,1426,1443,1443
1747554214.444422,0.0,-0.1,-0.1,-0.07635815477475191,-0.1538071403320003,0.11562806294462433,1.941249221913214,-0.3745714796578752,-0.5148179773123475,-3,0,0,0,0,0,1538,1461,1500,1426,1443,1443
1747554214.5280962,0.0,-0.1,-0.1,-0.07635815477475191,-0.1538071403320003,0.11562806294462433,1.941249221913214,-0.3745714796578752,-0.5148179773123475,-3,0,0,0,0,0,1538,1460,1500,1422,1441,1441
1747554214.6281307,0.13,-0.06,-0.2,-0.08944812416470939,-0.1712604328519436,0.11453723216212788,1.9408596523933006,-0.3819015426956901,-0.5467434685411914,-3,0,0,0,0,0,1539,1460,1500,1420,1439,1439
1747554214.7117612,0.13,-0.11,-0.07,-0.09817477042468103,-0.18216874067690814,0.11344640137963143,1.9387186063134043,-0.38814192977724477,-0.5790504964878471,-3,0,0,0,0,0,1539,1460,1500,1416,1435,1435
1747554214.8117752,0.13,-0.11,-0.07,-0.09817477042468103,-0.18216874067690814,0.11344640137963143,1.9387186063134043,-0.38814192977724477,-0.5790504964878471,-3,0,0,0,0,0,1539,1458,1500,1411,1433,1433
1747554214.911358,0.03,-0.18,-0.09,-0.09817477042468103,-0.20180369476184434,0.12217304763960307,1.9393266603534975,-0.3945364214547366,-0.6166064310195405,-3,0,0,0,0,0,1539,1458,1500,1411,1433,1433
1747554214.9943802,0.06,-0.16,-0.06,-0.1308996938995747,-0.21271200258680892,0.1439896632895322,1.9390613656084557,-0.40253158716016746,-0.6550482067327491,-3,0,0,0,0,0,1540,1457,1500,1407,1431,1431
1747554215.094406,0.06,-0.16,-0.06,-0.1308996938995747,-0.21271200258680892,0.1439896632895322,1.9390613656084557,-0.40253158716016746,-0.6550482067327491,-3,0,0,0,0,0,1541,1455,1500,1403,1427,1427
1747554215.1943953,0.01,-0.24,-0.12,-0.16035212502697901,-0.22471114119426994,0.17016960206944712,1.9344984182497338,-0.4143512954513907,-0.6995947372729386,-3,0,0,0,0,0,1543,1454,1500,1398,1423,1423
1747554215.277625,0.01,-0.24,-0.12,-0.16035212502697901,-0.22471114119426994,0.17016960206944712,1.9344984182497338,-0.4143512954513907,-0.6995947372729386,-3,0,0,0,0,0,1544,1452,1500,1393,1420,1420
1747554215.3784833,0.07,-0.07,-0.09,-0.16471544815696484,-0.24216443371421323,0.20180369476184434,1.932178686947469,-0.42906531815214377,-0.7455078488510164,-3,0,0,0,0,0,1544,1452,1500,1393,1420,1420
1747554215.4618664,0.14,-0.22,-0.04,-0.19198621771937624,-0.2454369260617026,0.2519819107566813,1.927459633398869,-0.4503797616809768,-0.799097625304155,-3,0,0,0,0,0,1545,1450,1500,1387,1417,1417
1747554215.561429,0.14,-0.22,-0.04,-0.19198621771937624,-0.2454369260617026,0.2519819107566813,1.927459633398869,-0.4503797616809768,-0.799097625304155,-3,0,0,0,0,0,1547,1448,1500,1380,1413,1413
1747554215.660947,0.14,-0.19,-0.04,-0.21925698728178766,-0.2628902185816459,0.3010692959690218,1.9237426840214868,-0.47834971240418134,-0.8580087436284647,-3,0,0,0,0,0,1548,1447,1500,1374,1408,1408
1747554215.7441792,0.14,-0.19,-0.04,-0.21925698728178766,-0.2628902185816459,0.3010692959690218,1.9237426840214868,-0.47834971240418134,-0.8580087436284647,-3,0,0,0,0,0,1549,1445,1500,1366,1404,1404
1747554215.8449242,-0.05,-0.28,-0.14,-0.27598018797160334,-0.2781618495365963,0.3534291735288517,1.9182770154921018,-0.5131088626506649,-0.9237317333444728,-3,0,0,0,0,0,1549,1445,1500,1366,1404,1404
1747554215.9449995,-0.06,-0.45,-0.06,-0.34470252726888007,-0.2912518189265537,0.41996985126113556,1.9096913251101189,-0.5537452550132747,-0.9921125252369984,-3,0,0,0,0,0,1551,1443,1500,1358,1399,1399
1747554216.043854,-0.06,-0.45,-0.06,-0.34470252726888007,-0.2912518189265537,0.41996985126113556,1.9096913251101189,-0.5537452550132747,-0.9921125252369984,-3,0,0,0,0,0,1553,1441,1500,1352,1394,1394
1747554216.1440802,0.16,-0.28,0.0,-0.41233403578366035,-0.3141592653589793,0.4930555136883981,1.8955146817272825,-0.6060212131688854,-1.0735948065984071,-3,0,0,0,0,0,1555,1439,1500,1342,1388,1388
1747554216.2280445,0.16,-0.28,0.0,-0.41233403578366035,-0.3141592653589793,0.4930555136883981,1.8955146817272825,-0.6060212131688854,-1.0735948065984071,-3,0,0,0,0,0,1558,1435,1500,1331,1382,1382
1747554216.3273053,0.08,-0.35000000000000003,-0.16,-0.48432886742842646,-0.3370667117914049,0.5617778529856748,1.8850872326695711,-0.6672780383158792,-1.1614392487737222,-3,0,0,0,0,0,1558,1435,1500,1331,1382,1382
1747554216.4273705,0.17,-0.35000000000000003,-0.09,-0.5508695451607103,-0.35561083509384467,0.6730425928003133,1.8775473205638025,-0.7466144705178609,-1.2704512717641805,-3,0,0,0,0,0,1558,1435,1500,1331,1382,1382
1747554216.5110238,0.17,-0.35000000000000003,-0.09,-0.5508695451607103,-0.35561083509384467,0.6730425928003133,1.8775473205638025,-0.7466144705178609,-1.2704512717641805,-3,0,0,0,0,0,1558,1435,1500,1331,1382,1382
1747554216.6112473,0.21,-0.37,-0.16,-0.6152285613280012,-0.35124751196385884,0.7384924397501007,1.8771590929118278,-0.8322014293039398,-1.3866206989576162,-3,0,0,0,0,0,1558,1435,1500,1331,1382,1382
1747554216.711662,0.21,-0.37,-0.16,-0.6152285613280012,-0.35124751196385884,0.7384924397501007,1.8771590929118278,-0.8322014293039398,-1.3866206989576162,-3,0,0,0,0,0,1558,1435,1500,1331,1382,1382
1747554216.811143,-0.13,-0.44,-0.07,-0.6664976081053346,-0.3567016658763411,0.7744898555724837,1.88652107537581,-0.928347302577915,-1.5265199051372846,-3,0,0,0,0,0,1558,1435,1500,1331,1382,1382
1747554216.9110992,0.06,-0.29,-0.08,-0.7014041931452212,-0.3327033886614191,0.8083056098298739,1.9160954435164241,-1.0283562266952295,-1.689123957447869,-3,0,0,0,0,0,1558,1435,1500,1331,1382,1382
1747554216.994284,0.06,-0.29,-0.08,-0.7014041931452212,-0.3327033886614191,0.8083056098298739,1.9160954435164241,-1.0283562266952295,-1.689123957447869,-3,0,0,0,0,0,1558,1435,1500,1331,1382,1382
1747554217.0945878,0.38,-0.24,-0.3,-0.7374016089676042,-0.3010692959690218,0.8333947178272924,1.9769210715806238,-1.1288794953865733,-1.8847030828055995,-3,0,0,0,0,0,1558,1435,1500,1331,1382,1382
1747554217.1856778,0.38,-0.24,-0.3,-0.7374016089676042,-0.3010692959690218,0.8333947178272924,1.9769210715806238,-1.1288794953865733,-1.8847030828055995,-3,0,0,0,0,0,1558,1435,1500,1331,1382,1382
1747554217.2776017,-0.32,-0.59,-0.03,-0.7864889941799448,-0.27379852640661045,0.8737554567796613,2.0875998840575223,-1.2220234027049621,-2.1248526589099126,-3,0,0,0,0,0,1558,1435,1500,1331,1382,1382
1747554217.3773155,0.0,-0.56,-0.21,-0.815941425307349,-0.25743606466916363,0.9075712110370514,2.3348555952310344,-1.309567300214928,-2.5131170262410527,-3,0,0,0,0,0,1558,1435,1500,1331,1382,1382
1747554217.4780586,0.0,-0.56,-0.21,-0.815941425307349,-0.25743606466916363,0.9075712110370514,2.3348555952310344,-1.309567300214928,-2.5131170262410527,0,0,0,0,0,0,1518,1475,1500,1371,1422,1422
1747554217.578133,-0.31,-0.9500000000000001,-0.13,-0.8486663487822428,-0.22362031041177347,0.9413869652944415,2.767878926827976,-1.356855085414602,-3.082190673554218,0,0,0,0,0,0,1500,1500,1500,1411,1462,1462
1747554217.6782713,-0.34,-0.53,-0.25,-0.7624907169650227,-0.1810779098944117,0.8333947178272924,-2.9931853490165303,-1.3394586373959534,2.534502470304194,0,0,0,0,0,0,1500,1500,1500,1451,1500,1500
1747554217.7613618,-0.34,-0.53,-0.25,-0.7624907169650227,-0.1810779098944117,0.8333947178272924,-2.9931853490165303,-1.3394586373959534,2.534502470304194,0,-2.404492,0,0,0,0,1460,1460,1460,1491,1500,1500
1747554217.8607094,-0.6900000000000001,-0.33,-0.24,-0.4788747135159442,-0.14289883250703572,0.5792311455056182,-2.719446878733859,-1.2810070887882996,2.155757632711328,0,-12.5,0,0,0,0,1420,1420,1420,1500,1500,1500
1747554217.9605172,-0.6900000000000001,-0.33,-0.24,-0.4788747135159442,-0.14289883250703572,0.5792311455056182,-2.719446878733859,-1.2810070887882996,2.155757632711328,0,-12.5,0,0,0,0,1380,1380,1380,1500,1500,1500
1747554218.060849,-0.18,-0.15,-0.34,-0.4505131131710363,-0.12544553998709243,0.34579335805137656,-2.6324170420942785,-1.2232624050663006,1.989649909203113,0,-12.5,0,0,0,0,1340,1340,1340,1500,1500,1500
1747554218.1616437,-0.58,-0.3,-0.17,-0.45487643630102215,-0.12217304763960307,0.19198621771937624,-2.6340285406843855,-1.1817068626400802,1.921038993397087,0,-12.5,0,0,0,0,1300,1300,1320,1500,1500,1500
1747554218.2440915,-0.58,-0.3,-0.17,-0.45487643630102215,-0.12217304763960307,0.19198621771937624,-2.6340285406843855,-1.1817068626400802,1.921038993397087,0,-12.5,0,0,0,0,1279,1283,1320,1500,1500,1500
1747554218.3441103,-2.24,-0.32,0.42,-0.5214171140333059,-0.11344640137963143,0.08944812416470939,-2.683576019644674,-1.1481125447522298,1.8934782719008791,0,-12.5,0,0,0,0,1279,1283,1320,1500,1500,1500
1747554218.4353013,-1.03,0.0,-0.26,-0.5486878835957173,-0.002181661564992912,-0.015271630954950384,-2.7563318048944923,-1.1247251506320477,1.8894534463051669,0,-12.5,0,0,0,0,1279,1283,1320,1500,1500,1500
1747554218.5275388,-1.03,0.0,-0.26,-0.5486878835957173,-0.002181661564992912,-0.015271630954950384,-2.7563318048944923,-1.1247251506320477,1.8894534463051669,0,-12.5,0,0,0,0,1279,1283,1320,1500,1500,1500
1747554218.6276953,-0.72,-0.22,0.14,-0.543233729683235,0.1559888018969932,-0.06544984694978735,-2.8362865378206337,-1.1298410084618649,1.8842605424090564,0,-12.5,0,0,0,0,1279,1283,1320,1500,1500,1500
1747554218.727009,-0.72,-0.22,0.14,-0.543233729683235,0.1559888018969932,-0.06544984694978735,-2.8362865378206337,-1.1298410084618649,1.8842605424090564,0,-12.5,0,0,0,0,1279,1283,1320,1500,1500,1500
1747554218.8275347,-0.18,-0.19,-0.1,-0.5225079448158024,0.22580197197676638,-0.04036073895236887,-2.9020769615672943,-1.1514303198043319,1.8748911460717288,0,-12.5,0,0,0,0,1279,1283,1320,1500,1500,1500
1747554218.9280634,-0.64,-0.09,-0.04,-0.5639595145506677,0.24325526449670967,-0.04799655442984406,-2.9788959949611393,-1.1850837949802755,1.8679698815741532,0,-12.5,0,0,0,0,1279,1283,1320,1500,1500,1500
1747554219.0121272,-0.64,-0.09,-0.04,-0.5639595145506677,0.24325526449670967,-0.04799655442984406,-2.9788959949611393,-1.1850837949802755,1.8679698815741532,0,-12.5,0,0,0,0,1279,1283,1320,1500,1500,1500
1747554219.1116207,-0.59,-0.15,0.32,-0.5268712679457882,0.20398535632683726,-0.08290313946973066,-3.0725701440095765,-1.2190144738677953,1.8764482763182935,0,-12.5,0,0,0,0,1279,1283,1320,1500,1500,1500
1747554219.2115343,-0.59,-0.15,0.32,-0.5268712679457882,0.20398535632683726,-0.08290313946973066,-3.0725701440095765,-1.2190144738677953,1.8764482763182935,0,-12.5,0,0,0,0,1279,1283,1320,1500,1500,1500
1747554219.3116457,-0.52,0.05,-0.13,-0.49741883681838395,0.15162547876700738,-0.11780972450961724,3.0994671454426426,-1.2435465924139084,1.9120895439207437,0,-12.5,0,0,0,0,1279,1283,1320,1500,1500,1500
1747554219.4116247,-0.3,-0.16,0.18,-0.48651052899341934,0.11344640137963143,-0.10581058590215622,2.977465725960617,-1.2593582771429184,1.9615549043291802,0,-12.5,0,0,0,0,1279,1283,1320,1500,1500,1500
1747554219.4936914,-0.3,-0.16,0.18,-0.48651052899341934,0.11344640137963143,-0.10581058590215622,2.977465725960617,-1.2593582771429184,1.9615549043291802,0,-12.5,0,0,0,0,1279,1283,1320,1500,1500,1500
1747554219.5936618,0.08,-0.23,-0.15,-0.5181446216858165,0.06544984694978735,-0.08508480103472356,2.8729493033195643,-1.2659125672163318,1.9957174105361664,0,-12.5,0,0,0,0,1279,1283,1320,1500,1500,1500
1747554219.6904309,-0.04,-0.4,0.02,-0.5214171140333059,0.04145156973486533,-0.028361600344907856,2.7747768517392406,-1.2694014284321253,2.01480870524321,0,-12.5,0,0,0,0,1279,1283,1320,1500,1500,1500
1747554219.7782795,-0.04,-0.4,0.02,-0.5214171140333059,0.04145156973486533,-0.028361600344907856,2.7747768517392406,-1.2694014284321253,2.01480870524321,0,-12.5,0,0,0,0,1279,1283,1320,1500,1500,1500
1747554219.8784907,-0.02,-0.32,-0.08,-0.48432886742842646,0.01090830782496456,-0.004363323129985824,2.7045752510820433,-1.2714675856174757,2.0128462396980065,0,-12.5,0,0,0,0,1279,1283,1320,1500,1500,1500
1747554219.9619823,-0.02,-0.32,-0.08,-0.48432886742842646,0.01090830782496456,-0.004363323129985824,2.7045752510820433,-1.2714675856174757,2.0128462396980065,0,0,0,0,0,0,1319,1323,1360,1500,1500,1500
1747554220.060138,-0.05,-0.28,-0.3,-0.44724062082354693,0.003272492347489368,-0.01090830782496456,2.652519851560733,-1.2700392105165776,1.9935960543458975,0,0,0,0,0,0,1359,1363,1400,1500,1500,1500
1747554220.1576405,0.89,-0.14,-0.31,-0.42978732830360367,-0.009817477042468103,-0.004363323129985824,2.5985601569918044,-1.267896519563815,1.9851316036419189,0,0,0,0,0,0,1399,1403,1440,1500,1500,1500
1747554220.2445679,0.89,-0.14,-0.31,-0.42978732830360367,-0.009817477042468103,-0.004363323129985824,2.5985601569918044,-1.267896519563815,1.9851316036419189,0,0,0,0,0,0,1439,1443,1480,1500,1500,1500
1747554220.3449874,0.54,-0.22,-0.17,-0.32288591161895097,0.014180800172453928,-0.020725784867432664,2.5366601969860705,-1.2692204449606284,1.9889536826638734,0,0,0,0,0,0,1479,1483,1500,1500,1500,1500
1747554220.4461288,0.54,-0.22,-0.17,-0.32288591161895097,0.014180800172453928,-0.020725784867432664,2.5366601969860705,-1.2692204449606284,1.9889536826638734,0,0,0,0,0,0,1500,1500,1500,1500,1500,1500
1747554220.5447142,0.54,-0.28,-0.19,-0.1832595714594046,-0.031634092692397225,-0.0545415391248228,2.5022130836106453,-1.2689267998654032,1.98588469834552,0,0,0,0,0,0,1500,1500,1500,1500,1500,1500
1747554220.6405118,0.26,-0.2,-0.13,-0.11671889372712078,-0.10362892433716332,-0.08944812416470939,2.486402826862733,-1.254757031918934,1.9803779049538355,0,0,0,0,0,0,1500,1500,1500,1500,1500,1500
1747554220.7274997,0.26,-0.2,-0.13,-0.11671889372712078,-0.10362892433716332,-0.08944812416470939,2.486402826862733,-1.254757031918934,1.9803779049538355,0,0,0,0,0,0,1500,1500,1500,1500,1500,1500
1747554220.862957,0.19,-0.19,-0.12,-0.06763150851478027,-0.11344640137963143,-0.11780972450961724,2.473636474032841,-1.23358806767575,1.9802698608622218,0,0,0,0,0,0,1500,1500,1500,1500,1500,1500
1747554220.960634,0.19,-0.14,-0.15,-0.004363323129985824,-0.11017390903214205,-0.13853550937704992,2.4623184607578006,-1.208381170690045,1.9879095338608421,0,0,0,0,0,0,1500,1500,1500,1500,1500,1500
1747554221.061403,0.19,-0.14,-0.15,-0.004363323129985824,-0.11017390903214205,-0.13853550937704992,2.4623184607578006,-1.208381170690045,1.9879095338608421,0,0,0,0,0,0,1500,1500,1500,1500,1500,1500
1747554221.1609159,0.15,-0.13,-0.14,0.032724923474893676,-0.09490227807719166,-0.1538071403320003,2.4522612166498514,-1.183992308866846,2.0021872951077295,0,0,0,0,0,0,1500,1500,1500,1500,1500,1500
1747554221.2435212,0.15,-0.13,-0.14,0.032724923474893676,-0.09490227807719166,-0.1538071403320003,2.4522612166498514,-1.183992308866846,2.0021872951077295,0,0,0,0,0,0,1500,1500,1500,1500,1500,1500
1747554221.343724,0.16,-0.14,-0.13,0.06981317007977318,-0.07963064712224129,-0.1636246173744684,2.441746274695548,-1.1580428595756727,2.0239416646038806,0,0,0,0,0.032382,0,1500,1500,1500,1500,1500,1500
1747554221.4439192,0.13,-0.08,-0.14,0.10035643198967395,-0.06544984694978735,-0.18435040224190105,2.430399122930478,-1.1340713208840048,2.0511498813714404,0,0,0,0,0.56,0,1500,1500,1500,1500,1540,1540
1747554221.5270567,0.13,-0.08,-0.14,0.10035643198967395,-0.06544984694978735,-0.18435040224190105,2.430399122930478,-1.1340713208840048,2.0511498813714404,0,0,0,0,0.56,0,1500,1500,1500,1500,1580,1580
1747554221.6272953,0.14,-0.07,-0.15,0.1189005552921137,-0.044724062082354694,-0.20507618710933373,2.4155527625253086,-1.1079668697403013,2.0869749355306695,0,0,0,0,0.56,0,1500,1500,1500,1500,1616,1616
1747554221.727258,0.14,-0.07,-0.15,0.1189005552921137,-0.044724062082354694,-0.20507618710933373,2.4155527625253086,-1.1079668697403013,2.0869749355306695,0,0,0,-0.005907,0.56,0,1500,1500,1500,1500,1616,1616
1747554221.8272626,0.04,-0.4,0.0,0.23889194136672387,-0.04036073895236887,-0.23452861823673804,2.399677054871953,-1.0808680055088213,2.1312374509118355,0,0,0,-0.043304,0.56,0,1460,1460,1540,1500,1616,1616
1747554221.926664,-0.12,-0.42,0.01,0.9632035809443706,-0.05999569303730508,-0.272707695624114,2.436617765261775,-1.0496299262491249,2.1795882350972646,0,0,0,-0.105963,0.48847,0,1448,1448,1562,1500,1607,1607
1747554222.0101051,-0.12,-0.42,0.01,0.9632035809443706,-0.05999569303730508,-0.272707695624114,2.436617765261775,-1.0496299262491249,2.1795882350972646,0,0,0,-0.105963,0.48847,0,1448,1448,1562,1500,1607,1607
1747554222.1103792,-0.08,0.19,-0.39,1.6940602052169962,-0.1538071403320003,-0.2454369260617026,2.6031834070499795,-1.0148959835752631,2.221163036797525,0,0,0,-0.105963,0.48847,0,1448,1448,1562,1500,1607,1607
1747554222.210722,0.03,0.35000000000000003,-0.33,1.8096882681616204,-0.14289883250703572,-0.17889624832941878,2.8449408519931505,-0.9805441154814232,2.259058199846903,0,0,0,-0.119883,0.479874,0,1445,1445,1565,1500,1606,1606
1747554222.3108883,0.03,0.35000000000000003,-0.33,1.8096882681616204,-0.14289883250703572,-0.17889624832941878,2.8449408519931505,-0.9805441154814232,2.259058199846903,0,0,0,-0.134662,0.471352,0,1443,1443,1569,1500,1605,1605
1747554222.409955,0.06,0.21,-0.36,1.834777376159039,-0.11562806294462433,-0.1538071403320003,3.079993941824891,-0.9575322290184807,2.29477782292132,0,0,0,-0.178271,0.43803,0,1436,1436,1578,1500,1601,1601
1747554222.49461,0.06,0.21,-0.36,1.834777376159039,-0.11562806294462433,-0.1538071403320003,3.079993941824891,-0.9575322290184807,2.29477782292132,0,0,0,-1e-06,0,0,1476,1476,1538,1500,1561,1561
1747554222.5936227,0.09,0.25,-0.5,1.834777376159039,-0.09708393964218458,-0.10144726277217041,-2.947358574077416,-0.9419140621461914,2.3300079384215144,0,0,0,0,0,0,1500,1500,1500,1500,1521,1521
1747554222.6947398,-0.07,0.56,-0.7000000000000001,1.5435255572324853,-0.10799224746714914,-0.0272707695624114,-2.6956131054741053,-0.9332582834000568,2.352505889567722,0,0,0,0,0,0,1500,1500,1500,1500,1500,1500
1747554222.7938993,-0.07,0.56,-0.7000000000000001,1.5435255572324853,-0.10799224746714914,-0.0272707695624114,-2.6956131054741053,-0.9332582834000568,2.352505889567722,0,0,0,0,0,0,1500,1500,1500,1500,1500,1500
1747554222.8941646,-0.03,0.56,-0.64,0.9893835197242855,-0.1832595714594046,-0.018544123302439753,-2.5257933178008556,-0.9139813082342109,2.379946301776944,0,0,0,0,0,0,1500,1500,1500,1500,1500,1500
1747554222.9839997,0.0,0.35000000000000003,-0.45,0.6010477611555473,-0.1930770485018727,-0.05235987755982989,-2.478910454990342,-0.888789841197668,2.4503326528881715,0,0,0,0,-0.251202,0,1500,1500,1500,1500,1460,1460
1747554223.0765128,0.0,0.35000000000000003,-0.45,0.6010477611555473,-0.1930770485018727,-0.05235987755982989,-2.478910454990342,-0.888789841197668,2.4503326528881715,0,0,0,0,-0.56,0,1500,1500,1500,1500,1420,1420
1747554223.1772628,0.01,0.24,-0.38,0.33488505022641196,-0.19744037163185854,-0.08290313946973066,-2.465845744744802,-0.8698520546435431,2.5074835163872504,0,0,0,0,-0.56,0,1500,1500,1500,1500,1380,1380
1747554223.2599,0.01,0.24,-0.38,0.33488505022641196,-0.19744037163185854,-0.08290313946973066,-2.465845744744802,-0.8698520546435431,2.5074835163872504,0,0,0,0,-0.56,0,1500,1500,1500,1500,1367,1367
1747554223.3599825,-0.02,0.11,-0.26,-0.025089107997418487,-0.18653206380689397,-0.11671889372712078,-2.4877947877003295,-0.8542668530535886,2.565694204523577,0,0,0,0,-0.56,0,1500,1500,1500,1500,1367,1367
1747554223.4469755,0.17,0.71,-0.38,-1.0482883819790942,-0.1505346479845109,-0.1439896632895322,-2.6004706159489985,-0.8426762017678234,2.6199603129462528,0,0,0,0,-0.56,0,1500,1500,1500,1500,1367,1367
1747554223.5427518,0.17,0.71,-0.38,-1.0482883819790942,-0.1505346479845109,-0.1439896632895322,-2.6004706159489985,-0.8426762017678234,2.6199603129462528,0,0,0,0,-0.56,0,1500,1500,1500,1500,1367,1367
1747554223.6442113,0.13,0.16,-0.59,-1.9034997154563156,-0.1090830782496456,-0.1439896632895322,-2.8729266129902595,-0.8338245533717433,-1.0536437912358774,0,0,0,0,0,0,1500,1500,1500,1500,1407,1407
1747554223.727178,0.13,0.16,-0.59,-1.9034997154563156,-0.1090830782496456,-0.1439896632895322,-2.8729266129902595,-0.8338245533717433,-1.0536437912358774,0,0,0,0,0,0,1500,1500,1500,1500,1447,1447
1747554223.8264966,0.04,-0.4,-0.47000000000000003,-2.223113134727777,-0.06544984694978735,-0.17998707911191522,3.076150168808026,-0.8238372599791265,-1.0166791667517265,0,0,0,0,0,0,1500,1500,1500,1500,1487,1487
1747554223.9242766,0.1,-0.45,-0.48,-1.782417498599209,-0.050178215994836975,-0.2181661564992912,2.736718690712145,-0.8076425204287897,-0.9753479955912973,0,0,0,0,0,0,1500,1500,1500,1500,1500,1500
1747554224.0112407,0.1,-0.45,-0.48,-1.782417498599209,-0.050178215994836975,-0.2181661564992912,2.736718690712145,-0.8076425204287897,-0.9753479955912973,0,0,0,0,0,0,1500,1500,1500,1500,1500,1500
1747554224.1112278,0.19,-1.69,-0.43,-1.2522737383059315,-0.03490658503988659,-0.26725354171163174,2.4790982193109508,-0.7821638063450257,-0.9336237715478747,0,0,0,0,0,0,1500,1500,1500,1500,1500,1500
1747554224.2109938,0.19,-1.69,-0.43,-1.2522737383059315,-0.03490658503988659,-0.26725354171163174,2.4790982193109508,-0.7821638063450257,-0.9336237715478747,0,0,0,0,0,0,1500,1500,1500,1500,1500,1500
1747554224.3100445,0.22,-0.37,-0.5,-0.9697485656393493,-0.019634954084936207,-0.30543261909900765,2.2818029096180794,-0.7475833382300298,-0.8933377419649032,0,0,0,0,0,0,1500,1500,1500,1500,1500,1500
1747554224.4108753,0.21,-0.34,-0.39,-0.7657632093125121,0.00545415391248228,-0.34579335805137656,2.1435744991513834,-0.7114583230929995,-0.8639818898613659,0,0.003854,0,0,0,0,1500,1500,1500,1500,1500,1500
1747554224.494457,0.21,-0.34,-0.39,-0.7657632093125121,0.00545415391248228,-0.34579335805137656,2.1435744991513834,-0.7114583230929995,-0.8639818898613659,0,10.711454,0,0,0,0,1540,1540,1540,1500,1500,1500
1747554224.59361,0.2,-0.27,-0.36,-0.5792311455056182,0.02945243112740431,-0.37960911230876665,2.0340050592413785,-0.6694380362212433,-0.8370044855767504,0,12.5,0,0,0,0,1580,1580,1580,1500,1500,1500
1747554224.694695,0.2,-0.27,-0.36,-0.5792311455056182,0.02945243112740431,-0.37960911230876665,2.0340050592413785,-0.6694380362212433,-0.8370044855767504,0,12.5,0,0,0,0,1620,1620,1620,1500,1500,1500
1747554224.7944915,0.15,-0.19,-0.24,-0.4276056667386107,0.05126904677733343,-0.3981532356112064,1.951385942575798,-0.6251845981832389,-0.8077899576255021,0,12.5,0,0,0,0,1660,1660,1657,1500,1500,1500
1747554224.894699,0.6,0.15,-0.38,-0.2716168648416175,0.05890486225480862,-0.4046982203061852,1.8897377135000615,-0.5903528492364776,-0.769901610698108,0,12.5,0,0,0,0,1692,1686,1657,1500,1500,1500
1747554224.9776416,0.6,0.15,-0.38,-0.2716168648416175,0.05890486225480862,-0.4046982203061852,1.8897377135000615,-0.5903528492364776,-0.769901610698108,0,12.5,0,0,0,0,1692,1686,1657,1500,1500,1500
1747554225.0776076,1.32,-0.37,-0.92,-0.12326387842209953,0.038179077387375956,-0.38288160465625604,1.843812845592826,-0.5238129222230499,-0.750823871861024,0,12.5,0,0,0,0,1692,1686,1657,1500,1500,1500
1747554225.175849,0.73,-0.2,-0.31,-0.03490658503988659,-0.11453723216212788,-0.22907446432425577,1.83217123223714,-0.4795636481593844,-0.7441695253610606,0,12.5,0,0,0,0,1692,1686,1657,1500,1500,1500
1747554225.2607489,0.73,-0.2,-0.31,-0.03490658503988659,-0.11453723216212788,-0.22907446432425577,1.83217123223714,-0.4795636481593844,-0.7441695253610606,0,12.5,0,0,0,0,1692,1686,1657,1500,1500,1500
1747554225.361824,0.6900000000000001,-0.23,-0.02,-0.06654067773228381,-0.21598449493429828,-0.1090830782496456,1.83496491399423,-0.4546886807590032,-0.7660320547440937,0,12.5,0,0,0,0,1692,1686,1657,1500,1500,1500
1747554225.4609053,0.6900000000000001,-0.23,-0.02,-0.06654067773228381,-0.21598449493429828,-0.1090830782496456,1.83496491399423,-0.4546886807590032,-0.7660320547440937,0,12.5,0,0,0,0,1692,1686,1657,1500,1500,1500
1747554225.5608945,0.31,-0.18,0.1,-0.05999569303730508,-0.2781618495365963,-0.007635815477475192,1.8437865403941769,-0.4398006638310524,-0.8065705552093229,0,12.5,0,0,0,0,1692,1686,1657,1500,1500,1500
1747554225.6611385,0.05,-0.16,-0.06,-0.039269908169872414,-0.30870511144649704,0.032724923474893676,1.8549246066788916,-0.4336726794559298,-0.8528079445817406,0,12.5,0,0,0,0,1692,1686,1657,1500,1500,1500
1747554225.7442067,0.05,-0.16,-0.06,-0.039269908169872414,-0.30870511144649704,0.032724923474893676,1.8549246066788916,-0.4336726794559298,-0.8528079445817406,0,12.5,0,0,0,0,1692,1686,1657,1500,1500,1500
1747554225.8437986,-0.12,-0.27,0.05,0.025089107997418487,-0.32834006553143325,0.07635815477475191,1.8762463923677406,-0.4306490513283265,-0.9083275542652741,0,12.5,0,0,0,0,1692,1686,1657,1500,1500,1500
1747554225.944485,-0.12,-0.27,0.05,0.025089107997418487,-0.32834006553143325,0.07635815477475191,1.8762463923677406,-0.4306490513283265,-0.9083275542652741,0,12.5,0,0,0,0,1692,1686,1657,1500,1500,1500
1747554226.0271611,0.08,-0.04,0.09,0.1538071403320003,-0.3370667117914049,0.07635815477475191,1.9126209751515513,-0.4276205944068779,-0.96357383023448,0,12.5,0,0,0,0,1692,1686,1657,1500,1500,1500
1747554226.127392,0.01,0.05,0.1,0.2552544031041707,-0.3763366199612773,0.07526732399225546,1.9716496948544038,-0.41880370303145303,-1.0246537916740885,0,12.5,0,0,0,0,1692,1686,1657,1500,1500,1500
1747554226.2271907,0.01,0.05,0.1,0.2552544031041707,-0.3763366199612773,0.07526732399225546,1.9716496948544038,-0.41880370303145303,-1.0246537916740885,0,12.5,0,0,0,0,1692,1686,1657,1500,1500,1500
1747554226.3267503,-0.02,-0.13,-0.11,0.29670597283903605,-0.4188790204786391,0.0719948316447661,2.036629664218108,-0.40487921173429814,-1.0854282969124192,0,12.5,0,0,0,0,1692,1686,1657,1500,1500,1500
1747554226.4272504,-0.02,-0.13,-0.11,0.29670597283903605,-0.4188790204786391,0.0719948316447661,2.036629664218108,-0.40487921173429814,-1.0854282969124192,0,12.5,0,0,0,0,1692,1686,1657,1500,1500,1500
1747554226.51078,0.29,0.0,0.23,0.2814343418840856,-0.4461497900410505,0.08835729338221293,2.1079493608528086,-0.3834382962255709,-1.1553194608573958,0,12.5,0,0,0,0,1692,1686,1657,1500,1500,1500
1747554226.6101635,0.14,0.07,-0.09,0.28361600344907856,-0.47778388273344774,0.09599310885968812,2.1778932849070958,-0.35715245775451554,-1.2279947556544717,0,12.5,0,0,0,0,1692,1686,1657,1500,1500,1500
1747554226.7103655,0.14,0.07,-0.09,0.28361600344907856,-0.47778388273344774,0.09599310885968812,2.1778932849070958,-0.35715245775451554,-1.2279947556544717,0,12.5,0,0,0,0,1692,1686,1657,1500,1500,1500
1747554226.8105125,0.23,0.15,-0.11,0.3337942194439155,-0.519235452468313,0.11999138607461016,2.2506566194326028,-0.3252484092697472,-1.3039237422203533,0,12.5,0,0,0,0,1692,1686,1657,1500,1500,1500
1747554226.9062517,0.0,0.0,0.16,0.33052172709642613,-0.5475970528132209,0.12435470920459599,2.320050899269245,-0.2898410235746491,-1.37725071250469,0,12.5,0,0,0,0,1692,1686,1657,1500,1500,1500
1747554226.9943838,0.0,0.0,0.16,0.33052172709642613,-0.5475970528132209,0.12435470920459599,2.320050899269245,-0.2898410235746491,-1.37725071250469,0,12.5,0,0,0,0,1692,1686,1657,1500,1500,1500
1747554227.093968,0.13,0.12,-0.22,0.30870511144649704,-0.5835944686356039,0.14180800172453928,2.3883492632162806,-0.24518863239716138,-1.4558978151009114,0,12.5,0,0,0,0,1692,1686,1657,1500,1500,1500
1747554227.195627,0.13,0.12,-0.22,0.30870511144649704,-0.5835944686356039,0.14180800172453928,2.3883492632162806,-0.24518863239716138,-1.4558978151009114,0,12.5,0,0,0,0,1692,1686,1657,1500,1500,1500
1747554227.300934,-0.04,0.11,0.06,0.2945243112740431,-0.6065019150680295,0.15926129424448257,2.4473989938946454,-0.19592325004261546,-1.530377130818477,0,12.5,0,0,0,0,1692,1686,1657,1500,1500,1500
1747554227.394628,-0.06,0.08,0.28,0.29343348049154666,-0.6228643768054763,0.16035212502697901,2.501871339277946,-0.13927350208979067,-1.6093602512664127,0,12.5,0,0,0,0,1692,1686,1657,1500,1500,1500
1747554227.4772656,-0.06,0.08,0.28,0.29343348049154666,-0.6228643768054763,0.16035212502697901,2.501871339277946,-0.13927350208979067,-1.6093602512664127,0,12.5,0,0,0,0,1692,1686,1657,1500,1500,1500
1747554227.5777805,0.27,0.26,0.32,0.29561514205653955,-0.6239552075879728,0.13744467859455345,2.5514005449505386,-0.07773063163460384,-1.684343061321906,0,12.5,0,0,0,0,1692,1686,1657,1500,1500,1500
1747554227.6778953,0.27,0.26,0.32,0.29561514205653955,-0.6239552075879728,0.13744467859455345,2.5514005449505386,-0.07773063163460384,-1.684343061321906,0,12.5,0,0,0,0,1692,1686,1657,1500,1500,1500
1747554227.7609723,-0.18,0.12,0.14,0.2694352032766246,-0.6185010536754906,0.15817046346198613,2.5956706844419752,-0.011963541084332476,-1.7564375025217744,0,0,0,0,0,0,1652,1646,1617,1500,1500,1500
1747554227.8603675,0.16,0.29,-0.19,0.27598018797160334,-0.6239552075879728,0.17453292519943295,2.635842797880304,0.05868284986568916,-1.827004637300844,0,0,0,0,0,0,1612,1606,1577,1500,1500,1500
1747554227.9621122,0.16,0.29,-0.19,0.27598018797160334,-0.6239552075879728,0.17453292519943295,2.635842797880304,0.05868284986568916,-1.827004637300844,3,0,0,0,0,0,1572,1566,1537,1540,1540,1540
1747554228.0612729,-0.65,-0.23,0.46,0.22471114119426994,-0.6523168079328807,0.18980455615438332,2.6661501889570265,0.12898924715541732,-1.89457934475581,3,0,0,0,0,0,1532,1558,1500,1580,1580,1580
1747554228.161076,-0.4,-0.11,-0.07,0.17235126363444003,-0.6206827152404835,0.2279836335417593,2.683660625687666,0.20403987765825685,-1.9696553569567572,3,0,0,0,0,0,1492,1558,1500,1620,1603,1603
1747554228.2435148,-0.4,-0.11,-0.07,0.17235126363444003,-0.6206827152404835,0.2279836335417593,2.683660625687666,0.20403987765825685,-1.9696553569567572,3,0,0,0,0,0,1452,1558,1500,1645,1603,1603
1747554228.3445292,-0.59,0.35000000000000003,-0.02,0.1505346479845109,-0.557414529855689,0.13962634015954636,2.68881388747646,0.27064259509589217,-2.0336671970223676,3,0,0,0,0,0,1435,1558,1500,1645,1603,1603
1747554228.444351,-0.59,0.35000000000000003,-0.02,0.1505346479845109,-0.557414529855689,0.13962634015954636,2.68881388747646,0.27064259509589217,-2.0336671970223676,3,0,0,0,0,0,1435,1558,1500,1645,1603,1603
1747554228.527627,-0.3,0.32,0.04,0.10253809355466686,-0.48432886742842646,-0.06981317007977318,2.697794999437077,0.335771132295596,-2.0752179767451215,3,0,0,0,0,0,1435,1558,1500,1645,1603,1603
1747554228.627195,-0.16,0.13,-0.02,0.17671458676442586,-0.4308781590861001,-0.15707963267948966,2.7119719161842113,0.4091019715208922,-2.0896237029587432,3,0,0,0,0,0,1435,1558,1500,1645,1603,1603
1747554228.7271569,-0.16,0.13,-0.02,0.17671458676442586,-0.4308781590861001,-0.15707963267948966,2.7119719161842113,0.4091019715208922,-2.0896237029587432,3,0,0,0,0,0,1435,1558,1500,1645,1603,1603
1747554228.826945,-0.13,0.04,-0.26,0.1930770485018727,-0.4406956361285682,-0.19853120241435498,2.7390479148065046,0.4817350259865647,-2.0914403373931174,3,0,0,0,0,0,1435,1558,1500,1645,1603,1603
1747554228.9274862,-0.13,0.04,-0.26,0.1930770485018727,-0.4406956361285682,-0.19853120241435498,2.7390479148065046,0.4817350259865647,-2.0914403373931174,3,0,0,0,0,0,1435,1558,1500,1645,1603,1603
1747554229.0110724,0.12,0.08,-0.12,0.18216874067690814,-0.4701480672559725,-0.20398535632683726,2.7693368597965335,0.5582634625445778,-2.088822327808402,3,0,0,0,0,0,1435,1558,1500,1645,1603,1603
1747554229.1101902,0.14,0.06,-0.2,0.19962203319685143,-0.4930555136883981,-0.19634954084936207,2.7968964112389765,0.6323026302734776,-2.0856319613356757,3,0,0,0,0,0,1435,1558,1500,1645,1603,1603
1747554229.2102604,0.14,0.06,-0.2,0.19962203319685143,-0.4930555136883981,-0.19634954084936207,2.7968964112389765,0.6323026302734776,-2.0856319613356757,3,0,0,0,0,0,1435,1558,1500,1645,1603,1603
1747554229.3108644,0.07,0.09,-0.11,0.2650718801466388,-0.47451139038595835,-0.17562375598192942,2.8349074905943135,0.7107459754958566,-2.0819487690256056,3,0,0,0,0,0,1435,1558,1500,1645,1603,1603
1747554229.4108384,0.21,0.03,-0.01,0.34470252726888007,-0.41560652813114973,-0.16580627893946132,2.883597333481923,0.7779888214855075,-2.074538257416308,3,0,0,0,0,0,1435,1558,1500,1645,1603,1603
1747554229.4935305,0.21,0.03,-0.01,0.34470252726888007,-0.41560652813114973,-0.16580627893946132,2.883597333481923,0.7779888214855075,-2.074538257416308,3,0,0,0,0,0,1435,1558,1500,1645,1603,1603
1747554229.5937033,0.04,0.05,0.07,0.40251655874119224,-0.3239767424014474,-0.2007128639793479,2.9569658264074326,0.8390755403291718,-2.0538107862669372,3,0,0,0,0,0,1435,1558,1500,1645,1603,1603
1747554229.694735,0.04,0.05,0.07,0.40251655874119224,-0.3239767424014474,-0.2007128639793479,2.9569658264074326,0.8390755403291718,-2.0538107862669372,3,0,0,0,0,0,1435,1558,1500,1645,1603,1603
1747554229.7936716,0.0,0.18,-0.01,0.43524148221608594,-0.23452861823673804,-0.24107360293171676,3.046635995402083,0.882639750385491,-2.015023603379645,3,0,0,0,0,0,1435,1558,1500,1645,1603,1603
1747554229.8936515,-0.03,0.1,0.02,0.4428772976935611,-0.1559888018969932,-0.2945243112740431,-3.1181351174878054,0.9130834626073672,-1.9510376009953367,3,0,0,0,0,0,1435,1558,1500,1645,1603,1603
1747554229.9942052,-0.03,0.1,0.02,0.4428772976935611,-0.1559888018969932,-0.2945243112740431,-3.1181351174878054,0.9130834626073672,-1.9510376009953367,3,0,0,0,0,0,1435,1558,1500,1645,1603,1603
1747554230.09375,0.25,0.26,-0.03,0.43524148221608594,-0.08072147790473774,-0.3272492347489368,-2.9951713299167797,0.9250363804725938,-1.8757148919060398,3,0,0,0,0,0,1435,1558,1500,1645,1603,1603
1747554230.193169,0.09,0.06,-0.18,0.4308781590861001,-0.002181661564992912,-0.36324665057131983,-2.861233616463229,0.9189733400660649,-1.7893455747936218,3,0,0,0,0,0,1435,1558,1500,1645,1603,1603
1747554230.2766387,0.09,0.06,-0.18,0.4308781590861001,-0.002181661564992912,-0.36324665057131983,-2.861233616463229,0.9189733400660649,-1.7893455747936218,3,0,0,0,0,0,1435,1558,1500,1645,1603,1603
1747554230.3774,-0.16,0.21,0.03,0.433059820651093,0.08617563181722002,-0.4308781590861001,-2.725500656260075,0.891643742763758,-1.7006074622535876,3,0,0,0,0,0,1435,1558,1500,1645,1603,1603
1747554230.476993,-0.16,0.21,0.03,0.433059820651093,0.08617563181722002,-0.4308781590861001,-2.725500656260075,0.891643742763758,-1.7006074622535876,3,0,0,0,0,0,1435,1558,1500,1645,1603,1603
1747554230.5771816,0.01,0.14,0.03,0.3916082509162277,0.14726215563702155,-0.5094179754258449,-2.5969469138963373,0.8414717871910656,-1.615202193531022,3,0,0,0,0,0,1435,1558,1500,1645,1603,1603
1747554230.6771834,0.04,0.12,-0.05,0.3534291735288517,0.20943951023931956,-0.5770494839406252,-2.4910627806594325,0.7758379685779375,-1.5430828347974166,3,0,0,0,0,0,1435,1558,1500,1645,1603,1603
1747554230.7599335,0.04,0.12,-0.05,0.3534291735288517,0.20943951023931956,-0.5770494839406252,-2.4910627806594325,0.7758379685779375,-1.5430828347974166,3,0,0,0,0,0,1435,1558,1500,1645,1603,1603
1747554230.8610954,0.12,0.17,-0.09,0.2748893571891069,0.28907015736156083,-0.6435901616729091,-2.401739647788174,0.6855769532662798,-1.4812410723911122,0,0,0,0,0,0,1475,1518,1500,1605,1563,1563
1747554230.9596152,0.1,-0.24,-0.03,0.2203478180642841,0.3327033886614191,-0.6992225315802283,-2.339028753291552,0.5851894551503317,-1.434764492712924,0,0,0,0,0,0,1500,1500,1500,1565,1523,1523
1747554231.043572,0.1,-0.24,-0.03,0.2203478180642841,0.3327033886614191,-0.6992225315802283,-2.339028753291552,0.5851894551503317,-1.434764492712924,0,0,0,0,0,0,1500,1500,1500,1525,1500,1500
1747554231.1440156,-0.04,0.09,-0.18,0.00545415391248228,0.346884188833873,-0.47123889803846897,-2.3082289051830305,0.48256044167806617,-1.4083154837205485,-3,0,0,0,0,0,1540,1460,1500,1485,1460,1460
1747554231.2272394,-0.04,0.09,-0.18,0.00545415391248228,0.346884188833873,-0.47123889803846897,-2.3082289051830305,0.48256044167806617,-1.4083154837205485,-3,0,0,0,0,0,1558,1435,1500,1445,1420,1420
1747554231.3272645,-0.15,-0.07,-0.23,-0.0719948316447661,0.3141592653589793,-0.30325095753401476,-2.3152891995052474,0.40584732757800746,-1.4076347162906386,-3,0,0,0,0,0,1558,1435,1500,1405,1382,1382
1747554231.4271324,-0.15,-0.07,-0.23,-0.0719948316447661,0.3141592653589793,-0.30325095753401476,-2.3152891995052474,0.40584732757800746,-1.4076347162906386,-3,0,0,0,0,0,1558,1435,1500,1365,1382,1382
1747554231.5108159,-0.61,-0.11,-0.16,-0.210530341021816,0.2781618495365963,-0.1090830782496456,-2.338797347769365,0.3545657431174196,-1.4181300642112675,-3,0,0,0,0,0,1558,1435,1500,1331,1382,1382
1747554231.6106071,0.0,0.06,-0.24,-0.7952156404399164,0.25634523388666713,0.16253378659197193,-2.422400205957365,0.32803144202886486,-1.4524339819633127,-3,0,0,0,0,0,1558,1435,1500,1331,1382,1382
1747554231.710911,0.0,0.06,-0.24,-0.7952156404399164,0.25634523388666713,0.16253378659197193,-2.422400205957365,0.32803144202886486,-1.4524339819633127,-3,0,0,0,0,0,1558,1435,1500,1331,1382,1382
1747554231.811139,-0.04,-0.9400000000000001,-0.06,-0.9893835197242855,0.25743606466916363,0.4854196982109229,-2.6007252192968418,0.32374246400944884,-1.5205277143812492,-3,0,0,0,0,0,1558,1435,1500,1331,1382,1382
1747554231.9001706,-0.26,0.08,-0.32,-0.856302164259718,0.18762289458939044,0.6959500392327389,-2.7662456659659,0.33231663248440957,-1.6186065089192974,-3,0,0,0,0,0,1558,1435,1500,1331,1382,1382
1747554231.9937315,-0.26,0.08,-0.32,-0.856302164259718,0.18762289458939044,0.6959500392327389,-2.7662456659659,0.33231663248440957,-1.6186065089192974,-3,0,0,0,0,0,1558,1435,1500,1331,1382,1382
1747554232.0932894,0.06,-0.31,-0.21,-0.7635815477475192,0.11562806294462433,0.8573929950422144,-2.934822831551083,0.34442482224068344,-1.7489960311467727,-3,0,0,0,0,0,1558,1435,1500,1331,1382,1382
1747554232.1934335,0.06,-0.31,-0.21,-0.7635815477475192,0.11562806294462433,0.8573929950422144,-2.934822831551083,0.34442482224068344,-1.7489960311467727,-3,0,0,0,0,0,1558,1435,1500,1331,1382,1382
1747554232.2774396,-0.19,-0.06,-0.12,-0.7068583470577035,0.09053895494720585,0.9697485656393493,-3.090650383113601,0.3461507132264533,-1.89159574239952,-3,0,0,0,0,0,1558,1435,1500,1331,1382,1382
1747554232.3746212,0.35000000000000003,-0.12,-0.22,-0.681769239060285,0.07417649320975901,1.074468320759009,3.0285355916831733,0.3288116747729668,-2.059146017320009,-3,0,0,0,0,0,1558,1435,1500,1331,1382,1382
1747554232.4774828,0.35000000000000003,-0.12,-0.22,-0.681769239060285,0.07417649320975901,1.074468320759009,3.0285355916831733,0.3288116747729668,-2.059146017320009,-3,0,0,0,0,0,1558,1435,1500,1331,1382,1382
1747554232.5780141,0.09,-0.32,-0.24,-0.6588617926278594,0.06763150851478027,1.1639164449237185,2.871239500982185,0.2841354726961774,-2.2361023446655923,-3,0,0,0,0,0,1558,1435,1500,1331,1382,1382
1747554232.67688,0.09,-0.32,-0.24,-0.6588617926278594,0.06763150851478027,1.1639164449237185,2.871239500982185,0.2841354726961774,-2.2361023446655923,-3,0,0,0,0,0,1558,1435,1500,1331,1382,1382
1747554232.7608075,0.3,-0.23,-0.1,-0.6752242543653062,0.05672320068981571,1.2173671532660448,2.7245011420131906,0.2122820222324833,-2.4120333522030064,-3,0,0,0,0,0,1558,1435,1500,1331,1382,1382
1747554232.85685,0.27,-0.27,-0.37,-0.7035858547102141,0.019634954084936207,1.279544507868343,2.58873941445216,0.11561430561594373,-2.5822501658471664,-3,0,0,0,0,0,1558,1435,1500,1331,1382,1382
1747554232.9607542,0.27,-0.27,-0.37,-0.7035858547102141,0.019634954084936207,1.279544507868343,2.58873941445216,0.11561430561594373,-2.5822501658471664,-3,0,0,0,0,0,1558,1435,1500,1331,1382,1382
1747554233.0605338,0.3,-0.14,-0.22,-0.7483099167925688,-0.020725784867432664,1.3220869083857045,2.4736896904541386,0.007086753559000426,-2.737474613379335,-3,0,0,0,0,0,1558,1435,1500,1331,1382,1382
1747554233.160085,0.3,-0.14,-0.22,-0.7483099167925688,-0.020725784867432664,1.3220869083857045,2.4736896904541386,0.007086753559000426,-2.737474613379335,0,0,0,0,0,0,1518,1475,1500,1371,1422,1422
1747554233.2436779,0.5,-0.2,-0.38,-0.8192139176548384,-0.02181661564992912,1.3689926320330523,2.3610711134059983,-0.12861042868400144,-2.8960771641297547,0,0,0,0,0,0,1500,1500,1500,1411,1462,1462
1747554233.3432934,0.37,-0.12,-0.27,-0.8203047484373349,-0.038179077387375956,1.3057244466482578,2.264695134197999,-0.27238963129589777,-3.0368802971853763,0,0,0,0,0,0,1500,1500,1500,1451,1500,1500
1747554233.4434397,0.37,-0.12,-0.27,-0.8203047484373349,-0.038179077387375956,1.3057244466482578,2.264695134197999,-0.27238963129589777,-3.0368802971853763,3,0,0,0,0,0,1460,1540,1500,1491,1540,1540
1747554233.5269508,0.27,0.06,-0.31,-0.5966844380255614,-0.04036073895236887,1.074468320759009,2.198644181383069,-0.41425977842588424,3.1213276030445116,3,0,0,0,0,0,1435,1558,1500,1531,1580,1580
1747554233.6269877,0.27,0.06,-0.31,-0.5966844380255614,-0.04036073895236887,1.074468320759009,2.198644181383069,-0.41425977842588424,3.1213276030445116,3,0,0,0,0,0,1435,1558,1500,1571,1603,1603
1747554233.7277675,0.23,-0.01,-0.15,-0.545415391248228,-0.0545415391248228,0.8530296719122286,2.155591968117018,-0.5321660639975762,3.0196131625583007,3,0,0,0,0,0,1435,1558,1500,1611,1603,1603
1747554233.826577,0.25,-0.17,-0.18,-0.23343778745424157,-0.050178215994836975,0.5705044992456465,2.140128592243551,-0.618750145440213,2.938531896887234,3,0,0,0,0,0,1435,1558,1500,1645,1603,1603
1747554233.9268045,0.25,-0.17,-0.18,-0.23343778745424157,-0.050178215994836975,0.5705044992456465,2.140128592243551,-0.618750145440213,2.938531896887234,3,0,0,0,0,0,1435,1558,1500,1645,1603,1603
1747554234.0103137,0.18,-0.1,-0.42,0.1810779098944117,-0.01090830782496456,0.2792526803190927,2.1717715854737323,-0.6697366665139365,2.888135788147773,3,0,0,0,0,0,1435,1558,1500,1645,1603,1603
1747554234.104522,0.07,0.33,-0.32,0.0818123086872342,0.04254240051736178,-0.09053895494720585,2.2089407852464986,-0.6801762507879252,2.8799418260583933,3,0,0,0,0,0,1435,1558,1500,1645,1603,1603
1747554234.2100446,0.07,0.33,-0.32,0.0818123086872342,0.04254240051736178,-0.09053895494720585,2.2089407852464986,-0.6801762507879252,2.8799418260583933,3,0,0,0,0,0,1435,1558,1500,1645,1603,1603
1747554234.3117704,0.0,0.26,-0.41000000000000003,-0.05781403147231216,0.07090400086226964,-0.4079707126536745,2.1862291101248976,-0.6478233757465361,2.9195315043450334,3,0,0,0,0,0,1435,1558,1500,1645,1603,1603
1747554234.410961,0.0,0.26,-0.41000000000000003,-0.05781403147231216,0.07090400086226964,-0.4079707126536745,2.1862291101248976,-0.6478233757465361,2.9195315043450334,3,0,0,0,0,0,1435,1558,1500,1645,1603,1603
1747554234.4947522,0.08,0.02,-0.45,-0.05235987755982989,0.06544984694978735,-0.605411084285533,2.145304124044427,-0.5890762001845553,2.9795213078789895,3,0,0,0,0,0,1435,1558,1500,1645,1603,1603
1747554234.5945299,0.17,0.0,-0.51,0.01090830782496456,0.09053895494720585,-0.7254024703601433,2.1057362626410074,-0.5068051881032628,3.0538355470685774,3,0,0,0,0,0,1435,1558,1500,1645,1603,1603
1747554234.6935587,0.17,0.0,-0.51,0.01090830782496456,0.09053895494720585,-0.7254024703601433,2.1057362626410074,-0.5068051881032628,3.0538355470685774,3,0,0,0,0,0,1435,1558,1500,1645,1603,1603
