time,ay,ax,az,gy,gx,gz,roll,pitch,yaw,cmd_fx,cmd_fy,cmd_fz,cmd_tx,cmd_ty,cmd_tz,pwm_1,pwm_2,pwm_3,pwm_4,pwm_5,pwm_6
1747546989.7403374,0.0,0.0,0.0,0.0,0.0,0.0,0.0,0.0,0.0,0,0,0,0,0,0,1536,1536,1536,1536,1536,1536
1747546989.824075,-0.36,-0.02,0.08,0.001090830782496456,-0.00545415391248228,-0.004363323129985824,-2.769821912303199,-1.4751445979339448,2.733344173827481,0,0,0,0,0,0,1536,1536,1536,1536,1536,1536
1747546989.925423,-0.36,-0.02,0.08,0.001090830782496456,-0.00545415391248228,-0.004363323129985824,-2.769821912303199,-1.4751445979339448,2.733344173827481,0,0,0,0,0,0,1536,1536,1536,1536,1536,1536
1747546990.0092387,-0.33,0.06,0.05,0.002181661564992912,-0.002181661564992912,-0.002181661564992912,-2.770604316654269,-1.4751445199222768,2.734211885767408,0,0,0,0,0,0,1536,1536,1536,1536,1536,1536
1747546990.10848,-0.33,0.06,0.05,0.002181661564992912,-0.002181661564992912,-0.002181661564992912,-2.770604316654269,-1.4751445199222768,2.734211885767408,0,0,0,0,0,0,1536,1536,1536,1536,1536,1536
1747546990.2084625,-0.34,-0.08,0.03,-0.002181661564992912,-0.001090830782496456,0.001090830782496456,-2.770604316654269,-1.4751445199222768,2.734211885767408,0,0,0,0,0,0,1536,1536,1536,1536,1536,1536
1747546990.29158,-0.29,0.0,0.01,0.0,-0.00545415391248228,-0.002181661564992912,-2.770604316654269,-1.4751445199222768,2.734211885767408,0,0,0,0,0,0,1536,1536,1536,1536,1536,1536
1747546990.3914852,-0.29,0.0,0.01,0.0,-0.00545415391248228,-0.002181661564992912,-2.770604316654269,-1.4751445199222768,2.734211885767408,0,-6.319686,0,0,0,0,1496,1496,1496,1536,1536,1536
1747546990.4928706,-0.35000000000000003,0.0,0.0,-0.003272492347489368,-0.003272492347489368,-0.003272492347489368,-2.770604316654269,-1.4751445199222768,2.734211885767408,0,-12.5,0,0,0,0,1456,1456,1456,1536,1536,1536
1747546990.5923398,-0.23,-0.08,0.04,-0.004363323129985824,-0.00545415391248228,-0.001090830782496456,-2.770604316654269,-1.4751445199222768,2.734211885767408,0,-12.5,0,0,0,0,1432,1433,1441,1536,1536,1536
1747546990.691424,-0.23,-0.08,0.04,-0.004363323129985824,-0.00545415391248228,-0.001090830782496456,-2.770604316654269,-1.4751445199222768,2.734211885767408,0,-12.5,0,0,0,0,1432,1433,1441,1536,1536,1536
1747546990.7754781,-0.18,-0.06,-0.04,-0.004363323129985824,0.001090830782496456,0.002181661564992912,-2.7721688559015862,-1.4760442341214257,2.7357234620869804,0,-12.5,0,0,0,0,1432,1433,1441,1536,1536,1536
1747546990.8754778,-0.18,-0.06,-0.04,-0.004363323129985824,0.001090830782496456,0.002181661564992912,-2.7721688559015862,-1.4760442341214257,2.7357234620869804,0,-12.5,0,0,0,0,1432,1433,1441,1536,1536,1536
1747546990.9748046,-0.67,-0.34,-0.11,0.002181661564992912,-0.003272492347489368,-0.003272492347489368,-2.770573685475105,-1.4760916535373165,2.734211957618845,0,-12.5,0,0,0,0,1432,1433,1441,1536,1536,1536
1747546991.058443,-0.67,-0.34,-0.11,0.002181661564992912,-0.003272492347489368,-0.003272492347489368,-2.770573685475105,-1.4760916535373165,2.734211957618845,0,-12.5,0,0,0,0,1432,1433,1441,1536,1536,1536
1747546991.1580853,-0.28,0.07,-0.04,-0.003272492347489368,-0.006544984694978736,0.001090830782496456,-2.770573685475105,-1.4760916535373165,2.734211957618845,0,-12.5,0,0,0,0,1432,1433,1441,1536,1536,1536
1747546991.2585425,-0.32,-0.05,0.02,-0.00545415391248228,-0.003272492347489368,-0.001090830782496456,-2.770573685475105,-1.4760916535373165,2.734211957618845,0,-12.5,0,0,0,0,1432,1433,1441,1536,1536,1536
1747546991.3582556,-0.32,-0.05,0.02,-0.00545415391248228,-0.003272492347489368,-0.001090830782496456,-2.770573685475105,-1.4760916535373165,2.734211957618845,0,-12.5,0,0,0,0,1432,1433,1441,1536,1536,1536
1747546991.4581087,-0.27,-0.05,0.03,0.0,0.001090830782496456,-0.003272492347489368,-2.771485713009699,-1.4751772904059821,2.735006856046654,0,-12.5,0,0,0,0,1432,1433,1441,1536,1536,1536
1747546991.5423071,-0.43,-0.03,-0.01,0.0,-0.003272492347489368,-0.004363323129985824,-2.771485713009699,-1.4751772904059821,2.735006856046654,0,-12.5,0,0,0,0,1432,1433,1441,1536,1536,1536
1747546991.6413732,-0.43,-0.03,-0.01,0.0,-0.003272492347489368,-0.004363323129985824,-2.771485713009699,-1.4751772904059821,2.735006856046654,0,-12.5,0,0,0,0,1432,1433,1441,1536,1536,1536
1747546991.7419145,-0.33,0.02,0.05,0.003272492347489368,0.0,-0.14289883250703572,-2.771485713009699,-1.4751772904059821,2.735006856046654,0,-1.174209,0,0,0,0,1462,1462,1462,1536,1536,1536
1747546991.8417425,-0.33,0.02,0.05,0.003272492347489368,0.0,-0.14289883250703572,-2.771485713009699,-1.4751772904059821,2.735006856046654,0,0,0,0,0,0,1502,1502,1502,1536,1536,1536
1747546991.94212,-0.43,0.11,0.0,-0.00545415391248228,-0.002181661564992912,0.0,-2.771485713009699,-1.4751772904059821,2.735006856046654,0,0,0,0,0,0,1536,1536,1536,1536,1536,1536
1747546992.0253263,-0.48,0.01,0.07,-0.003272492347489368,0.001090830782496456,-0.001090830782496456,-2.771485713009699,-1.4751772904059821,2.735006856046654,0,0,0,0,0,0,1536,1536,1536,1536,1536,1536
1747546992.1254692,-0.48,0.01,0.07,-0.003272492347489368,0.001090830782496456,-0.001090830782496456,-2.771485713009699,-1.4751772904059821,2.735006856046654,0,0,0,0,0,0,1536,1536,1536,1536,1536,1536
1747546992.2255309,-0.41000000000000003,-0.04,-0.06,0.0,-0.001090830782496456,-0.002181661564992912,-2.771485713009699,-1.4751772904059821,2.735006856046654,0,0,0,0,0,0,1536,1536,1536,1536,1536,1536
1747546992.308469,-0.41000000000000003,-0.04,-0.06,0.0,-0.001090830782496456,-0.002181661564992912,-2.771485713009699,-1.4751772904059821,2.735006856046654,0,0,0,0,0,0,1536,1536,1536,1536,1536,1536
1747546992.4085531,-0.42,0.0,-0.03,0.0,-0.00545415391248228,-0.002181661564992912,-2.771485713009699,-1.4751772904059821,2.735006856046654,0,0,0,0,0,0,1536,1536,1536,1536,1536,1536
1747546992.508254,-0.37,0.04,0.08,-0.003272492347489368,-0.001090830782496456,-0.003272492347489368,-2.771485713009699,-1.4751772904059821,2.735006856046654,0,0,0,0,0,0,1536,1536,1536,1536,1536,1536
1747546992.608299,-0.37,0.04,0.08,-0.003272492347489368,-0.001090830782496456,-0.003272492347489368,-2.771485713009699,-1.4751772904059821,2.735006856046654,0,0,0,0,0,0,1536,1536,1536,1536,1536,1536
1747546992.708277,-0.31,0.08,0.07,0.002181661564992912,-0.004363323129985824,-0.002181661564992912,-2.771485713009699,-1.4751772904059821,2.735006856046654,0,0,0,0,0,0,1536,1536,1536,1536,1536,1536
1747546992.7921152,-0.31,0.08,0.07,0.002181661564992912,-0.004363323129985824,-0.002181661564992912,-2.771485713009699,-1.4751772904059821,2.735006856046654,0,0,0,0,0,0,1536,1536,1536,1536,1536,1536
1747546992.8921704,-0.32,0.01,0.01,-0.002181661564992912,-0.006544984694978736,-0.001090830782496456,-2.771485713009699,-1.4751772904059821,2.735006856046654,0,0,0,0,0,0,1536,1536,1536,1536,1536,1536
1747546992.9921184,-0.36,-0.05,0.04,-0.001090830782496456,-0.003272492347489368,-0.002181661564992912,-2.771485713009699,-1.4751772904059821,2.735006856046654,0,0,0,0,0,0,1536,1536,1536,1536,1536,1536
1747546993.0916388,-0.36,-0.05,0.04,-0.001090830782496456,-0.003272492347489368,-0.002181661564992912,-2.771485713009699,-1.4751772904059821,2.735006856046654,0,0,0,0,0,0,1536,1536,1536,1536,1536,1536
1747546993.1915264,-0.28,0.09,0.0,-0.003272492347489368,-0.006544984694978736,-0.001090830782496456,-2.771485713009699,-1.4751772904059821,2.735006856046654,0,0,0,0,0,0,1536,1536,1536,1536,1536,1536
1747546993.275259,-0.42,0.03,0.05,-0.001090830782496456,-0.002181661564992912,-0.002181661564992912,-2.771485713009699,-1.4751772904059821,2.735006856046654,0,0,0,0,0,0,1536,1536,1536,1536,1536,1536
1747546993.3753319,-0.42,0.03,0.05,-0.001090830782496456,-0.002181661564992912,-0.002181661564992912,-2.771485713009699,-1.4751772904059821,2.735006856046654,0,0,0,0,0,0,1536,1536,1536,1536,1536,1536
1747546993.482532,-0.4,-0.1,0.04,-0.003272492347489368,-0.004363323129985824,-0.002181661564992912,-2.771485713009699,-1.4751772904059821,2.735006856046654,0,0,0,0,0,0,1536,1536,1536,1536,1536,1536
1747546993.5755563,-0.4,-0.1,0.04,-0.003272492347489368,-0.004363323129985824,-0.002181661564992912,-2.771485713009699,-1.4751772904059821,2.735006856046654,0,0,0,0,0,0,1536,1536,1536,1536,1536,1536
1747546993.6764462,-0.26,0.07,0.0,-0.003272492347489368,-0.00545415391248228,0.0,-2.771485713009699,-1.4751772904059821,2.735006856046654,0,0.001082,0,0,0,0,1536,1536,1536,1536,1536,1536
1747546993.7601182,-0.33,0.05,0.06,-0.003272492347489368,-0.003272492347489368,-0.002181661564992912,-2.771485713009699,-1.4751772904059821,2.735006856046654,0,12.5,0,0,0,0,1561,1560,1553,1536,1536,1536
1747546993.8586903,-0.33,0.05,0.06,-0.003272492347489368,-0.003272492347489368,-0.002181661564992912,-2.771485713009699,-1.4751772904059821,2.735006856046654,0,12.5,0,0,0,0,1561,1560,1553,1536,1536,1536
1747546993.958335,-0.49,0.0,0.08,-0.003272492347489368,0.0,0.002181661564992912,-2.771485713009699,-1.4751772904059821,2.735006856046654,0,12.5,0,0,0,0,1561,1560,1553,1536,1536,1536
1747546994.0417504,-0.49,0.0,0.08,-0.003272492347489368,0.0,0.002181661564992912,-2.771485713009699,-1.4751772904059821,2.735006856046654,0,12.5,0,0,0,0,1561,1560,1553,1536,1536,1536
1747546994.142346,-0.32,-0.04,0.02,-0.004363323129985824,-0.008726646259971648,-0.001090830782496456,-2.771485713009699,-1.4751772904059821,2.735006856046654,0,12.5,0,0,0,0,1561,1560,1553,1536,1536,1536
1747546994.241319,-0.37,-0.09,0.06,-0.002181661564992912,-0.00545415391248228,0.0,-2.771485713009699,-1.4751772904059821,2.735006856046654,0,12.5,0,0,0,0,1561,1560,1553,1536,1536,1536
1747546994.3251579,-0.37,-0.09,0.06,-0.002181661564992912,-0.00545415391248228,0.0,-2.771485713009699,-1.4751772904059821,2.735006856046654,0,12.5,0,0,0,0,1561,1560,1553,1536,1536,1536
1747546994.4254766,-0.4,0.05,0.06,0.0,-0.001090830782496456,-0.003272492347489368,-2.771485713009699,-1.4751772904059821,2.735006856046654,0,12.5,0,0,0,0,1561,1560,1553,1536,1536,1536
1747546994.5085948,-0.4,0.05,0.06,0.0,-0.001090830782496456,-0.003272492347489368,-2.771485713009699,-1.4751772904059821,2.735006856046654,0,12.5,0,0,0,0,1561,1560,1553,1536,1536,1536
1747546994.6084082,-0.31,-0.02,0.01,-0.003272492347489368,-0.001090830782496456,0.0,-2.7721688559015862,-1.4760442341214257,2.7357234620869804,0,12.5,0,0,0,0,1561,1560,1553,1536,1536,1536
1747546994.7094085,-0.36,0.04,-0.02,0.0,-0.003272492347489368,-0.002181661564992912,-2.7721688559015862,-1.4760442341214257,2.7357234620869804,0,12.5,0,0,0,0,1561,1560,1553,1536,1536,1536
1747546994.7918346,-0.36,0.04,-0.02,0.0,-0.003272492347489368,-0.002181661564992912,-2.7721688559015862,-1.4760442341214257,2.7357234620869804,0,12.5,0,0,0,0,1561,1560,1553,1536,1536,1536
1747546994.8914485,-0.35000000000000003,0.08,0.0,-0.00545415391248228,-0.002181661564992912,0.0,-2.7721688559015862,-1.4760442341214257,2.7357234620869804,0,0.674018,0,0,0,0,1536,1536,1536,1536,1536,1536
1747546994.9924126,-0.35000000000000003,0.08,0.0,-0.00545415391248228,-0.002181661564992912,0.0,-2.7721688559015862,-1.4760442341214257,2.7357234620869804,0,0,0,0,0,0,1536,1536,1536,1536,1536,1536
1747546995.0918682,-0.32,0.0,0.04,0.002181661564992912,-0.002181661564992912,-0.002181661564992912,-2.7721688559015862,-1.4760442341214257,2.7357234620869804,0,0,0,0,0,0,1536,1536,1536,1536,1536,1536
1747546995.1919565,-0.48,-0.03,0.06,-0.001090830782496456,-0.002181661564992912,-0.001090830782496456,-2.7721688559015862,-1.4760442341214257,2.7357234620869804,0,0,0,0,0,0,1536,1536,1536,1536,1536,1536
1747546995.2755249,-0.48,-0.03,0.06,-0.001090830782496456,-0.002181661564992912,-0.001090830782496456,-2.7721688559015862,-1.4760442341214257,2.7357234620869804,0,0,0,0,0,0,1536,1536,1536,1536,1536,1536
1747546995.3751867,-0.32,0.01,0.0,-0.003272492347489368,-0.002181661564992912,-0.002181661564992912,-2.7721688559015862,-1.4760442341214257,2.7357234620869804,0,0,0,0,0,0,1536,1536,1536,1536,1536,1536
1747546995.474905,-0.32,0.01,0.0,-0.003272492347489368,-0.002181661564992912,-0.002181661564992912,-2.7721688559015862,-1.4760442341214257,2.7357234620869804,0,0,0,0,0,0,1536,1536,1536,1536,1536,1536
1747546995.5591507,-0.42,0.0,0.06,-0.001090830782496456,-0.003272492347489368,-0.002181661564992912,-2.7721688559015862,-1.4760442341214257,2.7357234620869804,0,0,0,0,0,0,1536,1536,1536,1536,1536,1536
1747546995.65872,-0.39,-0.05,0.08,0.002181661564992912,-0.004363323129985824,-0.001090830782496456,-2.7721688559015862,-1.4760442341214257,2.7357234620869804,0,0,0,0,0,0,1536,1536,1536,1536,1536,1536
1747546995.759296,-0.39,-0.05,0.08,0.002181661564992912,-0.004363323129985824,-0.001090830782496456,-2.7721688559015862,-1.4760442341214257,2.7357234620869804,0,0,0,0,0,0,1536,1536,1536,1536,1536,1536
1747546995.8583953,-0.33,0.05,0.03,-0.00545415391248228,-0.004363323129985824,0.0,-2.7721688559015862,-1.4760442341214257,2.7357234620869804,0,0,0,0,0,0,1536,1536,1536,1536,1536,1536
1747546995.9532404,-0.31,0.17,0.0,0.003272492347489368,-0.004363323129985824,-0.002181661564992912,-2.7721688559015862,-1.4760442341214257,2.7357234620869804,0,0,0,0,0,0,1536,1536,1536,1536,1536,1536
1747546996.0416245,-0.31,0.17,0.0,0.003272492347489368,-0.004363323129985824,-0.002181661564992912,-2.7721688559015862,-1.4760442341214257,2.7357234620869804,0,0,0,0,0,0,1536,1536,1536,1536,1536,1536
1747546996.142331,-0.4,0.01,0.02,0.001090830782496456,-0.002181661564992912,-0.003272492347489368,-2.7721688559015862,-1.4760442341214257,2.7357234620869804,0,0,0,0,0,0,1536,1536,1536,1536,1536,1536
1747546996.2421656,-0.4,0.01,0.02,0.001090830782496456,-0.002181661564992912,-0.003272492347489368,-2.7721688559015862,-1.4760442341214257,2.7357234620869804,0,0,0,0,0,0,1536,1536,1536,1536,1536,1536
1747546996.3427055,-0.36,-0.04,0.08,-0.001090830782496456,-0.002181661564992912,-0.004363323129985824,-2.7721688559015862,-1.4760442341214257,2.7357234620869804,0,0,0,0,0,0,1536,1536,1536,1536,1536,1536
1747546996.44151,-0.3,0.0,0.05,-0.002181661564992912,0.0,-0.003272492347489368,-2.7721688559015862,-1.4760442341214257,2.7357234620869804,0,0,0,0,0,0,1536,1536,1536,1536,1536,1536
1747546996.5245945,-0.3,0.0,0.05,-0.002181661564992912,0.0,-0.003272492347489368,-2.7721688559015862,-1.4760442341214257,2.7357234620869804,0,0,0,0,0,0,1536,1536,1536,1536,1536,1536
1747546996.625568,-0.42,-0.1,0.08,-0.006544984694978736,-0.001090830782496456,-0.001090830782496456,-2.7721688559015862,-1.4760442341214257,2.7357234620869804,0,0,0,0,0,-1e-06,1536,1536,1536,1536,1536,1536
1747546996.7247431,-0.42,-0.1,0.08,-0.006544984694978736,-0.001090830782496456,-0.001090830782496456,-2.7721688559015862,-1.4760442341214257,2.7357234620869804,0,0,0,0,0,-0.568169,1496,1545,1536,1536,1536,1536
1747546996.8079305,-0.33,0.0,0.02,-0.001090830782496456,-0.00545415391248228,-0.001090830782496456,-2.7721688559015862,-1.4760442341214257,2.7357234620869804,0,0,0,0,0,-0.7,1456,1548,1536,1536,1536,1536
1747546996.8978593,-0.34,0.07,0.0,0.0,-0.003272492347489368,0.002181661564992912,-2.7721688559015862,-1.4760442341214257,2.7357234620869804,0,0,0,0,0,-0.7,1446,1548,1536,1536,1536,1536
1747546997.0081859,-0.34,0.07,0.0,0.0,-0.003272492347489368,0.002181661564992912,-2.7721688559015862,-1.4760442341214257,2.7357234620869804,0,0,0,0,0,-0.7,1446,1548,1536,1536,1536,1536
1747546997.1086535,-0.4,0.1,-0.04,0.001090830782496456,-0.001090830782496456,-0.004363323129985824,-2.7721688559015862,-1.4760442341214257,2.7357234620869804,0,0,0,0,0,-0.7,1446,1548,1536,1536,1536,1536
1747546997.2077563,-0.4,0.1,-0.04,0.001090830782496456,-0.001090830782496456,-0.004363323129985824,-2.7721688559015862,-1.4760442341214257,2.7357234620869804,0,0,0,0,0,-0.7,1446,1548,1536,1536,1536,1536
1747546997.2919438,-0.33,0.01,0.0,-0.004363323129985824,-0.004363323129985824,-0.003272492347489368,-2.7721688559015862,-1.4760442341214257,2.7357234620869804,0,0,0,0,0,-0.7,1446,1548,1536,1536,1536,1536
1747546997.3918839,-0.36,-0.01,0.0,-0.001090830782496456,-0.001090830782496456,-0.002181661564992912,-2.7721688559015862,-1.4760442341214257,2.7357234620869804,0,0,0,0,0,-0.7,1446,1548,1536,1536,1536,1536
1747546997.4912407,-0.36,-0.01,0.0,-0.001090830782496456,-0.001090830782496456,-0.002181661564992912,-2.7721688559015862,-1.4760442341214257,2.7357234620869804,0,0,0,0,0,-0.298711,1460,1539,1536,1536,1536,1536
1747546997.5754437,-0.37,-0.01,0.05,0.001090830782496456,0.001090830782496456,-0.001090830782496456,-2.7721688559015862,-1.4760442341214257,2.7357234620869804,0,0,0,0,0,0,1500,1536,1536,1536,1536,1536
1747546997.6754525,-0.37,-0.01,0.05,0.001090830782496456,0.001090830782496456,-0.001090830782496456,-2.7721688559015862,-1.4760442341214257,2.7357234620869804,0,0,0,0,0,0,1536,1536,1536,1536,1536,1536
1747546997.7582905,-0.23,0.03,-0.03,-0.003272492347489368,0.001090830782496456,-0.002181661564992912,-2.7721688559015862,-1.4760442341214257,2.7357234620869804,0,0,0,0,0,0,1536,1536,1536,1536,1536,1536
1747546997.8589501,-0.41000000000000003,0.05,0.03,-0.003272492347489368,-0.01090830782496456,-0.002181661564992912,-2.7721994629311135,-1.4750974904319167,2.735723318492679,0,0,0,0,0,0,1536,1536,1536,1536,1536,1536
1747546997.9588933,-0.41000000000000003,0.05,0.03,-0.003272492347489368,-0.01090830782496456,-0.002181661564992912,-2.7721994629311135,-1.4750974904319167,2.735723318492679,0,0,0,0,0,0,1536,1536,1536,1536,1536,1536
1747546998.041609,-0.37,0.02,0.06,-0.001090830782496456,-0.003272492347489368,-0.004363323129985824,-2.7721994629311135,-1.4750974904319167,2.735723318492679,0,0,0,0,0,0.076822,1536,1536,1536,1536,1536,1536
1747546998.1410327,-0.37,0.02,0.06,-0.001090830782496456,-0.003272492347489368,-0.004363323129985824,-2.7721994629311135,-1.4750974904319167,2.735723318492679,0,0,0,0,0,0.7,1548,1496,1536,1536,1536,1536
1747546998.240968,-0.36,-0.02,0.09,-0.001090830782496456,-0.007635815477475192,0.001090830782496456,-2.7721994629311135,-1.4750974904319167,2.735723318492679,0,0,0,0,0,0.7,1548,1456,1536,1536,1536,1536
1747546998.324692,-0.34,0.05,0.06,-0.001090830782496456,0.001090830782496456,-0.001090830782496456,-2.7721994629311135,-1.4750974904319167,2.735723318492679,0,0,0,0,0,0.7,1548,1446,1536,1536,1536,1536
1747546998.4246545,-0.34,0.05,0.06,-0.001090830782496456,0.001090830782496456,-0.001090830782496456,-2.7721994629311135,-1.4750974904319167,2.735723318492679,0,0,0,0,0,0.7,1548,1446,1536,1536,1536,1536
1747546998.5085516,-0.22,-0.04,0.03,-0.003272492347489368,-0.006544984694978736,-0.004363323129985824,-2.7721994629311135,-1.4750974904319167,2.735723318492679,0,0,0,0,0,0.7,1548,1446,1536,1536,1536,1536
1747546998.6078389,-0.22,-0.04,0.03,-0.003272492347489368,-0.006544984694978736,-0.004363323129985824,-2.7721994629311135,-1.4750974904319167,2.735723318492679,0,0,0,0,0,0.7,1548,1446,1536,1536,1536,1536
1747546998.7082767,-0.35000000000000003,0.02,0.1,0.001090830782496456,-0.001090830782496456,-0.003272492347489368,-2.7721994629311135,-1.4750974904319167,2.735723318492679,0,0,0,0,0,0.7,1548,1446,1536,1536,1536,1536
1747546998.7907271,-0.35000000000000003,0.02,0.1,0.001090830782496456,-0.001090830782496456,-0.003272492347489368,-2.7721994629311135,-1.4750974904319167,2.735723318492679,0,0,0,0,0,0.7,1548,1446,1536,1536,1536,1536
1747546998.8913617,-0.35000000000000003,0.1,0.02,0.004363323129985824,-0.006544984694978736,-0.003272492347489368,-2.7721994629311135,-1.4750974904319167,2.735723318492679,0,0,0,0,0,0.7,1548,1446,1536,1536,1536,1536
1747546998.9916625,-0.33,-0.08,-0.01,0.0,-0.002181661564992912,-0.002181661564992912,-2.7721994629311135,-1.4750974904319167,2.735723318492679,0,0,0,0,0,0.345741,1539,1459,1536,1536,1536,1536
1747546999.0914369,-0.33,-0.08,-0.01,0.0,-0.002181661564992912,-0.002181661564992912,-2.7721994629311135,-1.4750974904319167,2.735723318492679,0,0,0,0,0,0,1536,1499,1536,1536,1536,1536
1747546999.1922257,-0.24,0.0,0.01,-0.001090830782496456,-0.00545415391248228,0.0,-2.7721994629311135,-1.4750974904319167,2.735723318492679,0,0,0,0,0,0,1536,1536,1536,1536,1536,1536
1747546999.2748778,-0.31,0.11,-0.06,-0.001090830782496456,-0.004363323129985824,-0.002181661564992912,-2.7721994629311135,-1.4750974904319167,2.735723318492679,0,0,0,0,0,0,1536,1536,1536,1536,1536,1536
1747546999.375199,-0.31,0.11,-0.06,-0.001090830782496456,-0.004363323129985824,-0.002181661564992912,-2.7721994629311135,-1.4750974904319167,2.735723318492679,0,0,0,0,0,0,1536,1536,1536,1536,1536,1536
1747546999.475418,-0.35000000000000003,-0.07,0.01,0.001090830782496456,-0.002181661564992912,-0.003272492347489368,-2.7721994629311135,-1.4750974904319167,2.735723318492679,0,0,0,0,0,0,1536,1536,1536,1536,1536,1536
1747546999.5577302,-0.35000000000000003,-0.07,0.01,0.001090830782496456,-0.002181661564992912,-0.003272492347489368,-2.7721994629311135,-1.4750974904319167,2.735723318492679,0,0,0,0,0,0,1536,1536,1536,1536,1536,1536
1747546999.6588702,-0.36,-0.09,0.02,-0.002181661564992912,-0.003272492347489368,0.002181661564992912,-2.7721994629311135,-1.4750974904319167,2.735723318492679,0,0,0,0,0,0,1536,1536,1536,1536,1536,1536
1747546999.7482152,-0.36,0.04,0.06,-0.003272492347489368,-0.00545415391248228,-0.002181661564992912,-2.7721994629311135,-1.4750974904319167,2.735723318492679,0,0,0,0,0,0,1536,1536,1536,1536,1536,1536
1747546999.841433,-0.36,0.04,0.06,-0.003272492347489368,-0.00545415391248228,-0.002181661564992912,-2.7721994629311135,-1.4750974904319167,2.735723318492679,0,0,0,0,0,0,1536,1536,1536,1536,1536,1536
1747546999.9413073,-0.39,0.0,0.08,0.0,-0.004363323129985824,0.0,-2.7721994629311135,-1.4750974904319167,2.735723318492679,0,0,0,0,0,0,1536,1536,1536,1536,1536,1536
1747547000.0247993,-0.39,0.0,0.08,0.0,-0.004363323129985824,0.0,-2.7721994629311135,-1.4750974904319167,2.735723318492679,0,0,0,0,0,0,1536,1536,1536,1536,1536,1536
1747547000.1253579,-0.3,-0.04,0.0,-0.001090830782496456,0.001090830782496456,-0.002181661564992912,-2.7721994629311135,-1.4750974904319167,2.735723318492679,0,0,0,0,0,0,1536,1536,1536,1536,1536,1536
1747547000.2212164,-0.29,0.1,0.04,-0.002181661564992912,-0.006544984694978736,-0.002181661564992912,-2.7721994629311135,-1.4750974904319167,2.735723318492679,0,0,0,0,0,0,1536,1536,1536,1536,1536,1536
1747547000.3087306,-0.29,0.1,0.04,-0.002181661564992912,-0.006544984694978736,-0.002181661564992912,-2.7721994629311135,-1.4750974904319167,2.735723318492679,0,0,0,0,0,0,1536,1536,1536,1536,1536,1536
1747547000.4079611,-0.31,0.13,-0.06,-0.003272492347489368,0.0,-0.002181661564992912,-2.7721994629311135,-1.4750974904319167,2.735723318492679,0,0,0,0,0,0,1536,1536,1536,1536,1536,1536
1747547000.5088046,-0.31,0.13,-0.06,-0.003272492347489368,0.0,-0.002181661564992912,-2.7721994629311135,-1.4750974904319167,2.735723318492679,0,0,0,0,0,0,1536,1536,1536,1536,1536,1536
1747547000.6081975,-0.4,0.0,0.02,-0.004363323129985824,-0.003272492347489368,0.0,-2.7721994629311135,-1.4750974904319167,2.735723318492679,0,0,0,0,0,0,1536,1536,1536,1536,1536,1536
1747547000.700915,-0.14,0.09,-0.11,-0.002181661564992912,-0.002181661564992912,-0.002181661564992912,-2.7721994629311135,-1.4750974904319167,2.735723318492679,0,0,0,0,0,0,1536,1536,1536,1536,1536,1536
1747547000.7934499,-0.14,0.09,-0.11,-0.002181661564992912,-0.002181661564992912,-0.002181661564992912,-2.7721994629311135,-1.4750974904319167,2.735723318492679,0,0,0,0,0,0,1536,1536,1536,1536,1536,1536
1747547000.8941092,-0.23,0.09,0.0,0.001090830782496456,-0.007635815477475192,-0.004363323129985824,-2.7721994629311135,-1.4750974904319167,2.735723318492679,0,0,0,0,0,0,1536,1536,1536,1536,1536,1536
1747547000.9935026,-0.23,0.09,0.0,0.001090830782496456,-0.007635815477475192,-0.004363323129985824,-2.7721994629311135,-1.4750974904319167,2.735723318492679,0,0,0,0,0,0,1536,1536,1536,1536,1536,1536
1747547001.094545,-0.32,0.03,0.06,-0.002181661564992912,-0.002181661564992912,-0.004363323129985824,-2.7721994629311135,-1.4750974904319167,2.735723318492679,0,0,0,0,0,0,1536,1536,1536,1536,1536,1536
1747547001.1956139,-0.2,-0.03,0.02,0.002181661564992912,-0.007635815477475192,-0.003272492347489368,-2.7721994629311135,-1.4750974904319167,2.735723318492679,0,0,0,0,0,0,1536,1536,1536,1536,1536,1536
1747547001.2930846,-0.2,-0.03,0.02,0.002181661564992912,-0.007635815477475192,-0.003272492347489368,-2.7721994629311135,-1.4750974904319167,2.735723318492679,0,0,0,0,0,0,1536,1536,1536,1536,1536,1536
1747547001.394134,-0.38,-0.02,0.08,-0.003272492347489368,-0.006544984694978736,-0.002181661564992912,-2.7721994629311135,-1.4750974904319167,2.735723318492679,0,0,0,0,0,0,1536,1536,1536,1536,1536,1536
1747547001.4911585,-0.47000000000000003,-0.03,0.05,-0.001090830782496456,-0.002181661564992912,0.0,-2.7721994629311135,-1.4750974904319167,2.735723318492679,0,0,0,0,0,0,1536,1536,1536,1536,1536,1536
1747547001.5760722,-0.47000000000000003,-0.03,0.05,-0.001090830782496456,-0.002181661564992912,0.0,-2.7721994629311135,-1.4750974904319167,2.735723318492679,0,0,0,0,0,0,1536,1536,1536,1536,1536,1536
1747547001.6774678,-0.28,0.04,-0.01,-0.002181661564992912,-0.006544984694978736,-0.002181661564992912,-2.7721994629311135,-1.4750974904319167,2.735723318492679,0,0,0,0,0,0,1536,1536,1536,1536,1536,1536
1747547001.7624118,-0.28,0.04,-0.01,-0.002181661564992912,-0.006544984694978736,-0.002181661564992912,-2.7721994629311135,-1.4750974904319167,2.735723318492679,0,0,0,0,0,0,1536,1536,1536,1536,1536,1536
1747547001.8604484,-0.39,-0.05,0.05,0.003272492347489368,-0.004363323129985824,-0.002181661564992912,-2.7729107767908756,-1.475017600924688,2.7364373422618,0,0,0,0,0,0,1536,1536,1536,1536,1536,1536
1747547001.960173,-0.39,-0.05,0.05,0.003272492347489368,-0.004363323129985824,-0.002181661564992912,-2.7729107767908756,-1.475017600924688,2.7364373422618,0,0,0,0,0,0,1536,1536,1536,1536,1536,1536
1747547002.044117,-0.37,-0.04,0.0,-0.001090830782496456,0.0,-0.002181661564992912,-2.7729107767908756,-1.475017600924688,2.7364373422618,0,0,0,0,0,0,1536,1536,1536,1536,1536,1536
1747547002.1426184,-0.43,0.0,0.07,-0.001090830782496456,-0.002181661564992912,0.0,-2.7729107767908756,-1.475017600924688,2.7364373422618,0,0,0,0,0,0,1536,1536,1536,1536,1536,1536
1747547002.2269027,-0.43,0.0,0.07,-0.001090830782496456,-0.002181661564992912,0.0,-2.7729107767908756,-1.475017600924688,2.7364373422618,0,0,0,0,0,0,1536,1536,1536,1536,1536,1536
1747547002.3267694,-0.41000000000000003,0.0,0.02,-0.004363323129985824,-0.001090830782496456,0.001090830782496456,-2.7729107767908756,-1.475017600924688,2.7364373422618,0,0,0,0,0,0,1536,1536,1536,1536,1536,1536
1747547002.4262912,-0.41000000000000003,0.0,0.02,-0.004363323129985824,-0.001090830782496456,0.001090830782496456,-2.7729107767908756,-1.475017600924688,2.7364373422618,0,0,0,0,0,0,1536,1536,1536,1536,1536,1536
1747547002.5087855,-0.41000000000000003,-0.09,0.04,0.001090830782496456,-0.002181661564992912,-0.001090830782496456,-2.7729107767908756,-1.475017600924688,2.7364373422618,0,0,0,0,0,0,1536,1536,1536,1536,1536,1536
1747547002.60434,-0.35000000000000003,-0.01,0.0,0.0,0.001090830782496456,-0.002181661564992912,-2.7729107767908756,-1.475017600924688,2.7364373422618,0,0,0,0,0,0,1536,1536,1536,1536,1536,1536
1747547002.7100313,-0.35000000000000003,-0.01,0.0,0.0,0.001090830782496456,-0.002181661564992912,-2.7729107767908756,-1.475017600924688,2.7364373422618,0,0,0,0,0,0,1536,1536,1536,1536,1536,1536
1747547002.7926328,-0.5700000000000001,0.05,-0.04,0.002181661564992912,-0.002181661564992912,-0.00545415391248228,-2.7729107767908756,-1.475017600924688,2.7364373422618,0,0,0,0,0,0,1536,1536,1536,1536,1536,1536
1747547002.8926141,-0.5700000000000001,0.05,-0.04,0.002181661564992912,-0.002181661564992912,-0.00545415391248228,-2.7729107767908756,-1.475017600924688,2.7364373422618,0,0,0,0,0,0,1536,1536,1536,1536,1536,1536
1747547002.9927888,-0.37,0.03,0.06,-0.001090830782496456,-0.007635815477475192,-0.002181661564992912,-2.7729107767908756,-1.475017600924688,2.7364373422618,0,0,0,0,0,0,1536,1536,1536,1536,1536,1536
1747547003.0927246,-0.35000000000000003,0.03,-0.05,-0.001090830782496456,-0.008726646259971648,-0.002181661564992912,-2.7729107767908756,-1.475017600924688,2.7364373422618,0,0,0,0,0,0,1536,1536,1536,1536,1536,1536
1747547003.193344,-0.35000000000000003,0.03,-0.05,-0.001090830782496456,-0.008726646259971648,-0.002181661564992912,-2.7729107767908756,-1.475017600924688,2.7364373422618,0,0,0,0,0,0,1536,1536,1536,1536,1536,1536
1747547003.2755108,-0.37,0.06,-0.02,-0.001090830782496456,-0.001090830782496456,-0.002181661564992912,-2.7729107767908756,-1.475017600924688,2.7364373422618,0,0,0,0,0,0,1536,1536,1536,1536,1536,1536
1747547003.37616,-0.37,0.06,-0.02,-0.001090830782496456,-0.001090830782496456,-0.002181661564992912,-2.7729107767908756,-1.475017600924688,2.7364373422618,0,0,0,0,0,0,1536,1536,1536,1536,1536,1536
1747547003.4755177,-0.34,0.0,0.01,0.001090830782496456,0.0,-0.004363323129985824,-2.7729107767908756,-1.475017600924688,2.7364373422618,0,0,0,0,0,0,1536,1536,1536,1536,1536,1536
1747547003.5759933,-0.37,-0.07,0.0,-0.00545415391248228,0.0,0.0,-2.7729107767908756,-1.475017600924688,2.7364373422618,0,0,0,0,0,0,1536,1536,1536,1536,1536,1536
1747547003.6758952,-0.37,-0.07,0.0,-0.00545415391248228,0.0,0.0,-2.7729107767908756,-1.475017600924688,2.7364373422618,0,0,0,0,0,0,1536,1536,1536,1536,1536,1536
1747547003.7596512,-0.29,0.01,0.06,0.0,-0.00545415391248228,-0.004363323129985824,-2.7729107767908756,-1.475017600924688,2.7364373422618,0,0,0,0,0,0,1536,1536,1536,1536,1536,1536
1747547003.8578331,-0.4,0.0,0.05,0.0,-0.002181661564992912,-0.003272492347489368,-2.7729107767908756,-1.475017600924688,2.7364373422618,0,0,0,0,0,0,1536,1536,1536,1536,1536,1536
1747547003.9587653,-0.4,0.0,0.05,0.0,-0.002181661564992912,-0.003272492347489368,-2.7729107767908756,-1.475017600924688,2.7364373422618,0,0,0,0,0,0,1536,1536,1536,1536,1536,1536
1747547004.0417838,-0.35000000000000003,0.0,0.0,-0.004363323129985824,-0.004363323129985824,-0.001090830782496456,-2.7729107767908756,-1.475017600924688,2.7364373422618,0,0,0,0,0,0,1536,1536,1536,1536,1536,1536
1747547004.157893,-0.35000000000000003,0.0,0.0,-0.004363323129985824,-0.004363323129985824,-0.001090830782496456,-2.7729107767908756,-1.475017600924688,2.7364373422618,0,0,0,0,0,0,1536,1536,1536,1536,1536,1536
1747547004.258153,-0.38,0.01,0.04,-0.001090830782496456,-0.004363323129985824,0.001090830782496456,-2.7729107767908756,-1.475017600924688,2.7364373422618,0,0,0,0,0,0,1536,1536,1536,1536,1536,1536
1747547004.3577995,-0.33,0.0,0.03,0.0,-0.006544984694978736,0.001090830782496456,-2.7729107767908756,-1.475017600924688,2.7364373422618,0,0,0,0,0,0,1536,1536,1536,1536,1536,1536
1747547004.46194,-0.33,0.0,0.03,0.0,-0.006544984694978736,0.001090830782496456,-2.7729107767908756,-1.475017600924688,2.7364373422618,0,0,0,0,0,0,1536,1536,1536,1536,1536,1536
1747547004.56149,-0.31,-0.03,0.04,-0.001090830782496456,-0.00545415391248228,-0.003272492347489368,-2.7729107767908756,-1.475017600924688,2.7364373422618,0,0,0,0,0,0,1536,1536,1536,1536,1536,1536
1747547004.6600227,-0.32,-0.05,0.0,-0.004363323129985824,-0.004363323129985824,-0.001090830782496456,-2.7729107767908756,-1.475017600924688,2.7364373422618,0,0,0,0,0,0,1536,1536,1536,1536,1536,1536
1747547004.7592978,-0.32,-0.05,0.0,-0.004363323129985824,-0.004363323129985824,-0.001090830782496456,-2.7729107767908756,-1.475017600924688,2.7364373422618,0,0,0,0,0,0,1536,1536,1536,1536,1536,1536
1747547004.860525,-0.35000000000000003,0.0,0.06,0.0,-0.004363323129985824,-0.001090830782496456,-2.7729107767908756,-1.475017600924688,2.7364373422618,0,0,0,0,0,0,1536,1536,1536,1536,1536,1536
1747547004.9592948,-0.35000000000000003,0.0,0.06,0.0,-0.004363323129985824,-0.001090830782496456,-2.7729107767908756,-1.475017600924688,2.7364373422618,0,0,0,0,0,0,1536,1536,1536,1536,1536,1536
1747547005.0592937,-0.23,0.15,-0.04,0.001090830782496456,-0.002181661564992912,-0.002181661564992912,-2.7729107767908756,-1.475017600924688,2.7364373422618,0,0,0,0,0,0,1536,1536,1536,1536,1536,1536
1747547005.1592205,-0.32,-0.06,0.08,-0.00545415391248228,-0.007635815477475192,-0.002181661564992912,-2.7729107767908756,-1.475017600924688,2.7364373422618,0,0,0,0,0,0,1536,1536,1536,1536,1536,1536
1747547005.2592926,-0.32,-0.06,0.08,-0.00545415391248228,-0.007635815477475192,-0.002181661564992912,-2.7729107767908756,-1.475017600924688,2.7364373422618,0,0,0,0,0,0,1536,1536,1536,1536,1536,1536
1747547005.3587477,-0.4,0.07,0.01,-0.003272492347489368,-0.006544984694978736,-0.001090830782496456,-2.7729107767908756,-1.475017600924688,2.7364373422618,0,0,0,0,0,0,1536,1536,1536,1536,1536,1536
1747547005.459191,-0.4,0.08,0.06,-0.001090830782496456,-0.006544984694978736,-0.003272492347489368,-2.7729107767908756,-1.475017600924688,2.7364373422618,0,0,0,0,0,0,1536,1536,1536,1536,1536,1536
1747547005.5425649,-0.4,0.08,0.06,-0.001090830782496456,-0.006544984694978736,-0.003272492347489368,-2.7729107767908756,-1.475017600924688,2.7364373422618,0,0,0,0,0,0,1536,1536,1536,1536,1536,1536
1747547005.6424096,-0.4,-0.04,0.06,-0.002181661564992912,0.0,-0.003272492347489368,-2.7729107767908756,-1.475017600924688,2.7364373422618,0,0,0,0,0,0,1536,1536,1536,1536,1536,1536
1747547005.7426252,-0.4,-0.04,0.06,-0.002181661564992912,0.0,-0.003272492347489368,-2.7729107767908756,-1.475017600924688,2.7364373422618,0,0,0,0,0,0,1536,1536,1536,1536,1536,1536
1747547005.843288,-0.37,-0.04,0.04,-0.003272492347489368,-0.002181661564992912,-0.002181661564992912,-2.7729107767908756,-1.475017600924688,2.7364373422618,0,0,0,0,0,0,1536,1536,1536,1536,1536,1536
1747547005.9426224,-0.28,0.08,0.02,-0.004363323129985824,-0.002181661564992912,0.0,-2.7729107767908756,-1.475017600924688,2.7364373422618,0,0,0,0,0,0,1536,1536,1536,1536,1536,1536
1747547006.0265126,-0.28,0.08,0.02,-0.004363323129985824,-0.002181661564992912,0.0,-2.7729107767908756,-1.475017600924688,2.7364373422618,0,0,0,0,0,0,1536,1536,1536,1536,1536,1536
1747547006.1264663,-0.19,0.0,-0.05,-0.002181661564992912,-0.006544984694978736,-0.001090830782496456,-2.7729107767908756,-1.475017600924688,2.7364373422618,0,0,0,0,0,0,1536,1536,1536,1536,1536,1536
1747547006.2194886,-0.37,0.05,0.02,-0.001090830782496456,-0.004363323129985824,0.0,-2.7729107767908756,-1.475017600924688,2.7364373422618,0,0,0,0,0,0,1536,1536,1536,1536,1536,1536
1747547006.3094344,-0.37,0.05,0.02,-0.001090830782496456,-0.004363323129985824,0.0,-2.7729107767908756,-1.475017600924688,2.7364373422618,0,0,0,0,0,0,1536,1536,1536,1536,1536,1536
1747547006.4093878,-0.3,0.07,0.02,-0.004363323129985824,-0.004363323129985824,0.0,-2.7729107767908756,-1.475017600924688,2.7364373422618,0,0,0,0,0,0,1536,1536,1536,1536,1536,1536
1747547006.493458,-0.3,0.07,0.02,-0.004363323129985824,-0.004363323129985824,0.0,-2.7729107767908756,-1.475017600924688,2.7364373422618,0,0,0,0,0,0,1536,1536,1536,1536,1536,1536
1747547006.5933025,-0.35000000000000003,-0.05,0.0,-0.001090830782496456,0.001090830782496456,0.0,-2.7729107767908756,-1.475017600924688,2.7364373422618,0,0,0,0,0,0,1536,1536,1536,1536,1536,1536
1747547006.692571,-0.35000000000000003,-0.05,0.0,-0.001090830782496456,0.001090830782496456,0.0,-2.7729107767908756,-1.475017600924688,2.7364373422618,0,0,0,0,0,0,1536,1536,1536,1536,1536,1536
1747547006.775446,-0.38,0.0,-0.02,-0.002181661564992912,-0.00545415391248228,0.0,-2.7729107767908756,-1.475017600924688,2.7364373422618,0,0,0,0,0,0,1536,1536,1536,1536,1536,1536
1747547006.8763278,-0.4,-0.05,0.04,-0.003272492347489368,0.003272492347489368,0.0,-2.7729107767908756,-1.475017600924688,2.7364373422618,0,0,0,0,0,0,1536,1536,1536,1536,1536,1536
1747547006.9759371,-0.4,-0.05,0.04,-0.003272492347489368,0.003272492347489368,0.0,-2.7729107767908756,-1.475017600924688,2.7364373422618,0,0,0,0,0,0,1536,1536,1536,1536,1536,1536
1747547007.0751646,-0.31,0.06,0.0,-0.00545415391248228,-0.003272492347489368,-0.001090830782496456,-2.7729107767908756,-1.475017600924688,2.7364373422618,0,0,0,0,0,0,1536,1536,1536,1536,1536,1536
1747547007.1752832,-0.31,0.06,0.0,-0.00545415391248228,-0.003272492347489368,-0.001090830782496456,-2.7729107767908756,-1.475017600924688,2.7364373422618,0,0,0,0,0,0,1536,1536,1536,1536,1536,1536
1747547007.2596004,-0.35000000000000003,0.05,0.0,-0.003272492347489368,-0.006544984694978736,-0.002181661564992912,-2.7729107767908756,-1.475017600924688,2.7364373422618,0,0,0,0,0,0,1536,1536,1536,1536,1536,1536
1747547007.3589404,-0.41000000000000003,0.01,0.0,-0.001090830782496456,-0.00545415391248228,-0.002181661564992912,-2.7729107767908756,-1.475017600924688,2.7364373422618,0,0,0,0,0,0,1536,1536,1536,1536,1536,1536
1747547007.4586663,-0.41000000000000003,0.01,0.0,-0.001090830782496456,-0.00545415391248228,-0.002181661564992912,-2.7729107767908756,-1.475017600924688,2.7364373422618,0,0,0,0,0,0,1536,1536,1536,1536,1536,1536
1747547007.5413477,-0.24,-0.02,-0.03,0.002181661564992912,-0.002181661564992912,-0.004363323129985824,-2.7729107767908756,-1.475017600924688,2.7364373422618,0,0,0,0,0,0,1536,1536,1536,1536,1536,1536
1747547007.6422248,-0.24,-0.02,-0.03,0.002181661564992912,-0.002181661564992912,-0.004363323129985824,-2.7729107767908756,-1.475017600924688,2.7364373422618,0,0,0,0,0,0,1536,1536,1536,1536,1536,1536
1747547007.742436,-0.31,0.0,0.01,0.0,-0.004363323129985824,-0.002181661564992912,-2.7729107767908756,-1.475017600924688,2.7364373422618,0,0,0,0,0,0,1536,1536,1536,1536,1536,1536
1747547007.8412986,-0.36,0.05,0.07,-0.004363323129985824,-0.003272492347489368,-0.002181661564992912,-2.7736196663011805,-1.4749376221069572,2.7371489390669907,0,0,0,0,0,0,1536,1536,1536,1536,1536,1536
1747547007.9425309,-0.36,0.05,0.07,-0.004363323129985824,-0.003272492347489368,-0.002181661564992912,-2.7736196663011805,-1.4749376221069572,2.7371489390669907,0,0,0,0,0,0,1536,1536,1536,1536,1536,1536
1747547008.0258944,-0.39,-0.09,0.09,-0.006544984694978736,-0.001090830782496456,0.001090830782496456,-2.7736196663011805,-1.4749376221069572,2.7371489390669907,0,0,0,0,0,0,1536,1536,1536,1536,1536,1536
1747547008.1256976,-0.39,0.05,0.04,0.0,-0.003272492347489368,-0.001090830782496456,-2.7736196663011805,-1.4749376221069572,2.7371489390669907,0,0,0,0,0,0,1536,1536,1536,1536,1536,1536
1747547008.2250414,-0.39,0.05,0.04,0.0,-0.003272492347489368,-0.001090830782496456,-2.7736196663011805,-1.4749376221069572,2.7371489390669907,0,0,0,0,0,0,1536,1536,1536,1536,1536,1536
1747547008.3088942,-0.36,0.06,0.07,-0.002181661564992912,-0.00545415391248228,-0.002181661564992912,-2.7736196663011805,-1.4749376221069572,2.7371489390669907,0,0,0,0,0,0,1536,1536,1536,1536,1536,1536
1747547008.408601,-0.36,0.06,0.07,-0.002181661564992912,-0.00545415391248228,-0.002181661564992912,-2.7736196663011805,-1.4749376221069572,2.7371489390669907,0,0,0,0,0,0,1536,1536,1536,1536,1536,1536
1747547008.4927146,-0.33,-0.01,-0.03,-0.003272492347489368,-0.003272492347489368,-0.003272492347489368,-2.7736196663011805,-1.4749376221069572,2.7371489390669907,0,0,0,0,0,0,1536,1536,1536,1536,1536,1536
1747547008.5924356,-0.39,-0.01,0.06,-0.002181661564992912,-0.004363323129985824,-0.001090830782496456,-2.7736196663011805,-1.4749376221069572,2.7371489390669907,0,0,0,0,0,0,1536,1536,1536,1536,1536,1536
1747547008.6925924,-0.39,-0.01,0.06,-0.002181661564992912,-0.004363323129985824,-0.001090830782496456,-2.7736196663011805,-1.4749376221069572,2.7371489390669907,0,0,0,0,0,0,1536,1536,1536,1536,1536,1536
1747547008.7757127,-0.31,0.08,0.01,-0.004363323129985824,-0.01090830782496456,-0.001090830782496456,-2.7743261431044237,-1.474857554200889,2.7378581205515156,0,0,0,0,0,0,1536,1536,1536,1536,1536,1536
1747547008.8757746,-0.31,0.08,0.01,-0.004363323129985824,-0.01090830782496456,-0.001090830782496456,-2.7743261431044237,-1.474857554200889,2.7378581205515156,0,0,0,0,0,0,1536,1536,1536,1536,1536,1536
1747547008.9756145,-0.29,-0.02,0.0,-0.001090830782496456,-0.006544984694978736,-0.003272492347489368,-2.7743261431044237,-1.474857554200889,2.7378581205515156,0,0,0,0,0,0,1536,1536,1536,1536,1536,1536
1747547009.0597398,-0.29,-0.02,0.0,-0.001090830782496456,-0.006544984694978736,-0.003272492347489368,-2.7743261431044237,-1.474857554200889,2.7378581205515156,0,0,0,0,0,0,1536,1536,1536,1536,1536,1536
1747547009.1592178,-0.3,0.0,0.04,-0.002181661564992912,-0.002181661564992912,-0.003272492347489368,-2.7743261431044237,-1.474857554200889,2.7378581205515156,0,0,0,0,0,0,1536,1536,1536,1536,1536,1536
1747547009.2592316,-0.38,0.08,0.08,-0.00545415391248228,-0.00545415391248228,0.001090830782496456,-2.7743261431044237,-1.474857554200889,2.7378581205515156,0,0,0,0,0,0,1536,1536,1536,1536,1536,1536
1747547009.3596723,-0.38,0.08,0.08,-0.00545415391248228,-0.00545415391248228,0.001090830782496456,-2.7743261431044237,-1.474857554200889,2.7378581205515156,0,0,0,0,0,0,1536,1536,1536,1536,1536,1536
1747547009.4596915,-0.36,0.03,0.07,-0.00545415391248228,-0.006544984694978736,-0.001090830782496456,-2.7743261431044237,-1.474857554200889,2.7378581205515156,0,0,0,0,0,0,1536,1536,1536,1536,1536,1536
1747547009.5420785,-0.36,0.03,0.07,-0.00545415391248228,-0.006544984694978736,-0.001090830782496456,-2.7743261431044237,-1.474857554200889,2.7378581205515156,0,0,0,0,0,0,1536,1536,1536,1536,1536,1536
1747547009.6430323,-0.4,0.02,0.0,0.003272492347489368,0.0,-0.00545415391248228,-2.7743261431044237,-1.474857554200889,2.7378581205515156,0,0,0,0,0,0,1536,1536,1536,1536,1536,1536
1747547009.7358165,-0.29,0.05,0.0,0.002181661564992912,-0.004363323129985824,-0.003272492347489368,-2.7743261431044237,-1.474857554200889,2.7378581205515156,0,0,0,0,0,0,1536,1536,1536,1536,1536,1536
1747547009.8258176,-0.29,0.05,0.0,0.002181661564992912,-0.004363323129985824,-0.003272492347489368,-2.7743261431044237,-1.474857554200889,2.7378581205515156,0,0,0,0,0,0,1536,1536,1536,1536,1536,1536
1747547009.9276872,-0.38,0.05,0.07,-0.002181661564992912,-0.00545415391248228,-0.00545415391248228,-2.7743261431044237,-1.474857554200889,2.7378581205515156,0,0,0,0,0,0,1536,1536,1536,1536,1536,1536
1747547010.0115886,-0.38,0.05,0.07,-0.002181661564992912,-0.00545415391248228,-0.00545415391248228,-2.7743261431044237,-1.474857554200889,2.7378581205515156,0,0,0,0,0,0,1536,1536,1536,1536,1536,1536
1747547010.1089041,-0.29,-0.04,0.02,-0.002181661564992912,-0.00545415391248228,-0.002181661564992912,-2.7743261431044237,-1.474857554200889,2.7378581205515156,0,0,0,0,0,0,1536,1536,1536,1536,1536,1536
1747547010.2107491,-0.43,0.12,0.09,-0.004363323129985824,-0.003272492347489368,-0.002181661564992912,-2.7743261431044237,-1.474857554200889,2.7378581205515156,0,0,0,0,0,0,1536,1536,1536,1536,1536,1536
1747547010.308255,-0.43,0.12,0.09,-0.004363323129985824,-0.003272492347489368,-0.002181661564992912,-2.7743261431044237,-1.474857554200889,2.7378581205515156,0,0,0,0,0,0,1536,1536,1536,1536,1536,1536
1747547010.4082825,-0.39,0.05,0.04,-0.001090830782496456,-0.003272492347489368,-0.001090830782496456,-2.7743261431044237,-1.474857554200889,2.7378581205515156,0,0,0,0,0,0,1536,1536,1536,1536,1536,1536
1747547010.5076003,-0.32,0.08,0.04,-0.004363323129985824,-0.006544984694978736,-0.001090830782496456,-2.7743261431044237,-1.474857554200889,2.7378581205515156,0,0,0,0,0,0,1536,1536,1536,1536,1536,1536
1747547010.6072361,-0.32,0.08,0.04,-0.004363323129985824,-0.006544984694978736,-0.001090830782496456,-2.7743261431044237,-1.474857554200889,2.7378581205515156,0,0,0,0,0,0,1536,1536,1536,1536,1536,1536
1747547010.708412,-0.38,-0.01,0.0,-0.004363323129985824,0.0,-0.001090830782496456,-2.7743261431044237,-1.474857554200889,2.7378581205515156,0,0,0,0,0,0,1536,1536,1536,1536,1536,1536
1747547010.791424,-0.38,-0.01,0.0,-0.004363323129985824,0.0,-0.001090830782496456,-2.7743261431044237,-1.474857554200889,2.7378581205515156,0,0,0,0,0,0,1536,1536,1536,1536,1536,1536
1747547010.891656,-0.5,-0.07,0.08,-0.003272492347489368,-0.002181661564992912,-0.002181661564992912,-2.7743261431044237,-1.474857554200889,2.7378581205515156,0,0,0,0,0,0,1536,1536,1536,1536,1536,1536
1747547010.990874,-0.37,0.01,0.02,-0.003272492347489368,-0.00545415391248228,-0.003272492347489368,-2.7743261431044237,-1.474857554200889,2.7378581205515156,0,0,0,0,0,0,1536,1536,1536,1536,1536,1536
1747547011.0913732,-0.37,0.01,0.02,-0.003272492347489368,-0.00545415391248228,-0.003272492347489368,-2.7743261431044237,-1.474857554200889,2.7378581205515156,0,0,0,0,0,0,1536,1536,1536,1536,1536,1536
1747547011.1915085,-0.38,-0.01,0.07,-0.002181661564992912,0.001090830782496456,-0.001090830782496456,-2.7743261431044237,-1.474857554200889,2.7378581205515156,0,0,0,0,0,0,1536,1536,1536,1536,1536,1536
1747547011.2915804,-0.38,0.02,0.03,-0.002181661564992912,-0.00545415391248228,-0.001090830782496456,-2.7743261431044237,-1.474857554200889,2.7378581205515156,0,0,0,0,0,0,1536,1536,1536,1536,1536,1536
1747547011.3918118,-0.38,0.02,0.03,-0.002181661564992912,-0.00545415391248228,-0.001090830782496456,-2.7743261431044237,-1.474857554200889,2.7378581205515156,0,0,0,0,0,0,1536,1536,1536,1536,1536,1536
1747547011.4912207,-0.42,0.01,0.06,0.0,-0.001090830782496456,0.0,-2.7743261431044237,-1.474857554200889,2.7378581205515156,0,0,0,0,0,0,1536,1536,1536,1536,1536,1536
1747547011.5745645,-0.42,0.01,0.06,0.0,-0.001090830782496456,0.0,-2.7743261431044237,-1.474857554200889,2.7378581205515156,0,0,0,0,0,0,1536,1536,1536,1536,1536,1536
1747547011.6743484,-0.39,0.0,0.11,-0.002181661564992912,0.0,0.0,-2.7743261431044237,-1.474857554200889,2.7378581205515156,0,0,0,0,0,0,1536,1536,1536,1536,1536,1536
1747547011.7745786,-0.37,0.02,-0.02,-0.004363323129985824,-0.004363323129985824,-0.003272492347489368,-2.7743261431044237,-1.474857554200889,2.7378581205515156,0,0,0,0,0,0,1536,1536,1536,1536,1536,1536
1747547011.8746135,-0.37,0.02,-0.02,-0.004363323129985824,-0.004363323129985824,-0.003272492347489368,-2.7743261431044237,-1.474857554200889,2.7378581205515156,0,0,0,0,0,0,1536,1536,1536,1536,1536,1536
1747547011.9748027,-0.4,0.08,0.01,-0.001090830782496456,-0.002181661564992912,-0.003272492347489368,-2.7743261431044237,-1.474857554200889,2.7378581205515156,0,0,0,0,0,0,1536,1536,1536,1536,1536,1536
1747547012.0580173,-0.4,0.08,0.01,-0.001090830782496456,-0.002181661564992912,-0.003272492347489368,-2.7743261431044237,-1.474857554200889,2.7378581205515156,0,0,0,0,0,0,1536,1536,1536,1536,1536,1536
1747547012.158776,-0.35000000000000003,-0.05,0.04,0.001090830782496456,-0.008726646259971648,-0.003272492347489368,-2.7734496278779606,-1.47482489256095,2.737067998364111,0,0,0,0,0,0,1536,1536,1536,1536,1536,1536
1747547012.257735,-0.41000000000000003,0.0,0.11,-0.003272492347489368,-0.006544984694978736,0.0,-2.7734496278779606,-1.47482489256095,2.737067998364111,0,0,0,0,0,0,1536,1536,1536,1536,1536,1536
1747547012.3577187,-0.41000000000000003,0.0,0.11,-0.003272492347489368,-0.006544984694978736,0.0,-2.7734496278779606,-1.47482489256095,2.737067998364111,0,0,0,0,0,0,1536,1536,1536,1536,1536,1536
1747547012.4578362,-0.39,0.0,0.06,-0.002181661564992912,0.002181661564992912,-0.001090830782496456,-2.7734496278779606,-1.47482489256095,2.737067998364111,0,0,0,0,0,0,1536,1536,1536,1536,1536,1536
1747547012.5414598,-0.39,0.0,0.06,-0.002181661564992912,0.002181661564992912,-0.001090830782496456,-2.7734496278779606,-1.47482489256095,2.737067998364111,0,0,0,0,0,0,1536,1536,1536,1536,1536,1536
1747547012.6414783,-0.36,0.05,0.01,-0.001090830782496456,-0.002181661564992912,-0.001090830782496456,-2.7734496278779606,-1.47482489256095,2.737067998364111,0,0,0,0,0,0,1536,1536,1536,1536,1536,1536
1747547012.7419422,-0.35000000000000003,-0.05,-0.04,0.001090830782496456,-0.001090830782496456,-0.001090830782496456,-2.7734496278779606,-1.47482489256095,2.737067998364111,0,0,0,0,0,0,1536,1536,1536,1536,1536,1536
1747547012.841223,-0.35000000000000003,-0.05,-0.04,0.001090830782496456,-0.001090830782496456,-0.001090830782496456,-2.7734496278779606,-1.47482489256095,2.737067998364111,0,0,0,0,0,0,1536,1536,1536,1536,1536,1536
1747547012.941391,-0.25,0.06,0.01,-0.004363323129985824,-0.002181661564992912,-0.002181661564992912,-2.7734496278779606,-1.47482489256095,2.737067998364111,0,0,0,0,0,0,1536,1536,1536,1536,1536,1536
1747547013.0253143,-0.34,0.09,0.02,-0.002181661564992912,-0.003272492347489368,0.0,-2.7734496278779606,-1.47482489256095,2.737067998364111,0,0,0,0,0,0,1536,1536,1536,1536,1536,1536
1747547013.1250854,-0.34,0.09,0.02,-0.002181661564992912,-0.003272492347489368,0.0,-2.7734496278779606,-1.47482489256095,2.737067998364111,0,0,0,0,0,0,1536,1536,1536,1536,1536,1536
1747547013.224277,-0.25,0.01,0.02,-0.003272492347489368,-0.001090830782496456,-0.001090830782496456,-2.7734496278779606,-1.47482489256095,2.737067998364111,0,0,0,0,0,0,1536,1536,1536,1536,1536,1536
1747547013.3076458,-0.25,0.01,0.02,-0.003272492347489368,-0.001090830782496456,-0.001090830782496456,-2.7734496278779606,-1.47482489256095,2.737067998364111,0,-2.978317,0,0,0,0,1496,1496,1496,1536,1536,1536
1747547013.4077663,-0.39,-0.01,0.03,-0.002181661564992912,-0.007635815477475192,-0.003272492347489368,-2.7734496278779606,-1.47482489256095,2.737067998364111,0,-5.469804,0,0,0,0,1456,1456,1456,1536,1536,1536
1747547013.507644,-0.32,0.12,0.04,0.0,-0.002181661564992912,-0.001090830782496456,-2.7734496278779606,-1.47482489256095,2.737067998364111,0,-8.37155,0,0,0,0,1416,1416,1422,1536,1536,1536
1747547013.6076906,-0.32,0.12,0.04,0.0,-0.002181661564992912,-0.001090830782496456,-2.7734496278779606,-1.47482489256095,2.737067998364111,0,-12.090605,0,0,0,0,1392,1394,1408,1536,1536,1536
1747547013.7084892,0.02,-0.23,0.23,-0.00545415391248228,-0.002181661564992912,-0.001090830782496456,-2.7734496278779606,-1.47482489256095,2.737067998364111,0,-12.5,0,0,0,0,1389,1392,1406,1536,1536,1536
1747547013.7907934,0.02,-0.23,0.23,-0.00545415391248228,-0.002181661564992912,-0.001090830782496456,-2.7734496278779606,-1.47482489256095,2.737067998364111,0,-12.5,0,0,0,0,1389,1392,1406,1536,1536,1536
1747547013.891656,-0.32,1.32,-0.03,0.0,0.0,-0.00545415391248228,-2.7759827854485,-1.4748899935138848,2.739513668154153,0,-12.5,0,0,0,0,1389,1392,1406,1536,1536,1536
1747547013.991866,-0.29,0.04,0.05,0.001090830782496456,0.001090830782496456,-0.002181661564992912,-2.7759827854485,-1.4748899935138848,2.739513668154153,0,-12.5,0,0,0,0,1389,1392,1406,1536,1536,1536
1747547014.091413,-0.29,0.04,0.05,0.001090830782496456,0.001090830782496456,-0.002181661564992912,-2.7759827854485,-1.4748899935138848,2.739513668154153,0,-12.5,0,0,0,0,1389,1392,1406,1536,1536,1536
1747547014.1914105,-0.42,0.1,0.07,0.001090830782496456,-0.002181661564992912,-0.003272492347489368,-2.7759827854485,-1.4748899935138848,2.739513668154153,0,-12.5,0,0,0,0,1389,1392,1406,1536,1536,1536
1747547014.291678,-0.37,-0.01,0.08,-0.001090830782496456,-0.002181661564992912,-0.001090830782496456,-2.7759827854485,-1.4748899935138848,2.739513668154153,0,-12.5,0,0,0,0,1389,1392,1406,1536,1536,1536
1747547014.3907933,-0.37,-0.01,0.08,-0.001090830782496456,-0.002181661564992912,-0.001090830782496456,-2.7759827854485,-1.4748899935138848,2.739513668154153,0,-12.5,0,0,0,0,1389,1392,1406,1536,1536,1536
1747547014.4919777,-0.4,-0.07,0.09,-0.003272492347489368,0.002181661564992912,-0.002181661564992912,-2.7759827854485,-1.4748899935138848,2.739513668154153,0,-12.5,0,0,0,0,1389,1392,1406,1536,1536,1536
1747547014.591655,-0.42,0.05,-0.01,0.00545415391248228,-0.003272492347489368,-0.001090830782496456,-2.7759827854485,-1.4748899935138848,2.739513668154153,0,-12.5,0,0,0,0,1389,1392,1406,1536,1536,1536
1747547014.6907678,-0.42,0.05,-0.01,0.00545415391248228,-0.003272492347489368,-0.001090830782496456,-2.7759827854485,-1.4748899935138848,2.739513668154153,0,0,0,0,0,0,1429,1432,1446,1536,1536,1536
1747547014.7749484,-0.33,0.0,-0.08,-0.001090830782496456,-0.004363323129985824,-0.002181661564992912,-2.7759827854485,-1.4748899935138848,2.739513668154153,0,0,0,0,0,0,1469,1472,1486,1536,1536,1536
1747547014.8744082,-0.33,0.0,-0.08,-0.001090830782496456,-0.004363323129985824,-0.002181661564992912,-2.7759827854485,-1.4748899935138848,2.739513668154153,0,0,0,0,0,0,1509,1512,1526,1536,1536,1536
1747547014.9745903,-0.27,0.22,-0.06,0.001090830782496456,-0.00545415391248228,-0.011999138607461015,-2.7759827854485,-1.4748899935138848,2.739513668154153,0,0,0,0,0,0,1536,1536,1536,1536,1536,1536
1747547015.0581489,-0.27,0.22,-0.06,0.001090830782496456,-0.00545415391248228,-0.011999138607461015,-2.7759827854485,-1.4748899935138848,2.739513668154153,0,0,0,0,0,0,1536,1536,1536,1536,1536,1536
1747547015.1579742,-0.4,0.01,0.08,-0.003272492347489368,-0.00545415391248228,-0.004363323129985824,-2.7759827854485,-1.4748899935138848,2.739513668154153,0,0,0,0,0,0,1536,1536,1536,1536,1536,1536
1747547015.2582166,-0.29,0.07,0.06,-0.004363323129985824,-0.001090830782496456,0.002181661564992912,-2.7766844727391513,-1.4748098097347908,2.740218062812613,0,-0.003841,0,0,0,0,1496,1496,1496,1536,1536,1536
1747547015.3581214,-0.29,0.07,0.06,-0.004363323129985824,-0.001090830782496456,0.002181661564992912,-2.7766844727391513,-1.4748098097347908,2.740218062812613,0,-0.043231,0,0,0,0,1463,1463,1463,1536,1536,1536
1747547015.4577818,-0.49,0.01,0.15,-0.001090830782496456,-0.003272492347489368,-0.002181661564992912,-2.7766844727391513,-1.4748098097347908,2.740218062812613,0,-0.105417,0,0,0,0,1463,1463,1463,1536,1536,1536
1747547015.541586,-0.23,0.02,-0.01,-0.003272492347489368,-0.002181661564992912,-0.002181661564992912,-2.7766844727391513,-1.4748098097347908,2.740218062812613,0,-0.722657,0,0,0,0,1461,1461,1462,1536,1536,1536
1747547015.6407557,-0.23,0.02,-0.01,-0.003272492347489368,-0.002181661564992912,-0.002181661564992912,-2.7766844727391513,-1.4748098097347908,2.740218062812613,0,-0.773137,0,0,0,0,1461,1461,1462,1536,1536,1536
1747547015.741497,-0.34,0.1,-0.01,-0.002181661564992912,-0.003272492347489368,-0.001090830782496456,-2.7775615330985546,-1.47484238848969,2.741008740462409,0,-0.992096,0,0,0,0,1460,1460,1461,1536,1536,1536
1747547015.8414602,-0.34,0.1,-0.01,-0.002181661564992912,-0.003272492347489368,-0.001090830782496456,-2.7775615330985546,-1.47484238848969,2.741008740462409,0,-1.440882,0,0,0,0,1456,1457,1460,1536,1536,1536
1747547015.941486,-0.38,0.03,-0.14,-0.002181661564992912,-0.004363323129985824,-0.002181661564992912,-2.7775615330985546,-1.47484238848969,2.741008740462409,0,-2.140585,0,0,0,0,1450,1450,1455,1536,1536,1536
1747547016.0244699,-0.51,0.08,0.08,-0.001090830782496456,-0.001090830782496456,0.0,-2.778341106605781,-1.4748420774231894,2.741873609490046,0,-2.140585,0,0,0,0,1450,1450,1455,1536,1536,1536
1747547016.1244457,-0.51,0.08,0.08,-0.001090830782496456,-0.001090830782496456,0.0,-2.778341106605781,-1.4748420774231894,2.741873609490046,0,-3.079918,0,0,0,0,1443,1444,1449,1536,1536,1536
1747547016.2243922,-0.38,-0.04,0.05,0.002181661564992912,0.001090830782496456,-0.001090830782496456,-2.778341106605781,-1.4748420774231894,2.741873609490046,0,-3.613487,0,0,0,0,1439,1440,1446,1536,1536,1536
1747547016.3069954,-0.38,-0.04,0.05,0.002181661564992912,0.001090830782496456,-0.001090830782496456,-2.778341106605781,-1.4748420774231894,2.741873609490046,0,-4.681267,0,0,0,0,1432,1433,1441,1536,1536,1536
1747547016.4072676,-0.32,0.0,-0.05,-0.001090830782496456,-0.00545415391248228,-0.00545415391248228,-2.778341106605781,-1.4748420774231894,2.741873609490046,0,-7.388752,0,0,0,0,1416,1417,1428,1536,1536,1536
1747547016.5083985,-0.4,-0.03,0.06,-0.001090830782496456,0.001090830782496456,-0.001090830782496456,-2.778341106605781,-1.4748420774231894,2.741873609490046,0,-7.709534,0,0,0,0,1414,1416,1426,1536,1536,1536
1747547016.6078637,-0.4,-0.03,0.06,-0.001090830782496456,0.001090830782496456,-0.001090830782496456,-2.778341106605781,-1.4748420774231894,2.741873609490046,0,-9.060832,0,0,0,0,1406,1408,1420,1536,1536,1536
1747547016.707734,-0.4,0.01,0.06,-0.002181661564992912,0.001090830782496456,-0.001090830782496456,-2.778341106605781,-1.4748420774231894,2.741873609490046,0,-10.711402,0,0,0,0,1398,1400,1414,1536,1536,1536
1747547016.7906148,-0.17,0.05,-0.02,0.002181661564992912,-0.004363323129985824,0.002181661564992912,-2.778341106605781,-1.4748420774231894,2.741873609490046,0,-11.096939,0,0,0,0,1396,1398,1412,1536,1536,1536
1747547016.8912046,-0.17,0.05,-0.02,0.002181661564992912,-0.004363323129985824,0.002181661564992912,-2.778341106605781,-1.4748420774231894,2.741873609490046,0,-12.5,0,0,0,0,1389,1392,1406,1536,1536,1536
1747547016.990723,-0.42,0.09,0.0,-0.004363323129985824,-0.003272492347489368,-0.004363323129985824,-2.778341106605781,-1.4748420774231894,2.741873609490046,0,-12.5,0,0,0,0,1389,1392,1406,1536,1536,1536
1747547017.0744758,-0.42,0.09,0.0,-0.004363323129985824,-0.003272492347489368,-0.004363323129985824,-2.778341106605781,-1.4748420774231894,2.741873609490046,0,-12.5,0,0,0,0,1389,1392,1406,1536,1536,1536
1747547017.1745646,-0.19,0.05,-0.11,-0.002181661564992912,-0.006544984694978736,0.001090830782496456,-2.778341106605781,-1.4748420774231894,2.741873609490046,0,-12.5,0,0,0,0,1389,1392,1406,1536,1536,1536
1747547017.2653813,-0.3,-0.02,-0.1,-0.00545415391248228,-0.002181661564992912,0.0,-2.778341106605781,-1.4748420774231894,2.741873609490046,0,-12.5,0,0,0,0,1389,1392,1406,1536,1536,1536
1747547017.35768,-0.3,-0.02,-0.1,-0.00545415391248228,-0.002181661564992912,0.0,-2.778341106605781,-1.4748420774231894,2.741873609490046,0,-10.903319,0,0,0,0,1397,1399,1413,1536,1536,1536
1747547017.4577243,-0.43,-0.02,0.09,-0.004363323129985824,-0.002181661564992912,-0.001090830782496456,-2.778341106605781,-1.4748420774231894,2.741873609490046,0,-0.105417,0,0,0,0,1437,1439,1453,1536,1536,1536
1747547017.5412352,-0.43,-0.02,0.09,-0.004363323129985824,-0.002181661564992912,-0.001090830782496456,-2.778341106605781,-1.4748420774231894,2.741873609490046,0,0,0,0,0,0,1477,1479,1493,1536,1536,1536
1747547017.6413069,-0.44,0.15,0.14,-0.006544984694978736,-0.001090830782496456,0.004363323129985824,-2.778341106605781,-1.4748420774231894,2.741873609490046,0,0.345128,0,0,0,0,1517,1519,1533,1536,1536,1536
1747547017.7386293,-0.41000000000000003,0.05,0.03,-0.006544984694978736,-0.00545415391248228,-0.002181661564992912,-2.778341106605781,-1.4748420774231894,2.741873609490046,0,9.415783,0,0,0,0,1557,1559,1573,1536,1536,1536
1747547017.8254085,-0.41000000000000003,0.05,0.03,-0.006544984694978736,-0.00545415391248228,-0.002181661564992912,-2.778341106605781,-1.4748420774231894,2.741873609490046,0,12.5,0,0,0,0,1597,1595,1583,1536,1536,1536
1747547017.9245057,-0.44,-0.06,0.14,0.002181661564992912,-0.00545415391248228,-0.004363323129985824,-2.778341106605781,-1.4748420774231894,2.741873609490046,0,12.5,0,0,0,0,1597,1595,1583,1536,1536,1536
1747547018.0268884,-0.44,-0.06,0.14,0.002181661564992912,-0.00545415391248228,-0.004363323129985824,-2.778341106605781,-1.4748420774231894,2.741873609490046,0,12.5,0,0,0,0,1597,1595,1583,1536,1536,1536
1747547018.1242085,-0.28,-0.03,-0.01,-0.004363323129985824,-0.004363323129985824,0.004363323129985824,-2.7751283721053936,-1.4748102761785429,2.7384913834314077,0,12.5,0,0,0,0,1597,1595,1583,1536,1536,1536
1747547018.2157073,-0.37,-0.02,0.05,-0.003272492347489368,-0.002181661564992912,0.001090830782496456,-2.7734765424377232,-1.474777708285758,2.7368406490390185,0,12.5,0,0,0,0,1597,1595,1583,1536,1536,1536
1747547018.3087885,-0.37,-0.02,0.05,-0.003272492347489368,-0.002181661564992912,0.001090830782496456,-2.7734765424377232,-1.474777708285758,2.7368406490390185,0,12.5,0,0,0,0,1597,1595,1583,1536,1536,1536
1747547018.4074175,-0.35000000000000003,0.07,0.03,0.001090830782496456,-0.002181661564992912,0.0,-2.774253066156684,-1.474777552856831,2.737702456005611,0,12.5,0,0,0,0,1597,1595,1583,1536,1536,1536
1747547018.5076761,-0.35000000000000003,0.07,0.03,0.001090830782496456,-0.002181661564992912,0.0,-2.774253066156684,-1.474777552856831,2.737702456005611,0,12.5,0,0,0,0,1597,1595,1583,1536,1536,1536
1747547018.610555,-0.31,-0.01,0.11,0.002181661564992912,-0.002181661564992912,-0.003272492347489368,-2.774253066156684,-1.474777552856831,2.737702456005611,0,12.5,0,0,0,0,1597,1595,1583,1536,1536,1536
1747547018.7074645,-0.4,0.03,0.06,-0.001090830782496456,-0.008726646259971648,-0.002181661564992912,-2.774253066156684,-1.474777552856831,2.737702456005611,0,12.5,0,0,0,0,1597,1595,1583,1536,1536,1536
1747547018.7906206,-0.4,0.03,0.06,-0.001090830782496456,-0.008726646259971648,-0.002181661564992912,-2.774253066156684,-1.474777552856831,2.737702456005611,0,0,0,0,0,0,1557,1555,1543,1536,1536,1536
