time,ax,ay,az,gx,gy,gz,roll,pitch,yaw,cmd_fx,cmd_fy,cmd_fz,cmd_tx,cmd_ty,cmd_tz,pwm_1,pwm_2,pwm_3,pwm_4,pwm_5,pwm_6
1747533457.9943526,0.0,0.0,0.0,0.0,0.0,0.0,0.0,0.0,0.0,0,0,0,0,0,0,1500,1500,1500,1500,1500,1500
1747533458.0913513,0.0,0.0,0.0,0.0,0.0,0.0,0.0,0.0,0.0,0,0,0,0,0,0,1500,1500,1500,1500,1500,1500
1747533458.191085,0.0,0.0,0.0,0.0,0.0,0.0,0.0,0.0,0.0,0,0,0,0,0,0,1500,1500,1500,1500,1500,1500
1747533458.2910995,0.0,0.0,0.0,0.0,0.0,0.0,0.0,0.0,0.0,0,0,0,0,0,0,1500,1500,1500,1500,1500,1500
1747533458.3736641,0.0,0.0,0.0,0.0,0.0,0.0,0.0,0.0,0.0,0,0,0,0,0,0,1500,1500,1500,1500,1500,1500
1747533458.4743307,0.0,0.0,0.0,0.0,0.0,0.0,0.0,0.0,0.0,0,0,0,0,0,0,1500,1500,1500,1500,1500,1500
1747533458.5739634,0.0,0.0,0.0,0.0,0.0,0.0,0.0,0.0,0.0,0,0,0,0,0,0,1500,1500,1500,1500,1500,1500
1747533458.67353,0.0,0.0,0.0,0.0,0.0,0.0,0.0,0.0,0.0,0,0,0,0,0,0,1500,1500,1500,1500,1500,1500
1747533458.7733617,0.0,0.0,0.0,0.0,0.0,0.0,0.0,0.0,0.0,0,0,0,0,0,0,1500,1500,1500,1500,1500,1500
1747533458.8571076,0.0,0.0,0.0,0.0,0.0,0.0,0.0,0.0,0.0,0,0,0,0,0,0,1500,1500,1500,1500,1500,1500
1747533458.9560983,0.0,0.0,0.0,0.0,0.0,0.0,0.0,0.0,0.0,0,0,0,0,0,0,1500,1500,1500,1500,1500,1500
1747533459.056167,0.0,0.0,0.0,0.0,0.0,0.0,0.0,0.0,0.0,0,0,0,0,0,0,1500,1500,1500,1500,1500,1500
1747533459.1414177,0.0,0.0,0.0,0.0,0.0,0.0,0.0,0.0,0.0,0,0,0,0,0,0,1500,1500,1500,1500,1500,1500
1747533459.2402687,0.0,0.0,0.0,0.0,0.0,0.0,0.0,0.0,0.0,0,0,0,0,0,0,1500,1500,1500,1500,1500,1500
1747533459.3413885,0.0,0.0,0.0,0.0,0.0,0.0,0.0,0.0,0.0,0,0,0,0,0,0,1500,1500,1500,1500,1500,1500
1747533459.4413092,0.0,0.0,0.0,0.0,0.0,0.0,0.0,0.0,0.0,0,0,0,0,0,0,1500,1500,1500,1500,1500,1500
1747533459.5415778,0.0,0.0,0.0,0.0,0.0,0.0,0.0,0.0,0.0,0,0,0,0,0,0,1500,1500,1500,1500,1500,1500
1747533459.6242747,0.0,0.0,0.0,0.0,0.0,0.0,0.0,0.0,0.0,0,0,0,0,0,0,1500,1500,1500,1500,1500,1500
1747533459.7236454,0.0,0.0,0.0,0.0,0.0,0.0,0.0,0.0,0.0,0,0,0,0,0,0,1500,1500,1500,1500,1500,1500
1747533459.8271387,0.0,0.0,0.0,0.0,0.0,0.0,0.0,0.0,0.0,0,0,0,0,0,0,1500,1500,1500,1500,1500,1500
1747533459.9240415,0.0,0.0,0.0,0.0,0.0,0.0,0.0,0.0,0.0,0,0,0,0,0,0,1500,1500,1500,1500,1500,1500
1747533460.0244372,0.0,0.0,0.0,0.0,0.0,0.0,0.0,0.0,0.0,0,0,0,0,0,0,1500,1500,1500,1500,1500,1500
1747533460.1090417,0.0,0.0,0.0,0.0,0.0,0.0,0.0,0.0,0.0,0,0,0,0,0,0,1500,1500,1500,1500,1500,1500
1747533460.2074451,0.0,0.0,0.0,0.0,0.0,0.0,0.0,0.0,0.0,0,0,0,0,0,0,1500,1500,1500,1500,1500,1500
1747533460.3072362,0.0,0.0,0.0,0.0,0.0,0.0,0.0,0.0,0.0,0,0,0,0,0,0,1500,1500,1500,1500,1500,1500
1747533460.3910706,0.0,0.0,0.0,0.0,0.0,0.0,0.0,0.0,0.0,0,0,0,0,0,0,1500,1500,1500,1500,1500,1500
1747533460.491169,0.0,0.0,0.0,0.0,0.0,0.0,0.0,0.0,0.0,0,0,0,0,0,0,1500,1500,1500,1500,1500,1500
1747533460.5957158,0.0,0.0,0.0,0.0,0.0,0.0,0.0,0.0,0.0,0,0,0,0,0,0,1500,1500,1500,1500,1500,1500
1747533460.693887,0.0,0.0,0.0,0.0,0.0,0.0,0.0,0.0,0.0,0,0,0,0,0,0,1500,1500,1500,1500,1500,1500
1747533460.7919378,0.0,0.0,0.0,0.0,0.0,0.0,0.0,0.0,0.0,0,0,0,0,0,0,1500,1500,1500,1500,1500,1500
1747533460.8762286,0.0,0.0,0.0,0.0,0.0,0.0,0.0,0.0,0.0,0,0,0,0,0,0,1500,1500,1500,1500,1500,1500
1747533460.9744523,0.0,0.0,0.0,0.0,0.0,0.0,0.0,0.0,0.0,0,0,0,0,0,0,1500,1500,1500,1500,1500,1500
1747533461.0750282,0.0,0.0,0.0,0.0,0.0,0.0,0.0,0.0,0.0,0,0,0,0,0,0,1500,1500,1500,1500,1500,1500
1747533461.1743953,0.0,0.0,0.0,0.0,0.0,0.0,0.0,0.0,0.0,0,0,0,0,0,0,1500,1500,1500,1500,1500,1500
1747533461.2757459,0.0,0.0,0.0,0.0,0.0,0.0,0.0,0.0,0.0,0,0,0,0,0,0,1500,1500,1500,1500,1500,1500
1747533461.3583772,0.0,0.0,0.0,0.0,0.0,0.0,0.0,0.0,0.0,0,0,0,0,0,0,1500,1500,1500,1500,1500,1500
1747533461.45871,0.0,0.0,0.0,0.0,0.0,0.0,0.0,0.0,0.0,0,0,0,0,0,0,1500,1500,1500,1500,1500,1500
1747533461.5575225,0.0,0.0,0.0,0.0,0.0,0.0,0.0,0.0,0.0,0,0,0,0,0,0,1500,1500,1500,1500,1500,1500
1747533461.6405716,0.0,0.0,0.0,0.0,0.0,0.0,0.0,0.0,0.0,0,0,0,0,0,0,1500,1500,1500,1500,1500,1500
1747533461.7398963,0.0,0.0,0.0,0.0,0.0,0.0,0.0,0.0,0.0,0,0,0,0,0,0,1500,1500,1500,1500,1500,1500
1747533461.8420103,0.0,0.0,0.0,0.0,0.0,0.0,0.0,0.0,0.0,0,0,0,0,0,0,1500,1500,1500,1500,1500,1500
1747533461.9403217,0.0,0.0,0.0,0.0,0.0,0.0,0.0,0.0,0.0,0,0,0,0,0,0,1500,1500,1500,1500,1500,1500
1747533462.039479,0.0,0.0,0.0,0.0,0.0,0.0,0.0,0.0,0.0,0,0,0,0,0,0,1500,1500,1500,1500,1500,1500
1747533462.1233833,0.0,0.0,0.0,0.0,0.0,0.0,0.0,0.0,0.0,0,0,0,0,0,0,1500,1500,1500,1500,1500,1500
1747533462.223135,0.0,0.0,0.0,0.0,0.0,0.0,0.0,0.0,0.0,0,0,0,0,0,0,1500,1500,1500,1500,1500,1500
1747533462.3238468,0.0,0.0,0.0,0.0,0.0,0.0,0.0,0.0,0.0,0,0,0,0,0,0,1500,1500,1500,1500,1500,1500
1747533462.4069245,0.0,0.0,0.0,0.0,0.0,0.0,0.0,0.0,0.0,0,0,0,0,0,0,1500,1500,1500,1500,1500,1500
1747533462.507942,0.0,0.0,0.0,0.0,0.0,0.0,0.0,0.0,0.0,0,0,0,0,0,0,1500,1500,1500,1500,1500,1500
1747533462.5911257,0.0,0.0,0.0,0.0,0.0,0.0,0.0,0.0,0.0,0,0,0,0,0,0,1500,1500,1500,1500,1500,1500
1747533462.6917295,0.0,0.0,0.0,0.0,0.0,0.0,0.0,0.0,0.0,0,0,0,0,0,0,1500,1500,1500,1500,1500,1500
1747533462.7902048,0.0,0.0,0.0,0.0,0.0,0.0,0.0,0.0,0.0,0,0,0,0,0,0,1500,1500,1500,1500,1500,1500
1747533462.8742156,0.0,0.0,0.0,0.0,0.0,0.0,0.0,0.0,0.0,0,0,0,0,0,0,1500,1500,1500,1500,1500,1500
1747533462.973218,0.0,0.0,0.0,0.0,0.0,0.0,0.0,0.0,0.0,0,0,0,0,0,0,1500,1500,1500,1500,1500,1500
1747533463.0736432,0.0,0.0,0.0,0.0,0.0,0.0,0.0,0.0,0.0,0,0,0,0,0,0,1500,1500,1500,1500,1500,1500
1747533463.1567109,0.0,0.0,0.0,0.0,0.0,0.0,0.0,0.0,0.0,0,0,0,0,0,0,1500,1500,1500,1500,1500,1500
1747533463.2570384,0.0,0.0,0.0,0.0,0.0,0.0,0.0,0.0,0.0,0,0,0,0,0,0,1500,1500,1500,1500,1500,1500
1747533463.3572397,0.0,0.0,0.0,0.0,0.0,0.0,0.0,0.0,0.0,0,0,0,0,0,0,1500,1500,1500,1500,1500,1500
1747533463.4598258,0.0,0.0,0.0,0.0,0.0,0.0,0.0,0.0,0.0,0,0,0,0,0,0,1500,1500,1500,1500,1500,1500
1747533463.5573127,0.0,0.0,0.0,0.0,0.0,0.0,0.0,0.0,0.0,0,0,0,0,0,0,1500,1500,1500,1500,1500,1500
1747533463.6418893,0.0,0.0,0.0,0.0,0.0,0.0,0.0,0.0,0.0,0,0,0,0,0,0,1500,1500,1500,1500,1500,1500
1747533463.741642,0.0,0.0,0.0,0.0,0.0,0.0,0.0,0.0,0.0,0,0,0,0,0,0,1500,1500,1500,1500,1500,1500
1747533463.8412776,0.0,0.0,0.0,0.0,0.0,0.0,0.0,0.0,0.0,0,0,0,0,0,0,1500,1500,1500,1500,1500,1500
1747533463.9398208,0.0,0.0,0.0,0.0,0.0,0.0,0.0,0.0,0.0,0,0,0,0,0,0,1500,1500,1500,1500,1500,1500
1747533464.040208,0.0,0.0,0.0,0.0,0.0,0.0,0.0,0.0,0.0,0,0,0,0,0,0,1500,1500,1500,1500,1500,1500
1747533464.1239443,0.0,0.0,0.0,0.0,0.0,0.0,0.0,0.0,0.0,0,0,0,0,0,0,1500,1500,1500,1500,1500,1500
1747533464.223904,0.0,0.0,0.0,0.0,0.0,0.0,0.0,0.0,0.0,0,0,0,0,0,0,1500,1500,1500,1500,1500,1500
1747533464.3239458,0.0,0.0,0.0,0.0,0.0,0.0,0.0,0.0,0.0,0,0,0,0,0,0,1500,1500,1500,1500,1500,1500
1747533464.4249153,0.0,0.0,0.0,0.0,0.0,0.0,0.0,0.0,0.0,0,0,0,0,0,0,1500,1500,1500,1500,1500,1500
1747533464.524125,0.0,0.0,0.0,0.0,0.0,0.0,0.0,0.0,0.0,0,0,0,0,0,0,1500,1500,1500,1500,1500,1500
1747533464.6080933,0.0,0.0,0.0,0.0,0.0,0.0,0.0,0.0,0.0,0,0,0,0,0,0,1500,1500,1500,1500,1500,1500
1747533464.7075796,0.0,0.0,0.0,0.0,0.0,0.0,0.0,0.0,0.0,0,0,0,0,0,0,1500,1500,1500,1500,1500,1500
1747533464.806684,0.0,0.0,0.0,0.0,0.0,0.0,0.0,0.0,0.0,0,0,0,0,0,0,1500,1500,1500,1500,1500,1500
1747533464.891184,0.0,0.0,0.0,0.0,0.0,0.0,0.0,0.0,0.0,0,0,0,0,0,0,1500,1500,1500,1500,1500,1500
1747533464.9917643,0.0,0.0,0.0,0.0,0.0,0.0,0.0,0.0,0.0,0,0,0,0,0,0,1500,1500,1500,1500,1500,1500
1747533465.090793,0.0,0.0,0.0,0.0,0.0,0.0,0.0,0.0,0.0,0,0,0,0,0,0,1500,1500,1500,1500,1500,1500
1747533465.190232,0.0,0.0,0.0,0.0,0.0,0.0,0.0,0.0,0.0,0,0,0,0,0,0,1500,1500,1500,1500,1500,1500
1747533465.2899477,0.0,0.0,0.0,0.0,0.0,0.0,0.0,0.0,0.0,0,0,0,0,0,0,1500,1500,1500,1500,1500,1500
1747533465.3741274,0.0,0.0,0.0,0.0,0.0,0.0,0.0,0.0,0.0,0,0,0,0,0,0,1500,1500,1500,1500,1500,1500
1747533465.4722607,0.0,0.0,0.0,0.0,0.0,0.0,0.0,0.0,0.0,0,0,0,0,0,0,1500,1500,1500,1500,1500,1500
1747533465.5737092,0.0,0.0,0.0,0.0,0.0,0.0,0.0,0.0,0.0,0,0,0,0,0,0,1500,1500,1500,1500,1500,1500
1747533465.6567552,0.0,0.0,0.0,0.0,0.0,0.0,0.0,0.0,0.0,0,0,0,0,0,0,1500,1500,1500,1500,1500,1500
1747533465.756881,0.0,0.0,0.0,0.0,0.0,0.0,0.0,0.0,0.0,0,0,0,0,0,0,1500,1500,1500,1500,1500,1500
1747533465.8397963,0.0,0.0,0.0,0.0,0.0,0.0,0.0,0.0,0.0,0,0,0,0,0,0,1500,1500,1500,1500,1500,1500
1747533465.9409907,0.0,0.0,0.0,0.0,0.0,0.0,0.0,0.0,0.0,0,0,0,0,0,0,1500,1500,1500,1500,1500,1500
1747533466.0391657,0.0,0.0,0.0,0.0,0.0,0.0,0.0,0.0,0.0,0,0,0,0,0,0,1500,1500,1500,1500,1500,1500
1747533466.124708,0.0,0.0,0.0,0.0,0.0,0.0,0.0,0.0,0.0,0,0,0,0,0,0,1500,1500,1500,1500,1500,1500
1747533466.2227314,0.0,0.0,0.0,0.0,0.0,0.0,0.0,0.0,0.0,0,0,0,0,0,0,1500,1500,1500,1500,1500,1500
1747533466.322959,0.0,0.0,0.0,0.0,0.0,0.0,0.0,0.0,0.0,0,0,0,0,0,0,1500,1500,1500,1500,1500,1500
1747533466.425451,0.0,0.0,0.0,0.0,0.0,0.0,0.0,0.0,0.0,0,0,0,0,0,0,1500,1500,1500,1500,1500,1500
1747533466.5251555,0.0,0.0,0.0,0.0,0.0,0.0,0.0,0.0,0.0,0,0,0,0,0,0,1500,1500,1500,1500,1500,1500
1747533466.6065714,0.0,0.0,0.0,0.0,0.0,0.0,0.0,0.0,0.0,0,0,0,0,0,0,1500,1500,1500,1500,1500,1500
1747533466.7085145,0.0,0.0,0.0,0.0,0.0,0.0,0.0,0.0,0.0,0,0,0,0,0,0,1500,1500,1500,1500,1500,1500
1747533466.8081005,0.0,0.0,0.0,0.0,0.0,0.0,0.0,0.0,0.0,0,0,0,0,0,0,1500,1500,1500,1500,1500,1500
1747533466.8897207,0.0,0.0,0.0,0.0,0.0,0.0,0.0,0.0,0.0,0,0,0,0,0,0,1500,1500,1500,1500,1500,1500
1747533466.9917908,0.0,0.0,0.0,0.0,0.0,0.0,0.0,0.0,0.0,0,0,0,0,0,0,1500,1500,1500,1500,1500,1500
1747533467.074525,0.0,0.0,0.0,0.0,0.0,0.0,0.0,0.0,0.0,0,0,0,0,0,0,1500,1500,1500,1500,1500,1500
1747533467.1727626,0.0,0.0,0.0,0.0,0.0,0.0,0.0,0.0,0.0,0,0,0,0,0,0,1500,1500,1500,1500,1500,1500
1747533467.2743168,0.0,0.0,0.0,0.0,0.0,0.0,0.0,0.0,0.0,0,0,0,0,0,0,1500,1500,1500,1500,1500,1500
1747533467.357309,0.0,0.0,0.0,0.0,0.0,0.0,0.0,0.0,0.0,0,0,0,0,0,0,1500,1500,1500,1500,1500,1500
1747533467.4571836,0.0,0.0,0.0,0.0,0.0,0.0,0.0,0.0,0.0,0,0,0,0,0,0,1500,1500,1500,1500,1500,1500
1747533467.5577843,0.0,0.0,0.0,0.0,0.0,0.0,0.0,0.0,0.0,0,0,0,0,0,0,1500,1500,1500,1500,1500,1500
1747533467.6420424,0.0,0.0,0.0,0.0,0.0,0.0,0.0,0.0,0.0,0,0,0,0,0,0,1500,1500,1500,1500,1500,1500
1747533467.7414987,0.0,0.0,0.0,0.0,0.0,0.0,0.0,0.0,0.0,0,0,0,0,0,0,1500,1500,1500,1500,1500,1500
1747533467.8416438,0.0,0.0,0.0,0.0,0.0,0.0,0.0,0.0,0.0,0,0,0,0,0,0,1500,1500,1500,1500,1500,1500
1747533467.9393473,0.0,0.0,0.0,0.0,0.0,0.0,0.0,0.0,0.0,0,0,0,0,0,0,1500,1500,1500,1500,1500,1500
1747533468.0401149,0.0,0.0,0.0,0.0,0.0,0.0,0.0,0.0,0.0,0,0,0,0,0,0,1500,1500,1500,1500,1500,1500
1747533468.124168,0.0,0.0,0.0,0.0,0.0,0.0,0.0,0.0,0.0,0,0,0,0,0,0,1500,1500,1500,1500,1500,1500
1747533705.995637,0.0,0.0,0.0,0.0,0.0,0.0,0.0,0.0,0.0,0,0,0,0,0,0,1500,1500,1500,1500,1500,1500
1747533706.0882323,0.02,0.03,-0.31,0.0,-0.004363323129985824,0.0,-0.027808276123486422,0.09682892112207116,-0.0013474990762375018,0,0,0,0,0,0,1500,1500,1500,1500,1500,1500
1747533706.1742806,0.02,0.03,-0.31,0.0,-0.004363323129985824,0.0,-0.027808276123486422,0.09682892112207116,-0.0013474990762375018,0,0,0,0,0,0,1500,1500,1500,1500,1500,1500
1747533706.2713394,0.04,0.02,-0.33,0.001090830782496456,-0.004363323129985824,0.0,-0.027808276123486422,0.09682892112207116,-0.0013474990762375018,0,0,0,0,0,0,1500,1500,1500,1500,1500,1500
1747533706.3689122,0.04,0.02,-0.33,0.001090830782496456,-0.004363323129985824,0.0,-0.027808276123486422,0.09682892112207116,-0.0013474990762375018,0,0,0,0,0,0,1500,1500,1500,1500,1500,1500
1747533706.451826,0.04,0.02,-0.37,-0.003272492347489368,-0.004363323129985824,0.0,-0.027808276123486422,0.09682892112207116,-0.0013474990762375018,0,0,0,0,0,0,1500,1500,1500,1500,1500,1500
1747533706.5519521,0.01,0.0,-0.35000000000000003,0.001090830782496456,0.001090830782496456,0.0,-0.027808276123486422,0.09682892112207116,-0.0013474990762375018,0,0,0,0,0,0,1500,1500,1500,1500,1500,1500
1747533706.6511908,0.01,0.0,-0.35000000000000003,0.001090830782496456,0.001090830782496456,0.0,-0.027808276123486422,0.09682892112207116,-0.0013474990762375018,0,0,0,0,0,0,1500,1500,1500,1500,1500,1500
1747533706.7610633,0.05,0.02,-0.3,0.001090830782496456,0.001090830782496456,-0.002181661564992912,-0.027808276123486422,0.09682892112207116,-0.0013474990762375018,0,0,0,0,0,0,1500,1500,1500,1500,1500,1500
1747533706.851855,0.05,0.02,-0.3,0.001090830782496456,0.001090830782496456,-0.002181661564992912,-0.027808276123486422,0.09682892112207116,-0.0013474990762375018,0,0,0,0,0,0,1500,1500,1500,1500,1500,1500
1747533706.935024,0.03,0.01,-0.34,-0.002181661564992912,0.001090830782496456,0.001090830782496456,-0.027808276123486422,0.09682892112207116,-0.0013474990762375018,0,0,0,0,0,0,1500,1500,1500,1500,1500,1500
1747533707.0367546,0.02,0.03,-0.29,-0.004363323129985824,-0.00545415391248228,-0.002181661564992912,-0.027808276123486422,0.09682892112207116,-0.0013474990762375018,0,0,0,0,0,0,1500,1500,1500,1500,1500,1500
1747533707.1342278,0.02,0.03,-0.29,-0.004363323129985824,-0.00545415391248228,-0.002181661564992912,-0.027808276123486422,0.09682892112207116,-0.0013474990762375018,0,0,0,0,0,0,1500,1500,1500,1500,1500,1500
1747533707.2175465,0.03,0.01,-0.38,0.0,-0.001090830782496456,-0.001090830782496456,-0.027808276123486422,0.09682892112207116,-0.0013474990762375018,0,0,0,0,0,0,1500,1500,1500,1500,1500,1500
1747533707.3182747,0.03,0.01,-0.38,0.0,-0.001090830782496456,-0.001090830782496456,-0.027808276123486422,0.09682892112207116,-0.0013474990762375018,0,0,0,0,0,0,1500,1500,1500,1500,1500,1500
1747533707.4166765,0.02,0.01,-0.3,0.0,0.003272492347489368,0.0,-0.027808276123486422,0.09682892112207116,-0.0013474990762375018,0,0,0,0,0,0,1500,1500,1500,1500,1500,1500
1747533707.500988,0.03,0.0,-0.3,-0.002181661564992912,0.001090830782496456,-0.001090830782496456,-0.027808276123486422,0.09682892112207116,-0.0013474990762375018,0,0,0,0,0,0,1500,1500,1500,1500,1500,1500
1747533707.5999534,0.03,0.0,-0.3,-0.002181661564992912,0.001090830782496456,-0.001090830782496456,-0.027808276123486422,0.09682892112207116,-0.0013474990762375018,0,0,0,0,0,0,1500,1500,1500,1500,1500,1500
1747533707.684401,0.03,0.01,-0.33,-0.001090830782496456,-0.003272492347489368,-0.001090830782496456,-0.027808276123486422,0.09682892112207116,-0.0013474990762375018,0,0,0,0,0,0,1500,1500,1500,1500,1500,1500
1747533707.783758,0.03,0.01,-0.33,-0.001090830782496456,-0.003272492347489368,-0.001090830782496456,-0.027808276123486422,0.09682892112207116,-0.0013474990762375018,0,0,0,0,0,0,1500,1500,1500,1500,1500,1500
1747533707.883456,0.02,0.03,-0.26,-0.002181661564992912,0.0,-0.004363323129985824,-0.027808276123486422,0.09682892112207116,-0.0013474990762375018,0,0,0,0,0,0,1500,1500,1500,1500,1500,1500
1747533707.967113,0.02,0.01,-0.41000000000000003,0.001090830782496456,0.002181661564992912,0.001090830782496456,-0.027808276123486422,0.09682892112207116,-0.0013474990762375018,0,0,0,0,0,0,1500,1500,1500,1500,1500,1500
1747533708.0669546,0.02,0.01,-0.41000000000000003,0.001090830782496456,0.002181661564992912,0.001090830782496456,-0.027808276123486422,0.09682892112207116,-0.0013474990762375018,0,0,0,0,0,0,1500,1500,1500,1500,1500,1500
1747533708.1666694,0.03,0.0,-0.31,0.001090830782496456,0.001090830782496456,0.0,-0.027808276123486422,0.09682892112207116,-0.0013474990762375018,0,0,0,0,0,0,1500,1500,1500,1500,1500,1500
1747533708.2667222,0.03,0.0,-0.31,0.001090830782496456,0.001090830782496456,0.0,-0.027808276123486422,0.09682892112207116,-0.0013474990762375018,0,0,0,0,0,0,1500,1500,1500,1500,1500,1500
1747533708.3666723,0.02,0.02,-0.29,-0.002181661564992912,-0.001090830782496456,-0.001090830782496456,-0.027808276123486422,0.09682892112207116,-0.0013474990762375018,0,0,0,0,0,0,1500,1500,1500,1500,1500,1500
1747533708.4658508,0.02,0.01,-0.35000000000000003,-0.002181661564992912,0.0,0.0,-0.027808276123486422,0.09682892112207116,-0.0013474990762375018,0,0,0,0,0,0,1500,1500,1500,1500,1500,1500
1747533708.567077,0.02,0.01,-0.35000000000000003,-0.002181661564992912,0.0,0.0,-0.027808276123486422,0.09682892112207116,-0.0013474990762375018,0,0,0,0,0,0,1500,1500,1500,1500,1500,1500
1747533708.6666217,0.02,0.02,-0.29,0.0,0.001090830782496456,0.002181661564992912,-0.027808276123486422,0.09682892112207116,-0.0013474990762375018,0,-10.711402,0,0,0,-0.139769,1540,1540,1540,1500,1500,1500
1747533708.750977,0.02,0.02,-0.29,0.0,0.001090830782496456,0.002181661564992912,-0.027808276123486422,0.09682892112207116,-0.0013474990762375018,0,-12.5,0,0,0,-0.088729,1580,1580,1580,1500,1500,1500
1747533708.8513985,0.04,0.01,-0.35000000000000003,0.001090830782496456,0.003272492347489368,0.001090830782496456,-0.027808276123486422,0.09682892112207116,-0.0013474990762375018,0,-12.5,0,0,0,-0.000215,1620,1620,1620,1500,1500,1500
1747533708.9338963,0.42,-0.15,-0.19,-0.00545415391248228,0.001090830782496456,0.001090830782496456,-0.027808276123486422,0.09682892112207116,-0.0013474990762375018,0,-12.5,0,0,0,0.202366,1660,1660,1660,1500,1500,1500
1747533709.0341473,0.42,-0.15,-0.19,-0.00545415391248228,0.001090830782496456,0.001090830782496456,-0.027808276123486422,0.09682892112207116,-0.0013474990762375018,0,-0.722657,0,0,0,0.255136,1620,1700,1620,1500,1500,1500
1747533709.1352744,-0.17,0.44,-0.59,0.008726646259971648,0.004363323129985824,-0.004363323129985824,-0.027808276123486422,0.09682892112207116,-0.0013474990762375018,0,0,0,0,0,0,1580,1660,1580,1500,1500,1500
1747533709.2168512,-0.17,0.44,-0.59,0.008726646259971648,0.004363323129985824,-0.004363323129985824,-0.027808276123486422,0.09682892112207116,-0.0013474990762375018,0,0,0,0,0,0,1540,1620,1540,1500,1500,1500
1747533709.3175073,0.63,-0.79,0.01,-0.002181661564992912,0.008726646259971648,-0.007635815477475192,-0.028519757439111088,0.09683589774584862,-0.0008931655348532406,0,0,0,0,0,0,1500,1580,1500,1500,1500,1500
1747533709.4047241,0.19,0.12,-0.33,0.00545415391248228,0.00545415391248228,-0.01090830782496456,-0.028390688198041275,0.09659263195212191,-0.0007612504012811114,0,0,0,0,0,0,1500,1540,1500,1500,1500,1500
1747533709.5013723,0.19,0.12,-0.33,0.00545415391248228,0.00545415391248228,-0.01090830782496456,-0.028390688198041275,0.09659263195212191,-0.0007612504012811114,0,0,0,0,0,0,1500,1500,1500,1500,1500,1500
1747533709.6020453,-0.07,0.2,-0.31,-0.002181661564992912,0.0,-0.004363323129985824,-0.02851322247041472,0.09659266937949047,-0.0007671714100823653,0,0,0,0,0,0,1500,1500,1500,1500,1500,1500
1747533709.6997647,-0.07,0.2,-0.31,-0.002181661564992912,0.0,-0.004363323129985824,-0.02851322247041472,0.09659266937949047,-0.0007671714100823653,0,12.5,0,0,0,0,1460,1460,1460,1500,1500,1500
1747533709.8019595,-0.01,0.05,-0.33,0.001090830782496456,0.004363323129985824,0.003272492347489368,-0.02851322247041472,0.09659266937949047,-0.0007671714100823653,0,12.5,0,0,0,0,1420,1420,1420,1500,1500,1500
1747533709.9021335,0.02,0.01,-0.36,-0.002181661564992912,0.001090830782496456,0.001090830782496456,-0.02851352288365226,0.0967151549132374,-0.0007689246365570369,0,12.5,0,0,0,0,1380,1380,1380,1500,1500,1500
1747533710.0035765,0.02,0.01,-0.36,-0.002181661564992912,0.001090830782496456,0.001090830782496456,-0.02851352288365226,0.0967151549132374,-0.0007689246365570369,0,12.5,0,0,0,0,1340,1340,1340,1500,1500,1500
1747533710.1023428,-0.06,0.02,-0.45,0.009817477042468103,0.0,0.0,-0.028384769572529417,0.0965943685821665,-0.0006387656548860723,0,12.5,0,0,0,0,1300,1300,1322,1500,1500,1500
1747533710.2009068,-0.06,0.02,-0.45,0.009817477042468103,0.0,0.0,-0.028384769572529417,0.0965943685821665,-0.0006387656548860723,0,12.5,0,0,0,0,1270,1278,1322,1500,1500,1500
1747533710.3010585,0.23,-0.13,-0.25,-0.006544984694978736,-0.001090830782496456,0.004363323129985824,-0.02850671944519053,0.09634944674526211,-0.0006411832674805666,0,0,0,0,0,0,1310,1318,1362,1500,1500,1500
1747533710.401793,-0.93,0.8300000000000001,-0.58,0.02181661564992912,0.018544123302439753,-0.03381575425739013,-0.02790143606825883,0.09695994320574583,-0.0007427128646666562,0,0,0,0,0,0,1350,1358,1402,1500,1500,1500
1747533710.484128,-0.93,0.8300000000000001,-0.58,0.02181661564992912,0.018544123302439753,-0.03381575425739013,-0.02790143606825883,0.09695994320574583,-0.0007427128646666562,0,0,0,0,0,0,1390,1398,1442,1500,1500,1500
1747533710.5849435,0.28,0.77,-0.77,-0.017453292519943295,0.009817477042468103,-0.001090830782496456,-0.028018608763560778,0.09720667617986266,-0.0006296108892987875,0,0,0,0,0,0,1430,1438,1482,1500,1500,1500
1747533710.6840081,0.28,0.77,-0.77,-0.017453292519943295,0.009817477042468103,-0.001090830782496456,-0.028018608763560778,0.09720667617986266,-0.0006296108892987875,0,0,0,0,0,0,1470,1478,1500,1500,1500,1500
1747533710.7841644,-0.18,-0.46,-0.18,0.006544984694978736,-0.006544984694978736,0.001090830782496456,-0.028146807727444222,0.09708250796787203,-0.0007563309349282481,0,0,0,0,0,0,1500,1500,1500,1500,1500,1500
1747533710.8832746,-0.03,-0.17,-0.32,0.001090830782496456,0.002181661564992912,0.0,-0.027778023155669216,0.09659244481528109,-0.0007316453564824998,0,0,0,0,0,0,1500,1500,1500,1500,1500,1500
1747533710.966443,-0.03,-0.17,-0.32,0.001090830782496456,0.002181661564992912,0.0,-0.027778023155669216,0.09659244481528109,-0.0007316453564824998,0,0,0,0,0,0,1500,1500,1500,1500,1500,1500
1747533711.066624,-0.02,-0.08,-0.35000000000000003,0.0,-0.003272492347489368,0.001090830782496456,-0.027778314859739462,0.09671493034636115,-0.000733353248709626,0,0,0,0,0,0,1500,1500,1500,1500,1500,1500
1747533711.1535757,0.06,0.06,-0.29,0.001090830782496456,0.0,0.0,-0.027778314859739462,0.09671493034636115,-0.000733353248709626,0,0,0,0,0,0,1500,1500,1500,1500,1500,1500
1747533711.2500517,0.06,0.06,-0.29,0.001090830782496456,0.0,0.0,-0.027778314859739462,0.09671493034636115,-0.000733353248709626,0,0,0,0,0,0,1500,1500,1500,1500,1500,1500
1747533711.350491,0.01,0.02,-0.32,-0.002181661564992912,-0.002181661564992912,0.0,-0.027778314859739462,0.09671493034636115,-0.000733353248709626,0,0,0,0,0,0,1500,1500,1500,1500,1500,1500
1747533711.450169,0.01,0.02,-0.32,-0.002181661564992912,-0.002181661564992912,0.0,-0.027778314859739462,0.09671493034636115,-0.000733353248709626,0,0,0,0,0,0,1500,1500,1500,1500,1500,1500
1747533711.5501225,0.02,0.0,-0.35000000000000003,-0.001090830782496456,-0.001090830782496456,0.003272492347489368,-0.027778314859739462,0.09671493034636115,-0.000733353248709626,0,0,0,0,0,0,1500,1500,1500,1500,1500,1500
1747533711.6510932,0.02,0.03,-0.29,-0.002181661564992912,0.0,0.0,-0.027778314859739462,0.09671493034636115,-0.000733353248709626,0,0,0,0,0,0,1500,1500,1500,1500,1500,1500
1747533711.7334685,0.02,0.03,-0.29,-0.002181661564992912,0.0,0.0,-0.027778314859739462,0.09671493034636115,-0.000733353248709626,0,0,0,0,0,0,1500,1500,1500,1500,1500,1500
1747533711.833239,0.03,0.01,-0.41000000000000003,0.001090830782496456,0.002181661564992912,0.002181661564992912,-0.027778314859739462,0.09671493034636115,-0.000733353248709626,0,0,0,0,0,0,1500,1500,1500,1500,1500,1500
1747533711.933511,0.03,0.01,-0.41000000000000003,0.001090830782496456,0.002181661564992912,0.002181661564992912,-0.027778314859739462,0.09671493034636115,-0.000733353248709626,0,0,0,0,0,0,1500,1500,1500,1500,1500,1500
1747533712.0336535,0.03,0.01,-0.35000000000000003,-0.003272492347489368,0.002181661564992912,0.001090830782496456,-0.027778314859739462,0.09671493034636115,-0.000733353248709626,0,0,0,0,0,0,1500,1500,1500,1500,1500,1500
1747533712.1332002,0.01,0.04,-0.31,0.002181661564992912,-0.002181661564992912,0.0,-0.027778314859739462,0.09671493034636115,-0.000733353248709626,0,0,0,0,0,0,1500,1500,1500,1500,1500,1500
1747533712.217814,0.01,0.04,-0.31,0.002181661564992912,-0.002181661564992912,0.0,-0.027778314859739462,0.09671493034636115,-0.000733353248709626,0,0,0,0,0,0,1500,1500,1500,1500,1500,1500
1747533712.316976,0.03,0.03,-0.35000000000000003,0.002181661564992912,0.002181661564992912,0.0,-0.027778314859739462,0.09671493034636115,-0.000733353248709626,0,0,0,0,0,0,1500,1500,1500,1500,1500,1500
1747533712.4188874,0.03,0.03,-0.35000000000000003,0.002181661564992912,0.002181661564992912,0.0,-0.027778314859739462,0.09671493034636115,-0.000733353248709626,0,0,0,0,0,0,1500,1500,1500,1500,1500,1500
1747533712.516993,0.01,0.0,-0.28,0.002181661564992912,-0.002181661564992912,0.001090830782496456,-0.027778314859739462,0.09671493034636115,-0.000733353248709626,0,0,0,0,0,0,1500,1500,1500,1500,1500,1500
1747533712.6167972,0.03,0.01,-0.38,-0.001090830782496456,0.001090830782496456,0.001090830782496456,-0.027778314859739462,0.09671493034636115,-0.000733353248709626,0,0,0,0,0,0,1500,1500,1500,1500,1500,1500
1747533712.7013512,0.03,0.01,-0.38,-0.001090830782496456,0.001090830782496456,0.001090830782496456,-0.027778314859739462,0.09671493034636115,-0.000733353248709626,0,0,0,0,0,0,1500,1500,1500,1500,1500,1500
1747533712.8007097,0.0,0.02,-0.33,0.002181661564992912,0.001090830782496456,0.002181661564992912,-0.027778314859739462,0.09671493034636115,-0.000733353248709626,0,0,0,0,0,0,1500,1500,1500,1500,1500,1500
1747533712.9007576,0.0,0.02,-0.33,0.002181661564992912,0.001090830782496456,0.002181661564992912,-0.027778314859739462,0.09671493034636115,-0.000733353248709626,0,0,0,0,0,0,1500,1500,1500,1500,1500,1500
1747533712.9847686,0.02,0.02,-0.25,-0.001090830782496456,-0.001090830782496456,0.002181661564992912,-0.027778314859739462,0.09671493034636115,-0.000733353248709626,0,0,0,0,0,0,1500,1500,1500,1500,1500,1500
1747533713.084504,0.03,0.01,-0.36,-0.001090830782496456,-0.002181661564992912,-0.001090830782496456,-0.027778314859739462,0.09671493034636115,-0.000733353248709626,0,0,0,0,0,0,1500,1500,1500,1500,1500,1500
1747533713.1832623,0.03,0.01,-0.36,-0.001090830782496456,-0.002181661564992912,-0.001090830782496456,-0.027778314859739462,0.09671493034636115,-0.000733353248709626,0,0,0,0,0,0,1500,1500,1500,1500,1500,1500
1747533713.266521,0.0,0.0,-0.27,-0.003272492347489368,0.001090830782496456,-0.003272492347489368,-0.027778314859739462,0.09671493034636115,-0.000733353248709626,0,0,0,0,0,0,1500,1500,1500,1500,1500,1500
1747533713.366727,0.0,0.0,-0.27,-0.003272492347489368,0.001090830782496456,-0.003272492347489368,-0.027778314859739462,0.09671493034636115,-0.000733353248709626,0,0,0,0,0,0,1500,1500,1500,1500,1500,1500
1747533713.4502382,0.03,0.0,-0.33,0.001090830782496456,0.0,0.001090830782496456,-0.027778314859739462,0.09671493034636115,-0.000733353248709626,0,0,0,0,0,0,1500,1500,1500,1500,1500,1500
1747533713.5506892,0.03,0.01,-0.29,-0.002181661564992912,0.0,0.001090830782496456,-0.027778314859739462,0.09671493034636115,-0.000733353248709626,0,0,0,0,0,0,1500,1500,1500,1500,1500,1500
1747533713.6505704,0.03,0.01,-0.29,-0.002181661564992912,0.0,0.001090830782496456,-0.027778314859739462,0.09671493034636115,-0.000733353248709626,0,0,0,0,0,0,1500,1500,1500,1500,1500,1500
1747533713.73404,0.02,0.02,-0.29,0.001090830782496456,-0.003272492347489368,0.0,-0.027778314859739462,0.09671493034636115,-0.000733353248709626,0,0,0,0,0,0,1500,1500,1500,1500,1500,1500
1747533713.833516,0.02,0.02,-0.29,0.001090830782496456,-0.003272492347489368,0.0,-0.027778314859739462,0.09671493034636115,-0.000733353248709626,0,0,0,0,0,0,1500,1500,1500,1500,1500,1500
1747533713.935263,0.04,0.0,-0.36,-0.001090830782496456,0.0,-0.001090830782496456,-0.027778314859739462,0.09671493034636115,-0.000733353248709626,0,0,0,0,0,0,1500,1500,1500,1500,1500,1500
1747533714.0340672,0.03,0.01,-0.29,0.0,0.001090830782496456,-0.001090830782496456,-0.027778314859739462,0.09671493034636115,-0.000733353248709626,0,0,0,0,0,0,1500,1500,1500,1500,1500,1500
1747533714.1339977,0.03,0.01,-0.29,0.0,0.001090830782496456,-0.001090830782496456,-0.027778314859739462,0.09671493034636115,-0.000733353248709626,0,0,0,0,0,0,1500,1500,1500,1500,1500,1500
1747533714.2179666,0.01,0.02,-0.37,-0.002181661564992912,0.002181661564992912,0.001090830782496456,-0.027778314859739462,0.09671493034636115,-0.000733353248709626,0,0,0,0,0,0,1500,1500,1500,1500,1500,1500
1747533714.3176534,0.01,0.02,-0.37,-0.002181661564992912,0.002181661564992912,0.001090830782496456,-0.027778314859739462,0.09671493034636115,-0.000733353248709626,0,0,0,0,0,0,1500,1500,1500,1500,1500,1500
1747533714.4175591,0.03,0.04,-0.29,0.001090830782496456,0.0,0.0,-0.027778314859739462,0.09671493034636115,-0.000733353248709626,0,0,0,0,0,0,1500,1500,1500,1500,1500,1500
1747533714.5008857,0.03,0.01,-0.33,-0.003272492347489368,-0.001090830782496456,0.0,-0.027778314859739462,0.09671493034636115,-0.000733353248709626,0,0,0,0,0,0,1500,1500,1500,1500,1500,1500
1747533714.6011283,0.03,0.01,-0.33,-0.003272492347489368,-0.001090830782496456,0.0,-0.027778314859739462,0.09671493034636115,-0.000733353248709626,0,0,0,0,0,0,1500,1500,1500,1500,1500,1500
1747533714.699549,0.03,0.03,-0.39,-0.002181661564992912,-0.002181661564992912,0.0,-0.027778314859739462,0.09671493034636115,-0.000733353248709626,0,0,0,0,0,0,1500,1500,1500,1500,1500,1500
1747533714.7991517,0.03,0.03,-0.39,-0.002181661564992912,-0.002181661564992912,0.0,-0.027778314859739462,0.09671493034636115,-0.000733353248709626,0,0,0,0,0,0,1500,1500,1500,1500,1500,1500
1747533714.9007087,0.02,0.01,-0.29,-0.002181661564992912,0.0,0.0,-0.027778314859739462,0.09671493034636115,-0.000733353248709626,0,0,0,0,0,0,1500,1500,1500,1500,1500,1500
1747533714.9844496,0.02,0.01,-0.38,-0.002181661564992912,-0.002181661564992912,0.001090830782496456,-0.027778314859739462,0.09671493034636115,-0.000733353248709626,0,0,0,0,0,0,1500,1500,1500,1500,1500,1500
1747533715.083907,0.02,0.01,-0.38,-0.002181661564992912,-0.002181661564992912,0.001090830782496456,-0.027778314859739462,0.09671493034636115,-0.000733353248709626,0,0,0,0,0,0,1500,1500,1500,1500,1500,1500
1747533715.183402,0.01,0.04,-0.27,0.008726646259971648,-0.001090830782496456,0.0,-0.027778314859739462,0.09671493034636115,-0.000733353248709626,0,0,0,0,0,0,1500,1500,1500,1500,1500,1500
1747533715.2835581,0.04,0.03,-0.31,0.001090830782496456,0.0,0.001090830782496456,-0.027778314859739462,0.09671493034636115,-0.000733353248709626,0,0,0,0,0,0,1500,1500,1500,1500,1500,1500
1747533715.3838573,0.04,0.03,-0.31,0.001090830782496456,0.0,0.001090830782496456,-0.027778314859739462,0.09671493034636115,-0.000733353248709626,0,0,0,0,0,0,1500,1500,1500,1500,1500,1500
1747533715.4665382,0.04,0.01,-0.39,0.002181661564992912,-0.001090830782496456,0.001090830782496456,-0.027778314859739462,0.09671493034636115,-0.000733353248709626,0,0,0,0,0,0,1500,1500,1500,1500,1500,1500
1747533715.5665977,0.04,0.01,-0.39,0.002181661564992912,-0.001090830782496456,0.001090830782496456,-0.027778314859739462,0.09671493034636115,-0.000733353248709626,0,0,0,0,0,0,1500,1500,1500,1500,1500,1500
1747533715.6665013,0.02,0.02,-0.31,-0.004363323129985824,0.0,-0.001090830782496456,-0.027778314859739462,0.09671493034636115,-0.000733353248709626,0,0,0,0,0,0,1500,1500,1500,1500,1500,1500
1747533715.7497187,0.02,0.02,-0.31,-0.004363323129985824,0.0,-0.001090830782496456,-0.027778314859739462,0.09671493034636115,-0.000733353248709626,0,0,0,0,0,0,1500,1500,1500,1500,1500,1500
1747533715.8512638,0.04,0.01,-0.32,0.001090830782496456,-0.001090830782496456,-0.001090830782496456,-0.027778314859739462,0.09671493034636115,-0.000733353248709626,0,0,0,0,0,0,1500,1500,1500,1500,1500,1500
1747533715.9499164,0.0,0.0,-0.36,0.002181661564992912,0.0,-0.001090830782496456,-0.027778314859739462,0.09671493034636115,-0.000733353248709626,0,0,0,0,0,0,1500,1500,1500,1500,1500,1500
1747533716.0501602,0.0,0.0,-0.36,0.002181661564992912,0.0,-0.001090830782496456,-0.027778314859739462,0.09671493034636115,-0.000733353248709626,0,0,0,0,0,0,1500,1500,1500,1500,1500,1500
1747533716.1500576,0.06,0.03,-0.29,-0.004363323129985824,0.0,0.001090830782496456,-0.027778314859739462,0.09671493034636115,-0.000733353248709626,0,0,0,0,0,0,1500,1500,1500,1500,1500,1500
1747533716.2331314,0.06,0.03,-0.29,-0.004363323129985824,0.0,0.001090830782496456,-0.027778314859739462,0.09671493034636115,-0.000733353248709626,0,0,0,0,0,0,1500,1500,1500,1500,1500,1500
1747533716.3333597,0.05,0.02,-0.36,-0.002181661564992912,0.0,0.003272492347489368,-0.027778314859739462,0.09671493034636115,-0.000733353248709626,0,0,0,0,0,0,1500,1500,1500,1500,1500,1500
1747533716.4340143,-0.03,-0.2,-0.24,0.015271630954950384,0.003272492347489368,-0.006544984694978736,-0.028029611347379784,0.09683577797544346,-0.0008694210589665839,0,0,0,0,0,0,1500,1500,1500,1500,1500,1500
1747533716.534021,-0.03,-0.2,-0.24,0.015271630954950384,0.003272492347489368,-0.006544984694978736,-0.028029611347379784,0.09683577797544346,-0.0008694210589665839,0,0,0,0,0,0,1500,1500,1500,1500,1500,1500
1747533716.6331744,-0.14,0.07,-0.29,0.008726646259971648,-0.001090830782496456,0.007635815477475192,-0.028519757439111088,0.09683589774584862,-0.0008931655348532406,0,0,0,0,0,0,1500,1500,1500,1500,1500,1500
1747533716.71792,-0.14,0.07,-0.29,0.008726646259971648,-0.001090830782496456,0.007635815477475192,-0.028519757439111088,0.09683589774584862,-0.0008931655348532406,0,0,0,0,0,0,1500,1500,1500,1500,1500,1500
1747533716.8169832,-1.58,-2.94,3.86,-0.954476934684399,1.0439250588491085,0.4286964975211072,-0.08992666823803609,0.15969951899226587,0.02295721107423018,0,0,0,0,0,0,1500,1500,1500,1500,1500,1500
1747533716.9191804,-1.9000000000000001,-2.15,0.44,0.04145156973486533,0.6959500392327389,1.0930124440614488,-0.12216099820988854,0.3437408206647895,0.12485950190381905,0,0,0,0,0,0,1500,1500,1500,1500,1500,1500
1747533717.018318,-1.9000000000000001,-2.15,0.44,0.04145156973486533,0.6959500392327389,1.0930124440614488,-0.12216099820988854,0.3437408206647895,0.12485950190381905,0,0,0,0,0,0,1500,1500,1500,1500,1500,1500
1747533717.1184394,-1.79,-0.02,-0.86,-0.8573929950422144,0.0545415391248228,0.8552113334772214,-0.08092316438275288,0.40158736836699654,0.2954538368374255,0,0,0,0,0,0,1500,1500,1500,1500,1500,1500
1747533717.2005947,-1.5,-1.1,-0.92,-1.6689710972195777,0.4276056667386107,0.8235772407848243,-0.2591615892572953,0.4375248516300696,0.4014299122591174,0,0,0,0,0,0,1500,1500,1500,1500,1500,1500
1747533717.299651,-1.5,-1.1,-0.92,-1.6689710972195777,0.4276056667386107,0.8235772407848243,-0.2591615892572953,0.4375248516300696,0.4014299122591174,0,0,0,0,0,0,1500,1500,1500,1500,1500,1500
1747533717.4000514,0.56,0.03,0.86,-0.9468411192069238,1.4333516482003432,1.5642513420999178,-0.3904403565828897,0.6250244510548949,0.5456211488661118,0,0,0,0,0,0,1500,1500,1500,1500,1500,1500
1747533717.4838755,0.56,0.03,0.86,-0.9468411192069238,1.4333516482003432,1.5642513420999178,-0.3904403565828897,0.6250244510548949,0.5456211488661118,0,0,0,0,0,0,1500,1500,1500,1500,1500,1500
1747533717.583286,2.5500000000000003,0.39,1.7,-0.6523168079328807,1.373355955163038,1.8009616219016489,-0.3469514972837134,0.9441480409322258,0.7776436361680416,0,0,0,0,0,0,1500,1500,1500,1500,1500,1500
1747533717.6831567,3.25,-1.95,1.02,-0.03381575425739013,0.6021385919380436,1.5108006337575914,-0.049781252551865565,1.1458157368278166,1.1868643729497277,0,0,0,0,0,0,1500,1500,1500,1500,1500,1500
1747533717.767021,3.25,-1.95,1.02,-0.03381575425739013,0.6021385919380436,1.5108006337575914,-0.049781252551865565,1.1458157368278166,1.1868643729497277,0,0,0,0,0,0,1500,1500,1500,1500,1500,1500
1747533717.86663,2.06,-2.21,0.11,0.4188790204786391,-0.3141592653589793,1.3679018012505557,0.48868169461460564,1.1096457187726134,1.724445594475738,0,0,0,0,0,0,1500,1500,1500,1500,1500,1500
1747533717.9679227,2.06,-2.21,0.11,0.4188790204786391,-0.3141592653589793,1.3679018012505557,0.48868169461460564,1.1096457187726134,1.724445594475738,0,0,0,0,0,0,1500,1500,1500,1500,1500,1500
1747533718.0671124,1.56,-1.04,-0.68,0.5050546522958591,-0.6730425928003133,0.24107360293171676,0.6818744337402345,0.988372250982241,1.8351681291956914,0,0,0,0,0,0,1500,1500,1500,1500,1500,1500
1747533718.1667702,0.5,-1.33,0.0,0.940296134511945,-0.4756022211684548,-0.533416252640767,0.6885987056618231,0.9381369198913638,1.698106358750814,0,0,0,0,0,0,1500,1500,1500,1500,1500,1500
1747533718.2500467,0.5,-1.33,0.0,0.940296134511945,-0.4756022211684548,-0.533416252640767,0.6885987056618231,0.9381369198913638,1.698106358750814,0,0,0,0,0,0,1500,1500,1500,1500,1500,1500
1747533718.3496487,0.47000000000000003,-0.48,0.39,-0.028361600344907856,-0.11235557059713497,-0.3337942194439155,0.6070347111837601,0.9505747509605902,1.5448728941892396,0,0,0,0,0,0,1500,1500,1500,1500,1500,1500
1747533718.4499636,0.47000000000000003,-0.48,0.39,-0.028361600344907856,-0.11235557059713497,-0.3337942194439155,0.6070347111837601,0.9505747509605902,1.5448728941892396,0,0,0,0,0,0,1500,1500,1500,1500,1500,1500
1747533718.549688,-0.64,0.51,0.9,-0.7668540400950086,-0.358883327441334,0.04799655442984406,0.49565145512679964,0.9244358247247016,1.49050809902551,0,0,0,0,0,0,1500,1500,1500,1500,1500,1500
1747533718.6503444,0.9,-1.31,-0.43,-0.13962634015954636,-0.35124751196385884,1.3668109704680593,0.4600662110708872,0.8064565051611556,1.5922898795565983,0,0,0,0,0,0,1500,1500,1500,1500,1500,1500
1747533718.7326708,0.9,-1.31,-0.43,-0.13962634015954636,-0.35124751196385884,1.3668109704680593,0.4600662110708872,0.8064565051611556,1.5922898795565983,0,0,0,0,0,0,1500,1500,1500,1500,1500,1500
1747533718.8337014,0.06,-1.3900000000000001,-2.86,0.6152285613280012,-0.02181661564992912,2.10530341021816,0.7756606760195861,0.62602825354271,1.9088464894737116,0,0,0,0,0,0,1500,1500,1500,1500,1500,1500
1747533718.926588,0.91,1.33,-0.13,-1.2293662918735058,-1.0297442586766545,1.7802358370342162,0.8109719234396355,0.3463151846348088,2.0710740263166914,0,0,0,0,0,0,1500,1500,1500,1500,1500,1500
1747533719.016835,0.91,1.33,-0.13,-1.2293662918735058,-1.0297442586766545,1.7802358370342162,0.8109719234396355,0.3463151846348088,2.0710740263166914,0,0,0,0,0,0,1500,1500,1500,1500,1500,1500
1747533719.1176584,0.41000000000000003,1.73,1.49,-1.2293662918735058,-1.0297442586766545,1.7802358370342162,0.6370820981220918,0.10614757193703829,-0.6082917847508402,0,0,0,0,0,0,1500,1500,1500,1500,1500,1500
1747533719.2153535,0.41000000000000003,1.73,1.49,-1.2293662918735058,-1.0297442586766545,1.7802358370342162,0.6370820981220918,0.10614757193703829,-0.6082917847508402,0,0,0,0,0,0,1500,1500,1500,1500,1500,1500
1747533719.3177528,-0.71,-1.12,-0.02,-0.6839509006252779,-0.6348635154129374,-0.17453292519943295,0.5198960100164851,-0.002743411525207217,-0.7313048380380079,0,0,0,0,0,0,1500,1500,1500,1500,1500,1500
1747533719.416779,-0.28,-0.41000000000000003,-0.98,0.6632251157578453,-0.12326387842209953,0.5159629601208237,0.5440298372081902,-0.06355058576268957,-0.7464335032671849,0,0,0,0,0,0,1500,1500,1500,1500,1500,1500
1747533719.5168629,-0.28,-0.41000000000000003,-0.98,0.6632251157578453,-0.12326387842209953,0.5159629601208237,0.5440298372081902,-0.06355058576268957,-0.7464335032671849,0,0,0,0,0,0,1500,1500,1500,1500,1500,1500
1747533719.6175084,-0.25,-0.86,-0.84,0.8519388411297321,0.06217735460229799,1.153008137098754,0.648109448809677,-0.13376027652373368,-0.6180669514530993,0,0,0,0,0,0,1500,1500,1500,1500,1500,1500
1747533719.7165833,-1.49,-2.25,-1.51,0.7210391472301574,0.16580627893946132,1.0319259202416473,0.7482283711590428,-0.2352174713342895,-0.47829675334313065,0,0,0,0,0,0,1500,1500,1500,1500,1500,1500
1747533719.816662,-1.49,-2.25,-1.51,0.7210391472301574,0.16580627893946132,1.0319259202416473,0.7482283711590428,-0.2352174713342895,-0.47829675334313065,0,0,0,0,0,0,1500,1500,1500,1500,1500,1500
1747533719.916793,-1.1500000000000001,-2.17,-0.5700000000000001,0.657770961845363,0.06872233929727672,0.866119641302186,0.8234426092581101,-0.3191637614525984,-0.3558216490329872,0,0,0,0,0,0,1500,1500,1500,1500,1500,1500
1747533719.9993334,-1.1500000000000001,-2.17,-0.5700000000000001,0.657770961845363,0.06872233929727672,0.866119641302186,0.8234426092581101,-0.3191637614525984,-0.3558216490329872,0,0,0,0,0,0,1500,1500,1500,1500,1500,1500
1747533720.1001577,0.62,-0.4,1.55,0.14944381720201447,0.06763150851478027,0.7504915783575618,0.8515302755568231,-0.40376405920298986,-0.2603192224677997,0,0,0,0,0,0,1500,1500,1500,1500,1500,1500
1747533720.1998205,0.8,0.25,1.6400000000000001,0.23343778745424157,-0.14944381720201447,0.5410520681182421,0.8297595919727485,-0.48411125218877216,-0.18700086285896197,0,0,0,0,0,0,1500,1500,1500,1500,1500,1500
1747533720.3000746,0.8,0.25,1.6400000000000001,0.23343778745424157,-0.14944381720201447,0.5410520681182421,0.8297595919727485,-0.48411125218877216,-0.18700086285896197,0,0,0,0,0,0,1500,1500,1500,1500,1500,1500
1747533720.400484,1.3900000000000001,0.35000000000000003,1.3800000000000001,0.30870511144649704,-0.17453292519943295,0.13853550937704992,0.8867411165935202,-0.5523800764302351,-0.18432873931333085,0,0,0,0,0,0,1500,1500,1500,1500,1500,1500
1747533720.4826303,1.3900000000000001,0.35000000000000003,1.3800000000000001,0.30870511144649704,-0.17453292519943295,0.13853550937704992,0.8867411165935202,-0.5523800764302351,-0.18432873931333085,0,0,0,0,0,0,1500,1500,1500,1500,1500,1500
1747533720.5831156,0.77,0.04,0.91,-0.5203262832508095,0.3643374813538163,-0.061086523819801536,0.8625862931326744,-0.544502238997278,-0.16973245869094547,0,0,0,0,0,0,1500,1500,1500,1500,1500,1500
1747533720.682368,0.09,0.29,0.03,-0.7134033317526822,0.10035643198967395,0.14508049407202864,0.7612776477128307,-0.5179656505188641,-0.14048908625843148,0,0,0,0,0,0,1500,1500,1500,1500,1500,1500
1747533720.7827773,0.09,0.29,0.03,-0.7134033317526822,0.10035643198967395,0.14508049407202864,0.7612776477128307,-0.5179656505188641,-0.14048908625843148,0,0,0,0,0,0,1500,1500,1500,1500,1500,1500
1747533720.8848867,-0.36,0.05,-0.74,-0.4526947747360292,-0.10035643198967395,0.13962634015954636,0.6569370744538738,-0.5412853607930187,-0.12004334012572065,0,0,0,0,0,0,1500,1500,1500,1500,1500,1500
1747533720.967147,-0.9400000000000001,-0.49,-1.16,0.3643374813538163,-0.10799224746714914,-0.22252947962927702,0.668424459668847,-0.5510676850099854,-0.1423870565504643,0,0,0,0,0,0,1500,1500,1500,1500,1500,1500
1747533721.0676742,-0.9400000000000001,-0.49,-1.16,0.3643374813538163,-0.10799224746714914,-0.22252947962927702,0.668424459668847,-0.5510676850099854,-0.1423870565504643,0,0,0,0,0,0,1500,1500,1500,1500,1500,1500
1747533721.166838,-0.97,-1.59,-1.67,0.7603090554000298,0.21707532571679475,-0.5945027764605685,0.8001543728542669,-0.5035030575670795,-0.1968227511412959,0,0,0,0,0,0,1500,1500,1500,1500,1500,1500
1747533721.2493935,-0.97,-1.59,-1.67,0.7603090554000298,0.21707532571679475,-0.5945027764605685,0.8001543728542669,-0.5035030575670795,-0.1968227511412959,0,0,0,0,0,0,1500,1500,1500,1500,1500,1500
1747533721.3495605,0.79,-0.74,0.44,-0.43196898986859655,1.1824605682261582,-0.6763150851478027,0.8284446186339443,-0.3634408402659905,-0.1840545129404629,0,0,0,0,0,0,1500,1500,1500,1500,1500,1500
1747533721.444409,0.74,1.28,1.53,-0.44724062082354693,1.1933688760511227,-0.46142142099600086,0.7399218994776926,-0.18245905486666647,-0.11245273543902977,0,0,0,0,0,0,1500,1500,1500,1500,1500,1500
1747533721.5336785,0.74,1.28,1.53,-0.44724062082354693,1.1933688760511227,-0.46142142099600086,0.7399218994776926,-0.18245905486666647,-0.11245273543902977,0,0,0,0,0,0,1500,1500,1500,1500,1500,1500
1747533721.6331143,-0.06,0.14,0.93,-0.38069994309126315,0.36542831213631277,-0.00545415391248228,0.6782479024833824,-0.07802460614058347,-0.0564214066014597,0,0,0,0,0,0,1500,1500,1500,1500,1500,1500
1747533721.7165577,-0.06,0.14,0.93,-0.38069994309126315,0.36542831213631277,-0.00545415391248228,0.6782479024833824,-0.07802460614058347,-0.0564214066014597,0,0,0,0,0,0,1500,1500,1500,1500,1500,1500
1747533721.8166926,-0.02,-0.45,0.08,-0.36979163526629855,0.15707963267948966,-0.031634092692397225,0.6215161899753328,-0.050153625765136135,-0.03791299381185816,0,0,0,0,0,0,1500,1500,1500,1500,1500,1500
1747533721.9036915,-0.09,-0.65,-0.26,-0.32179508083645453,0.08508480103472356,-0.07090400086226964,0.5630899861501357,-0.029842357948326056,-0.033922702503973765,0,0,0,0,0,0,1500,1500,1500,1500,1500,1500
1747533721.9994712,-0.09,-0.65,-0.26,-0.32179508083645453,0.08508480103472356,-0.07090400086226964,0.5630899861501357,-0.029842357948326056,-0.033922702503973765,0,0,0,0,0,0,1500,1500,1500,1500,1500,1500
1747533722.0994961,-0.06,-0.44,-0.15,-0.3425208657038872,0.00545415391248228,-0.11671889372712078,0.5101324846606382,-0.01591953821064691,-0.04250529466489251,0,0,0,0,0,0,1500,1500,1500,1500,1500,1500
1747533722.2022915,-0.06,-0.44,-0.15,-0.3425208657038872,0.00545415391248228,-0.11671889372712078,0.5101324846606382,-0.01591953821064691,-0.04250529466489251,0,0,0,0,0,0,1500,1500,1500,1500,1500,1500
1747533722.3121138,-0.05,-0.31,-0.08,-0.3817907738737596,-0.07526732399225546,-0.13308135546456762,0.4502572833077182,-0.010484902441118724,-0.0625212568058978,0,0,0,0,0,0,1500,1500,1500,1500,1500,1500
1747533722.4166985,-0.04,-0.29,-0.17,-0.3948807432637171,-0.12871803233458182,-0.11017390903214205,0.3879150193820969,-0.016998528479228486,-0.08646566143402584,0,0,0,0,0,0,1500,1500,1500,1500,1500,1500
1747533722.4994342,-0.04,-0.29,-0.17,-0.3948807432637171,-0.12871803233458182,-0.11017390903214205,0.3879150193820969,-0.016998528479228486,-0.08646566143402584,0,0,0,0,0,0,1500,1500,1500,1500,1500,1500
1747533722.6015952,-0.03,-0.37,-0.3,-0.3534291735288517,-0.12435470920459599,-0.09599310885968812,0.3284371739764487,-0.03036821234408812,-0.10828395208242739,0,0,0,0,0,0,1500,1500,1500,1500,1500,1500
1747533722.6901364,0.0,-0.39,-0.35000000000000003,-0.2901609881440573,-0.06763150851478027,-0.1090830782496456,0.28031638636804784,-0.038745425865935886,-0.12625429423963835,0,0,0,0,0,0,1500,1500,1500,1500,1500,1500
1747533722.783533,0.0,-0.39,-0.35000000000000003,-0.2901609881440573,-0.06763150851478027,-0.1090830782496456,0.28031638636804784,-0.038745425865935886,-0.12625429423963835,0,0,0,0,0,0,1500,1500,1500,1500,1500,1500
1747533722.8835728,0.0,-0.38,-0.27,-0.26398104936414235,-0.07853981633974483,-0.1090830782496456,0.23527174584568467,-0.04431501451097807,-0.1462520179912929,0,0,0,0,0,0,1500,1500,1500,1500,1500,1500
1747533722.9665742,0.0,-0.38,-0.27,-0.26398104936414235,-0.07853981633974483,-0.1090830782496456,0.23527174584568467,-0.04431501451097807,-0.1462520179912929,0,0,0,0,0,0,1500,1500,1500,1500,1500,1500
1747533723.0669188,0.0,-0.28,-0.25,-0.2519819107566813,-0.11344640137963143,-0.06981317007977318,0.19598654123490036,-0.056154089845768106,-0.1621320935420347,0,0,0,0,0,0,1500,1500,1500,1500,1500,1500
1747533723.1538782,-0.1,-0.15,-0.29,-0.26725354171163174,-0.12326387842209953,-0.07963064712224129,0.15806158892670283,-0.07136836294966725,-0.1743376817243039,0,0,0,0,0,0,1500,1500,1500,1500,1500,1500
1747533723.249407,-0.1,-0.15,-0.29,-0.26725354171163174,-0.12326387842209953,-0.07963064712224129,0.15806158892670283,-0.07136836294966725,-0.1743376817243039,0,0,0,0,0,0,1500,1500,1500,1500,1500,1500
1747533723.350292,-0.07,-0.13,-0.43,-0.272707695624114,-0.07635815477475191,-0.1407171709420428,0.11670090548240053,-0.08378088820306108,-0.19352578295200337,0,0,0,0,0,0,1500,1500,1500,1500,1500,1500
1747533723.448683,-0.07,-0.13,-0.43,-0.272707695624114,-0.07635815477475191,-0.1407171709420428,0.11670090548240053,-0.08378088820306108,-0.19352578295200337,0,0,0,0,0,0,1500,1500,1500,1500,1500,1500
1747533723.5483348,-0.08,-0.19,-0.44,-0.31852258848896514,-0.12217304763960307,-0.29888763440402893,0.0734098271722361,-0.09377643830040486,-0.22892915356574733,0,0,0,0,0,0,1500,1500,1500,1500,1500,1500
1747533723.6499758,0.1,-0.29,-0.4,-0.3741549583962844,-0.2279836335417593,-0.2923426497090502,0.02264095756151034,-0.12091060343674298,-0.28038603239660764,0,0,0,0,0,0,1500,1500,1500,1500,1500,1500
1747533723.7322986,0.1,-0.29,-0.4,-0.3741549583962844,-0.2279836335417593,-0.2923426497090502,0.02264095756151034,-0.12091060343674298,-0.28038603239660764,0,0,0,0,0,0,1500,1500,1500,1500,1500,1500
1747533723.8328853,0.23,0.01,-0.47000000000000003,-0.48978302134090873,-0.2399827721492203,-0.14289883250703572,-0.03562961656914261,-0.15165779547778585,-0.3148955097019371,0,0,0,0,0,0,1500,1500,1500,1500,1500,1500
1747533723.9331605,0.23,0.01,-0.47000000000000003,-0.48978302134090873,-0.2399827721492203,-0.14289883250703572,-0.03562961656914261,-0.15165779547778585,-0.3148955097019371,0,0,0,0,0,0,1500,1500,1500,1500,1500,1500
1747533724.015427,-0.19,-0.04,-0.44,-0.48651052899341934,-0.22471114119426994,-0.15162547876700738,-0.10078618031620287,-0.1872515252137161,-0.3375957658240541,0,0,0,0,0,0,1500,1500,1500,1500,1500,1500
1747533724.1168244,-0.1,-0.15,-0.51,-0.559596191420682,-0.17671458676442586,-0.09053895494720585,-0.17473234939617946,-0.21817396936831407,-0.3516162543253245,0,0,0,0,0,0,1500,1500,1500,1500,1500,1500
1747533724.2166793,-0.1,-0.15,-0.51,-0.559596191420682,-0.17671458676442586,-0.09053895494720585,-0.17473234939617946,-0.21817396936831407,-0.3516162543253245,0,0,0,0,0,0,1500,1500,1500,1500,1500,1500
1747533724.316868,-0.14,-0.12,-0.52,-0.6708609312353204,-0.1407171709420428,-0.04254240051736178,-0.2698757971291261,-0.2442564924921788,-0.3569651247694322,0,0,0,0,0,0,1500,1500,1500,1500,1500,1500
1747533724.4169693,-0.22,-0.13,-0.46,-0.7853981633974483,-0.10035643198967395,0.028361600344907856,-0.3776557642527223,-0.2610437723466209,-0.3521453628186078,0,0,0,0,0,0,1500,1500,1500,1500,1500,1500
1747533724.4993982,-0.22,-0.13,-0.46,-0.7853981633974483,-0.10035643198967395,0.028361600344907856,-0.3776557642527223,-0.2610437723466209,-0.3521453628186078,0,0,0,0,0,0,1500,1500,1500,1500,1500,1500
1747533724.5987744,-0.14,0.06,-0.5,-0.904298718689562,-0.061086523819801536,0.10581058590215622,-0.5127814750286827,-0.2670855591054575,-0.3364088095769443,0,0,0,0,0,0,1500,1500,1500,1500,1500,1500
1747533724.6995518,-0.14,0.06,-0.5,-0.904298718689562,-0.061086523819801536,0.10581058590215622,-0.5127814750286827,-0.2670855591054575,-0.3364088095769443,0,0,0,0,0,0,1500,1500,1500,1500,1500,1500
1747533724.7986717,-0.22,0.0,-0.44,-1.002473489114243,-0.04254240051736178,0.17889624832941878,-0.6677667872852658,-0.2605864798791175,-0.31255849126233726,0,0,0,0,0,0,1500,1500,1500,1500,1500,1500
1747533724.9008613,-0.22,0.0,-0.41000000000000003,-1.069014166846527,-0.05781403147231216,0.20725784867432664,-0.8251717820149955,-0.24647637873309206,-0.2857186755348158,0,0,0,0,0,0,1500,1500,1500,1500,1500,1500
1747533724.9829175,-0.22,0.0,-0.41000000000000003,-1.069014166846527,-0.05781403147231216,0.20725784867432664,-0.8251717820149955,-0.24647637873309206,-0.2857186755348158,0,0,0,0,0,0,1500,1500,1500,1500,1500,1500
1747533725.08308,-0.3,0.13,-0.41000000000000003,-1.0821041362364843,-0.08726646259971647,0.1930770485018727,-0.9995194264402729,-0.2284283106592767,-0.2566782694715457,0,0,0,0,0,0,1500,1500,1500,1500,1500,1500
1747533725.1830046,-0.3,0.13,-0.41000000000000003,-1.0821041362364843,-0.08726646259971647,0.1930770485018727,-0.9995194264402729,-0.2284283106592767,-0.2566782694715457,0,0,0,0,0,0,1500,1500,1500,1500,1500,1500
1747533725.2655256,-0.23,0.03,-0.4,-1.0417433972841155,-0.13744467859455345,0.12871803233458182,-1.170542541449416,-0.21411120275996928,-0.22911911263315687,0,0,0,0,0,0,1500,1500,1500,1500,1500,1500
1747533725.3669348,-0.27,0.06,-0.31,-1.0122909661567112,-0.1461713248545251,0.04799655442984406,-1.32405886253186,-0.20901139340780564,-0.20480610393493034,0,0,0,0,0,0,1500,1500,1500,1500,1500,1500
1747533725.4667974,-0.27,0.06,-0.31,-1.0122909661567112,-0.1461713248545251,0.04799655442984406,-1.32405886253186,-0.20901139340780564,-0.20480610393493034,0,0,0,0,0,0,1500,1500,1500,1500,1500,1500
1747533725.5666096,-0.26,0.09,-0.23,-0.9915651812892785,-0.16253378659197193,-0.013089969389957472,-1.484184462216704,-0.21035535884409734,-0.17980316317568004,0,0,0,0,0,0,1500,1500,1500,1500,1500,1500
1747533725.6550245,-0.25,0.01,-0.18,-0.9817477042468103,-0.15926129424448257,-0.07526732399225546,-1.632811132736665,-0.21752810148908594,-0.15524223984795604,0,0,0,0,0,0,1500,1500,1500,1500,1500,1500
1747533725.749263,-0.25,0.01,-0.18,-0.9817477042468103,-0.15926129424448257,-0.07526732399225546,-1.632811132736665,-0.21752810148908594,-0.15524223984795604,0,0,0,0,0,0,1500,1500,1500,1500,1500,1500
1747533725.84913,-0.28,0.12,-0.22,-0.9915651812892785,-0.13744467859455345,-0.13853550937704992,-1.7918830867005147,-0.23079256786597965,-0.1285499589536754,0,0,0,0,0,0,1500,1500,1500,1500,1500,1500
1747533725.949072,-0.28,0.12,-0.22,-0.9915651812892785,-0.13744467859455345,-0.13853550937704992,-1.7918830867005147,-0.23079256786597965,-0.1285499589536754,0,0,0,0,0,0,1500,1500,1500,1500,1500,1500
1747533726.0490692,-0.1,0.08,-0.3,-1.0275625971116615,-0.11671889372712078,-0.1832595714594046,-1.9447533627439881,-0.24766359006402516,-0.10314076480142072,0,0,0,0,0,0,1500,1500,1500,1500,1500,1500
1747533726.1497753,-0.16,0.0,-0.24,-1.038470904936626,-0.12217304763960307,-0.18762289458939044,-2.1126158269248867,-0.2653623213246005,-0.07243165473901654,0,0,0,0,0,0,1500,1500,1500,1500,1500,1500
1747533726.2322936,-0.16,0.0,-0.24,-1.038470904936626,-0.12217304763960307,-0.18762289458939044,-2.1126158269248867,-0.2653623213246005,-0.07243165473901654,0,0,0,0,0,0,1500,1500,1500,1500,1500,1500
1747533726.3321402,-0.18,-0.13,-0.19,-1.0428342280666119,-0.15926129424448257,-0.18435040224190105,-2.283631027372344,-0.27622006443399527,-0.036461701159947825,0,0,0,0,0,0,1500,1500,1500,1500,1500,1500
1747533726.432264,-0.18,-0.13,-0.19,-1.0428342280666119,-0.15926129424448257,-0.18435040224190105,-2.283631027372344,-0.27622006443399527,-0.036461701159947825,0,0,0,0,0,0,1500,1500,1500,1500,1500,1500
1747533726.5153525,-0.15,-0.15,-0.2,-1.0613783513690516,-0.16253378659197193,-0.17562375598192942,-2.4575373761189065,-0.2775420197204788,0.0022064885448495413,0,0,0,0,0,0,1500,1500,1500,1500,1500,1500
1747533726.6151943,-0.15,-0.11,-0.08,-1.0810133054539879,-0.18435040224190105,-0.16144295580947549,-2.622650560039764,-0.2715126388691685,0.036863439032421355,0,0,0,0,0,0,1500,1500,1500,1500,1500,1500
1747533726.7156327,-0.15,-0.11,-0.08,-1.0810133054539879,-0.18435040224190105,-0.16144295580947549,-2.622650560039764,-0.2715126388691685,0.036863439032421355,0,0,0,0,0,0,1500,1500,1500,1500,1500,1500
1747533726.8154154,-0.08,-0.25,-0.07,-1.1039207518864134,-0.19525871006686563,-0.18216874067690814,-2.800904539712963,-0.2554133373352421,0.07413371227254162,0,0,0,0,0,0,1500,1500,1500,1500,1500,1500
1747533726.9156466,-0.11,-0.37,-0.1,-1.1322823522313212,-0.17998707911191522,-0.1930770485018727,-2.9735996927735346,-0.23569237666351223,0.10942755907041163,0,0,0,0,0,0,1500,1500,1500,1500,1500,1500
1747533726.999053,-0.11,-0.37,-0.1,-1.1322823522313212,-0.17998707911191522,-0.1930770485018727,-2.9735996927735346,-0.23569237666351223,0.10942755907041163,0,0,0,0,0,0,1500,1500,1500,1500,1500,1500
1747533727.0982406,-0.07,-0.21,-0.22,-1.076649982324002,-0.17016960206944712,-0.16798794050445423,3.13337443626955,-0.21189185501983662,0.1406865299119477,0,0,0,0,0,0,1500,1500,1500,1500,1500,1500
1747533727.1991887,-0.07,-0.21,-0.22,-1.076649982324002,-0.17016960206944712,-0.16798794050445423,3.13337443626955,-0.21189185501983662,0.1406865299119477,0,0,0,0,0,0,1500,1500,1500,1500,1500,1500
1747533727.2991936,-0.03,-0.27,-0.16,-1.0319259202416473,-0.15926129424448257,-0.18653206380689397,2.9644778860030097,-0.18327613436720316,0.16609922168433733,0,0,0,0,0,0,1500,1500,1500,1500,1500,1500
1747533727.3956218,0.0,-0.38,-0.08,-0.9381144729469522,-0.11562806294462433,-0.17235126363444003,2.809095988841943,-0.1568176956369822,0.18818034495012695,0,0,0,0,0,0,1500,1500,1500,1500,1500,1500
1747533727.4822476,0.0,-0.38,-0.08,-0.9381144729469522,-0.11562806294462433,-0.17235126363444003,2.809095988841943,-0.1568176956369822,0.18818034495012695,0,0,0,0,0,0,1500,1500,1500,1500,1500,1500
1747533727.5826423,0.05,-0.43,-0.13,-0.8464846872172498,-0.09272061651219876,-0.1461713248545251,2.6681421578979463,-0.13289045039716563,0.20433047706568858,0,0,0,0,0,0,1500,1500,1500,1500,1500,1500
1747533727.6831336,0.05,-0.43,-0.13,-0.8464846872172498,-0.09272061651219876,-0.1461713248545251,2.6681421578979463,-0.13289045039716563,0.20433047706568858,0,0,0,0,0,0,1500,1500,1500,1500,1500,1500
1747533727.764913,0.04,-0.47000000000000003,-0.02,-0.7515824091400581,-0.050178215994836975,-0.11999138607461016,2.554240407342153,-0.11418852631475791,0.21553140692275555,0,0,0,0,0,0,1500,1500,1500,1500,1500,1500
1747533727.8613539,0.03,-0.44,-0.12,-0.6479534848028948,0.002181661564992912,-0.05672320068981571,2.4556462210703263,-0.10484572117595709,0.22422321988036228,0,0,0,0,0,0,1500,1500,1500,1500,1500,1500
1747533727.9656248,0.03,-0.44,-0.12,-0.6479534848028948,0.002181661564992912,-0.05672320068981571,2.4556462210703263,-0.10484572117595709,0.22422321988036228,0,0,0,0,0,0,1500,1500,1500,1500,1500,1500
1747533728.065858,0.03,-0.42,0.12,-0.5323254218582705,0.0272707695624114,0.00545415391248228,2.3759912653802666,-0.10476974794985446,0.2270615129605225,0,0,0,0,0,0,1500,1500,1500,1500,1500,1500
1747533728.1655831,0.03,-0.42,0.12,-0.5323254218582705,0.0272707695624114,0.00545415391248228,2.3759912653802666,-0.10476974794985446,0.2270615129605225,0,0,0,0,0,0,1500,1500,1500,1500,1500,1500
1747533728.2491486,0.14,-1.59,0.33,-0.3839724354387525,0.10581058590215622,0.12108221685710661,2.3114681915387663,-0.11710005890794754,0.2283475738387022,0,0,0,0,0,0,1500,1500,1500,1500,1500,1500
1747533728.3491895,-0.02,-0.36,0.06,-0.28907015736156083,0.1439896632895322,0.17562375598192942,2.260725057307173,-0.14793388029376786,0.2290250849329641,0,0,0,0,0,0,1500,1500,1500,1500,1500,1500
1747533728.4484265,-0.02,-0.36,0.06,-0.28907015736156083,0.1439896632895322,0.17562375598192942,2.260725057307173,-0.14793388029376786,0.2290250849329641,0,0,0,0,0,0,1500,1500,1500,1500,1500,1500
1747533728.5322933,0.0,-0.29,0.08,-0.2519819107566813,0.1538071403320003,0.21489366415180183,2.2215672383522898,-0.1869362429607882,0.2279641150893308,0,0,0,0,0,0,1500,1500,1500,1500,1500,1500
1747533728.6325765,0.0,-0.29,0.08,-0.2519819107566813,0.1538071403320003,0.21489366415180183,2.2215672383522898,-0.1869362429607882,0.2279641150893308,0,0,0,0,0,0,1500,1500,1500,1500,1500,1500
1747533728.7329547,0.02,-0.19,-0.02,-0.22252947962927702,0.1559888018969932,0.21707532571679475,2.186434925948903,-0.22829568180030205,0.22754783792521535,0,0,0,0,0,0,1500,1500,1500,1500,1500,1500
1747533728.8324068,0.05,-0.19,0.02,-0.2203478180642841,0.16689710972195776,0.21925698728178766,2.1532521535251266,-0.2709030348101047,0.22852487957226933,0,0,0,0,0,0,1500,1500,1500,1500,1500,1500
1747533728.932373,0.05,-0.19,0.02,-0.2203478180642841,0.16689710972195776,0.21925698728178766,2.1532521535251266,-0.2709030348101047,0.22852487957226933,0,0,0,0,0,0,1500,1500,1500,1500,1500,1500
1747533729.015092,0.03,-0.27,0.0,-0.24107360293171676,0.17016960206944712,0.18871372537188688,2.118571465646557,-0.30984498051258696,0.23390483682907637,0,0,0,0,0,0,1500,1500,1500,1500,1500,1500
1747533729.116187,0.03,-0.27,0.0,-0.24107360293171676,0.17016960206944712,0.18871372537188688,2.118571465646557,-0.30984498051258696,0.23390483682907637,0,0,0,0,0,0,1500,1500,1500,1500,1500,1500
1747533729.215276,-0.05,-0.35000000000000003,0.0,-0.2748893571891069,0.14289883250703572,0.13526301702956053,2.1133414258315217,1.5707963267948966,-2.8403151393827435,0,0,0,0,0,0,1500,1500,1500,1500,1500,1500
1747533729.3152761,-0.03,-0.23,-0.16,-0.30870511144649704,0.12762720155208535,0.07635815477475191,2.0337193217784777,-0.36715204584289846,0.2521841119873641,0,0,0,0,0,0,1500,1500,1500,1500,1500,1500
1747533729.4153705,-0.03,-0.23,-0.16,-0.30870511144649704,0.12762720155208535,0.07635815477475191,2.0337193217784777,-0.36715204584289846,0.2521841119873641,0,0,0,0,0,0,1500,1500,1500,1500,1500,1500
1747533729.4989805,0.01,-0.25,-0.11,-0.32179508083645453,0.13308135546456762,0.02399827721492203,1.9817354336902708,-0.3822038371971839,0.2679006423725687,0,0,0,0,0,0,1500,1500,1500,1500,1500,1500
1747533729.5984282,0.02,-0.1,0.03,-0.3294308963139297,0.12108221685710661,0.007635815477475192,1.927760191320126,-0.39028268872121735,0.2856791120317797,0,0,0,0,0,0,1500,1500,1500,1500,1500,1500
1747533729.6989174,0.02,-0.1,0.03,-0.3294308963139297,0.12108221685710661,0.007635815477475192,1.927760191320126,-0.39028268872121735,0.2856791120317797,0,0,0,0,0,0,1500,1500,1500,1500,1500,1500
1747533729.7825036,0.0,-0.17,0.02,-0.3076142806640006,0.09599310885968812,0.013089969389957472,1.872134837353304,-0.3967115083089824,0.3024513041747008,0,0,0,0,0,0,1500,1500,1500,1500,1500,1500
