time,ay,ax,az,gy,gx,gz,roll,pitch,yaw,cmd_fx,cmd_fy,cmd_fz,cmd_tx,cmd_ty,cmd_tz,pwm_1,pwm_2,pwm_3,pwm_4,pwm_5,pwm_6
1748735415.105788,0.0,0.0,0.0,0.0,0.0,0.0,0.0,0.0,0.0,0,0,0,0,0,0,1500,1500,1500,1500,1500,1500
1748735415.2010531,0.0,-0.05,0.04,-0.004363323129985824,0.004363323129985824,0.001090830782496456,0.005923331250141275,0.7269399209309165,1.6114075586721368,0,0,0,0,0,0,1500,1500,1500,1500,1500,1500
1748735415.3018186,0.0,-0.05,0.04,-0.004363323129985824,0.004363323129985824,0.001090830782496456,0.005923331250141275,0.7269399209309165,1.6114075586721368,0,0,0,0,0,0,1500,1500,1500,1500,1500,1500
1748735415.4015017,0.01,-0.01,0.01,-0.001090830782496456,0.001090830782496456,-0.001090830782496456,0.005923331250141275,0.7269399209309165,1.6114075586721368,0,0,0,0,0,0,1500,1500,1500,1500,1500,1500
1748735415.5021324,0.02,0.0,0.03,0.003272492347489368,-0.003272492347489368,0.0,0.005923331250141275,0.7269399209309165,1.6114075586721368,0,0,0,0,0,0,1500,1500,1500,1500,1500,1500
1748735415.5843108,0.02,0.0,0.03,0.003272492347489368,-0.003272492347489368,0.0,0.005923331250141275,0.7269399209309165,1.6114075586721368,0,0,0,0,0,0,1500,1500,1500,1500,1500,1500
1748735415.68522,0.0,-0.01,0.03,-0.001090830782496456,-0.003272492347489368,0.0,0.005923331250141275,0.7269399209309165,1.6114075586721368,0,0,0,0,0,0,1500,1500,1500,1500,1500,1500
1748735415.7847476,0.0,-0.01,0.03,-0.001090830782496456,-0.003272492347489368,0.0,0.005923331250141275,0.7269399209309165,1.6114075586721368,0,0,0,0,0,0,1500,1500,1500,1500,1500,1500
1748735415.8679855,-0.01,-0.02,0.02,0.002181661564992912,0.003272492347489368,-0.001090830782496456,0.005923331250141275,0.7269399209309165,1.6114075586721368,0,0,0,0,0,0,1500,1500,1500,1500,1500,1500
1748735415.9641793,0.0,-0.01,0.03,-0.002181661564992912,0.00545415391248228,0.0,0.005923331250141275,0.7269399209309165,1.6114075586721368,0,0,0,0,0,0,1500,1500,1500,1500,1500,1500
1748735416.0682917,0.0,-0.01,0.03,-0.002181661564992912,0.00545415391248228,0.0,0.005923331250141275,0.7269399209309165,1.6114075586721368,0,0,0,0,0,0,1500,1500,1500,1500,1500,1500
1748735416.1681385,0.03,0.0,0.02,0.0,0.0,-0.002181661564992912,0.005923331250141275,0.7269399209309165,1.6114075586721368,0,0,0,0,0,0,1500,1500,1500,1500,1500,1500
1748735416.2682657,0.03,0.0,0.02,0.0,0.0,-0.002181661564992912,0.005923331250141275,0.7269399209309165,1.6114075586721368,0,0,0,0,0,0,1500,1500,1500,1500,1500,1500
1748735416.3514805,0.0,-0.01,0.07,0.002181661564992912,-0.002181661564992912,0.0,0.005923331250141275,0.7269399209309165,1.6114075586721368,0,0,0,0,0,0,1500,1500,1500,1500,1500,1500
1748735416.4441617,0.0,-0.02,0.03,-0.002181661564992912,0.003272492347489368,0.001090830782496456,0.005923331250141275,0.7269399209309165,1.6114075586721368,0,0,0,0,0,0,1500,1500,1500,1500,1500,1500
1748735416.5513134,0.0,-0.02,0.03,-0.002181661564992912,0.003272492347489368,0.001090830782496456,0.005923331250141275,0.7269399209309165,1.6114075586721368,0,0,0,0,0,0,1500,1500,1500,1500,1500,1500
1748735416.651496,0.0,-0.06,0.03,-0.003272492347489368,0.002181661564992912,0.002181661564992912,0.005923331250141275,0.7269399209309165,1.6114075586721368,0,0,0,0,0,0,1500,1500,1500,1500,1500,1500
1748735416.7528105,0.0,-0.06,0.03,-0.003272492347489368,0.002181661564992912,0.002181661564992912,0.005923331250141275,0.7269399209309165,1.6114075586721368,0,0,0,0,0,0,1500,1500,1500,1500,1500,1500
1748735416.8350482,0.0,0.0,0.0,0.0,0.002181661564992912,0.004363323129985824,0.005923331250141275,0.7269399209309165,1.6114075586721368,0,0,0,0,0,0,1500,1500,1500,1500,1500,1500
1748735416.9352627,0.02,-0.01,0.01,-0.001090830782496456,0.002181661564992912,0.0,0.005923331250141275,0.7269399209309165,1.6114075586721368,0,0,0,0,0,0,1500,1500,1500,1500,1500,1500
1748735417.0356364,0.02,-0.01,0.01,-0.001090830782496456,0.002181661564992912,0.0,0.005923331250141275,0.7269399209309165,1.6114075586721368,0,0,0,0,0,0,1500,1500,1500,1500,1500,1500
1748735417.1354241,0.0,0.01,0.05,-0.002181661564992912,-0.001090830782496456,0.0,0.005923331250141275,0.7269399209309165,1.6114075586721368,0,0,0,0,0,0,1500,1500,1500,1500,1500,1500
1748735417.2350695,0.0,0.01,0.05,-0.002181661564992912,-0.001090830782496456,0.0,0.005923331250141275,0.7269399209309165,1.6114075586721368,0,0,0,0,0,0,1500,1500,1500,1500,1500,1500
1748735417.3181527,-0.01,-0.04,0.03,-0.001090830782496456,0.00545415391248228,0.001090830782496456,0.005923331250141275,0.7269399209309165,1.6114075586721368,0,0,0,0,0,0,1500,1500,1500,1500,1500,1500
1748735417.4183073,-0.01,-0.01,0.01,0.0,0.002181661564992912,-0.002181661564992912,0.005923331250141275,0.7269399209309165,1.6114075586721368,0,0,0,0,0,0,1500,1500,1500,1500,1500,1500
1748735417.5188563,-0.01,-0.01,0.01,0.0,0.002181661564992912,-0.002181661564992912,0.005923331250141275,0.7269399209309165,1.6114075586721368,0,0,0,0,0,0,1500,1500,1500,1500,1500,1500
1748735417.602405,0.0,0.02,0.02,-0.001090830782496456,0.0,0.002181661564992912,0.005923331250141275,0.7269399209309165,1.6114075586721368,0,0,0,0,0,0,1500,1500,1500,1500,1500,1500
1748735417.7020068,0.0,0.02,0.02,-0.001090830782496456,0.0,0.002181661564992912,0.005923331250141275,0.7269399209309165,1.6114075586721368,0,0,0,0,0,0,1500,1500,1500,1500,1500,1500
1748735417.8012412,0.02,-0.02,0.03,0.002181661564992912,0.001090830782496456,0.0,0.005923331250141275,0.7269399209309165,1.6114075586721368,0,0,0,0,0,0,1500,1500,1500,1500,1500,1500
1748735417.9014199,0.02,-0.04,0.02,0.002181661564992912,0.0,0.0,0.005923331250141275,0.7269399209309165,1.6114075586721368,0,0,0,0,0,0,1500,1500,1500,1500,1500,1500
1748735418.0011115,0.02,-0.04,0.02,0.002181661564992912,0.0,0.0,0.005923331250141275,0.7269399209309165,1.6114075586721368,0,0,0,0,0,0,1500,1500,1500,1500,1500,1500
1748735418.0855415,0.01,-0.03,0.03,0.002181661564992912,0.001090830782496456,0.0,0.005923331250141275,0.7269399209309165,1.6114075586721368,0,0,0,0,0,0,1500,1500,1500,1500,1500,1500
1748735418.1845284,0.01,-0.03,0.03,0.002181661564992912,0.001090830782496456,0.0,0.005923331250141275,0.7269399209309165,1.6114075586721368,0,0,0,0,0,0,1500,1500,1500,1500,1500,1500
1748735418.2852159,0.0,0.0,0.02,0.003272492347489368,0.002181661564992912,0.001090830782496456,0.005923331250141275,0.7269399209309165,1.6114075586721368,0,0,0,0,0,0,1500,1500,1500,1500,1500,1500
1748735418.3852308,0.01,-0.04,0.04,0.003272492347489368,0.003272492347489368,0.001090830782496456,0.005923331250141275,0.7269399209309165,1.6114075586721368,0,0,0,0,0,0,1500,1500,1500,1500,1500,1500
1748735418.4844584,0.01,-0.04,0.04,0.003272492347489368,0.003272492347489368,0.001090830782496456,0.005923331250141275,0.7269399209309165,1.6114075586721368,0,0,0,0,0,0,1500,1500,1500,1500,1500,1500
1748735418.5678787,0.0,-0.02,0.02,0.003272492347489368,0.002181661564992912,0.001090830782496456,0.005923331250141275,0.7269399209309165,1.6114075586721368,0,0,0,0,0,0,1500,1500,1500,1500,1500,1500
1748735418.6679313,0.0,-0.02,0.02,0.003272492347489368,0.002181661564992912,0.001090830782496456,0.005923331250141275,0.7269399209309165,1.6114075586721368,0,0,0,0,0,0,1500,1500,1500,1500,1500,1500
1748735418.7686725,0.0,0.0,0.03,0.003272492347489368,0.0,-0.001090830782496456,0.005923331250141275,0.7269399209309165,1.6114075586721368,0,0,0,0,0,0,1500,1500,1500,1500,1500,1500
1748735418.8513362,0.01,-0.02,0.03,0.004363323129985824,0.004363323129985824,-0.001090830782496456,0.005923331250141275,0.7269399209309165,1.6114075586721368,0,0,0,0,0,0,1500,1500,1500,1500,1500,1500
1748735418.9533858,0.01,-0.02,0.03,0.004363323129985824,0.004363323129985824,-0.001090830782496456,0.005923331250141275,0.7269399209309165,1.6114075586721368,0,0,0,0,0,0,1500,1500,1500,1500,1500,1500
1748735419.0518575,-0.01,-0.02,0.02,0.0,0.002181661564992912,-0.001090830782496456,0.005923331250141275,0.7269399209309165,1.6114075586721368,0,0,0,0,0,0,1500,1500,1500,1500,1500,1500
1748735419.1477668,0.0,-0.03,0.04,0.002181661564992912,-0.002181661564992912,0.0,0.005923331250141275,0.7269399209309165,1.6114075586721368,0,0,0,0,0,0,1500,1500,1500,1500,1500,1500
1748735419.2505586,0.0,-0.03,0.04,0.002181661564992912,-0.002181661564992912,0.0,0.005923331250141275,0.7269399209309165,1.6114075586721368,0,0,0,0,0,0,1500,1500,1500,1500,1500,1500
1748735419.3350163,-0.01,-0.01,-0.01,-0.001090830782496456,-0.003272492347489368,0.001090830782496456,0.005923331250141275,0.7269399209309165,1.6114075586721368,0,0,0,0,0,0,1500,1500,1500,1500,1500,1500
1748735419.4341388,-0.01,-0.01,-0.01,-0.001090830782496456,-0.003272492347489368,0.001090830782496456,0.005923331250141275,0.7269399209309165,1.6114075586721368,0,0,0,0,0,0,1500,1500,1500,1500,1500,1500
1748735419.535179,0.0,0.0,0.01,-0.001090830782496456,0.002181661564992912,-0.002181661564992912,0.005923331250141275,0.7269399209309165,1.6114075586721368,0,0,0,0,0,0,1500,1500,1500,1500,1500,1500
1748735419.6180174,0.0,0.0,0.01,-0.001090830782496456,0.002181661564992912,-0.002181661564992912,0.005923331250141275,0.7269399209309165,1.6114075586721368,0,0,0,0,0,0,1500,1500,1500,1500,1500,1500
1748735419.7185938,-0.01,-0.02,0.05,0.004363323129985824,-0.002181661564992912,0.0,0.005923331250141275,0.7269399209309165,1.6114075586721368,0,0,0,0,0,0,1500,1500,1500,1500,1500,1500
1748735419.8180807,0.0,0.0,0.0,-0.001090830782496456,-0.001090830782496456,0.0,0.005923331250141275,0.7269399209309165,1.6114075586721368,0,0,0,0,0,0,1500,1500,1500,1500,1500,1500
1748735419.9180698,0.0,0.0,0.0,-0.001090830782496456,-0.001090830782496456,0.0,0.005923331250141275,0.7269399209309165,1.6114075586721368,0,0,0,0,0,0,1500,1500,1500,1500,1500,1500
1748735420.0179446,0.0,0.01,0.01,0.0,0.002181661564992912,-0.001090830782496456,0.005923331250141275,0.7269399209309165,1.6114075586721368,0,0,0,0,0,0,1500,1500,1500,1500,1500,1500
1748735420.1001368,0.0,-0.01,0.04,0.0,0.001090830782496456,0.001090830782496456,0.005923331250141275,0.7269399209309165,1.6114075586721368,0,0,0,0,0,0,1500,1500,1500,1500,1500,1500
1748735420.201731,0.0,-0.01,0.04,0.0,0.001090830782496456,0.001090830782496456,0.005923331250141275,0.7269399209309165,1.6114075586721368,0,0,0,0,0,0,1500,1500,1500,1500,1500,1500
1748735420.3014612,0.0,-0.03,0.05,0.00545415391248228,-0.00545415391248228,-0.003272492347489368,0.005923331250141275,0.7269399209309165,1.6114075586721368,0,0,0,0,0,0,1500,1500,1500,1500,1500,1500
1748735420.4008417,0.0,-0.03,0.05,0.00545415391248228,-0.00545415391248228,-0.003272492347489368,0.005923331250141275,0.7269399209309165,1.6114075586721368,0,0,0,0,0,0,1500,1500,1500,1500,1500,1500
1748735420.5016932,0.02,0.0,0.01,-0.001090830782496456,-0.001090830782496456,-0.002181661564992912,0.005923331250141275,0.7269399209309165,1.6114075586721368,0,0,0,0,0,0,1500,1500,1500,1500,1500,1500
1748735420.5851493,0.0,0.0,0.01,-0.001090830782496456,0.00545415391248228,0.002181661564992912,0.005923331250141275,0.7269399209309165,1.6114075586721368,0,0,0,0,0,0,1500,1500,1500,1500,1500,1500
1748735420.6853266,0.0,0.0,0.01,-0.001090830782496456,0.00545415391248228,0.002181661564992912,0.005923331250141275,0.7269399209309165,1.6114075586721368,0,0,0,0,0,0,1500,1500,1500,1500,1500,1500
1748735420.784294,0.0,0.0,0.04,-0.002181661564992912,0.001090830782496456,0.001090830782496456,0.005923331250141275,0.7269399209309165,1.6114075586721368,0,0,0,0,0,0,1500,1500,1500,1500,1500,1500
1748735420.8684216,0.0,0.0,0.04,-0.002181661564992912,0.001090830782496456,0.001090830782496456,0.005923331250141275,0.7269399209309165,1.6114075586721368,0,0,0,0,0,0,1500,1500,1500,1500,1500,1500
1748735420.9684665,0.0,-0.02,0.05,0.002181661564992912,0.001090830782496456,-0.001090830782496456,0.005923331250141275,0.7269399209309165,1.6114075586721368,0,0,0,0,0,0,1500,1500,1500,1500,1500,1500
1748735421.0577378,0.0,0.0,0.03,0.0,0.0,0.0,0.005923331250141275,0.7269399209309165,1.6114075586721368,0,0,0,0,0,0,1500,1500,1500,1500,1500,1500
1748735421.1510847,0.0,0.0,0.03,0.0,0.0,0.0,0.005923331250141275,0.7269399209309165,1.6114075586721368,0,0,0,0,0,0,1500,1500,1500,1500,1500,1500
1748735421.2512107,0.0,0.01,0.03,0.002181661564992912,0.004363323129985824,-0.001090830782496456,0.005923331250141275,0.7269399209309165,1.6114075586721368,0,0,0,0,0,0,1500,1500,1500,1500,1500,1500
1748735421.334959,0.0,0.01,0.03,0.002181661564992912,0.004363323129985824,-0.001090830782496456,0.005923331250141275,0.7269399209309165,1.6114075586721368,0,0,0,0,0,0,1500,1500,1500,1500,1500,1500
1748735421.4345677,0.01,-0.02,0.06,-0.001090830782496456,0.004363323129985824,0.0,0.005923331250141275,0.7269399209309165,1.6114075586721368,0,0,0,0,0,0,1500,1500,1500,1500,1500,1500
1748735421.534476,0.01,-0.01,0.03,0.0,-0.004363323129985824,0.002181661564992912,0.005923331250141275,0.7269399209309165,1.6114075586721368,0,0,0,0,0,0,1500,1500,1500,1500,1500,1500
1748735421.618213,0.01,-0.01,0.03,0.0,-0.004363323129985824,0.002181661564992912,0.005923331250141275,0.7269399209309165,1.6114075586721368,0,0,0,0,0,0,1500,1500,1500,1500,1500,1500
1748735421.718842,0.0,0.0,0.03,-0.002181661564992912,0.001090830782496456,-0.001090830782496456,0.005923331250141275,0.7269399209309165,1.6114075586721368,0,0,0,0,0,0,1500,1500,1500,1500,1500,1500
1748735421.8184755,0.0,0.0,0.03,-0.002181661564992912,0.001090830782496456,-0.001090830782496456,0.005923331250141275,0.7269399209309165,1.6114075586721368,0,0,0,0,0,0,1500,1500,1500,1500,1500,1500
1748735421.9189572,0.01,0.0,0.0,0.002181661564992912,0.0,0.002181661564992912,0.005923331250141275,0.7269399209309165,1.6114075586721368,0,0,0,0,0,0,1500,1500,1500,1500,1500,1500
1748735422.0190861,0.01,0.0,0.0,0.002181661564992912,0.0,0.002181661564992912,0.005923331250141275,0.7269399209309165,1.6114075586721368,0,0,0,0,0,0,1500,1500,1500,1500,1500,1500
1748735422.1020179,0.0,0.0,0.03,-0.001090830782496456,-0.002181661564992912,0.004363323129985824,0.005923331250141275,0.7269399209309165,1.6114075586721368,0,0,0,0,0,0,1500,1500,1500,1500,1500,1500
1748735422.2018619,0.0,0.0,0.03,-0.001090830782496456,-0.007635815477475192,0.0,0.005923331250141275,0.7269399209309165,1.6114075586721368,0,0,0,0,0,0,1500,1500,1500,1500,1500,1500
1748735422.3011997,0.0,0.0,0.03,-0.001090830782496456,-0.007635815477475192,0.0,0.005923331250141275,0.7269399209309165,1.6114075586721368,0,0,0,0,0,0,1500,1500,1500,1500,1500,1500
1748735422.4014633,0.0,-0.03,0.05,0.004363323129985824,0.00545415391248228,-0.001090830782496456,0.005923331250141275,0.7269399209309165,1.6114075586721368,0,0,0,0,0,0,1500,1500,1500,1500,1500,1500
1748735422.4985793,-0.01,0.01,0.01,0.001090830782496456,-0.002181661564992912,0.001090830782496456,0.005923331250141275,0.7269399209309165,1.6114075586721368,0,0,0,0,0,0,1500,1500,1500,1500,1500,1500
1748735422.5853662,-0.01,0.01,0.01,0.001090830782496456,-0.002181661564992912,0.001090830782496456,0.005923331250141275,0.7269399209309165,1.6114075586721368,0,0,0,0,0,0,1500,1500,1500,1500,1500,1500
1748735422.6845102,0.0,0.01,0.0,0.001090830782496456,-0.002181661564992912,0.001090830782496456,0.005923331250141275,0.7269399209309165,1.6114075586721368,0,0,0,0,0,0,1500,1500,1500,1500,1500,1500
1748735422.784206,0.0,0.01,0.0,0.001090830782496456,-0.002181661564992912,0.001090830782496456,0.005923331250141275,0.7269399209309165,1.6114075586721368,0,0,0,0,0,0,1500,1500,1500,1500,1500,1500
1748735422.8686557,0.0,-0.06,0.06,0.001090830782496456,0.002181661564992912,0.002181661564992912,0.005923331250141275,0.7269399209309165,1.6114075586721368,0,0,0,0,0,0,1500,1500,1500,1500,1500,1500
1748735422.9687948,0.0,-0.06,0.06,0.001090830782496456,0.002181661564992912,0.002181661564992912,0.005923331250141275,0.7269399209309165,1.6114075586721368,0,0,0,0,0,0,1500,1500,1500,1500,1500,1500
1748735423.0686712,0.0,0.0,0.01,0.004363323129985824,0.002181661564992912,-0.002181661564992912,0.005923331250141275,0.7269399209309165,1.6114075586721368,0,0,0,0,0,0,1500,1500,1500,1500,1500,1500
1748735423.1681824,0.01,0.0,0.02,0.003272492347489368,0.002181661564992912,0.0,0.005923331250141275,0.7269399209309165,1.6114075586721368,0,0,0,0,0,0,1500,1500,1500,1500,1500,1500
1748735423.268925,0.01,0.0,0.02,0.003272492347489368,0.002181661564992912,0.0,0.005923331250141275,0.7269399209309165,1.6114075586721368,0,0,0,0,0,0,1500,1500,1500,1500,1500,1500
1748735423.351268,0.0,-0.01,0.03,0.002181661564992912,0.002181661564992912,-0.001090830782496456,0.005923331250141275,0.7269399209309165,1.6114075586721368,0,0,0,0,0,0,1500,1500,1500,1500,1500,1500
1748735423.451096,0.0,-0.01,0.03,0.002181661564992912,0.002181661564992912,-0.001090830782496456,0.005923331250141275,0.7269399209309165,1.6114075586721368,0,0,0,0,0,0,1500,1500,1500,1500,1500,1500
1748735423.551216,0.0,-0.01,0.04,0.001090830782496456,0.00545415391248228,0.003272492347489368,0.005923331250141275,0.7269399209309165,1.6114075586721368,0,0,0,0,0,0,1500,1500,1500,1500,1500,1500
1748735423.6517155,0.0,-0.04,0.0,0.0,0.003272492347489368,0.002181661564992912,0.005923331250141275,0.7269399209309165,1.6114075586721368,0,0,0,0,0,0,1500,1500,1500,1500,1500,1500
1748735423.7512906,0.0,-0.04,0.0,0.0,0.003272492347489368,0.002181661564992912,0.005923331250141275,0.7269399209309165,1.6114075586721368,0,0,0,0,0,0,1500,1500,1500,1500,1500,1500
1748735423.835026,0.0,0.0,0.0,0.0,0.003272492347489368,0.0,0.005923331250141275,0.7269399209309165,1.6114075586721368,0,0,0,0,0,0,1500,1500,1500,1500,1500,1500
1748735423.9339895,0.02,0.0,0.04,0.001090830782496456,0.004363323129985824,-0.001090830782496456,0.005923331250141275,0.7269399209309165,1.6114075586721368,0,0,0,0,0,0,1500,1500,1500,1500,1500,1500
1748735424.0343506,0.02,0.0,0.04,0.001090830782496456,0.004363323129985824,-0.001090830782496456,0.005923331250141275,0.7269399209309165,1.6114075586721368,0,0,0,0,0,0,1500,1500,1500,1500,1500,1500
1748735424.1185062,0.0,-0.03,0.06,0.0,0.001090830782496456,-0.001090830782496456,0.005923331250141275,0.7269399209309165,1.6114075586721368,0,0,0,0,0,0,1500,1500,1500,1500,1500,1500
1748735424.218654,0.0,-0.03,0.06,0.0,0.001090830782496456,-0.001090830782496456,0.005923331250141275,0.7269399209309165,1.6114075586721368,0,0,0,0,0,0,1500,1500,1500,1500,1500,1500
1748735424.302037,0.0,-0.03,0.05,0.003272492347489368,0.001090830782496456,0.0,0.005923331250141275,0.7269399209309165,1.6114075586721368,0,0,0,0,0,0,1500,1500,1500,1500,1500,1500
1748735424.4023094,0.0,-0.03,0.05,0.003272492347489368,0.001090830782496456,0.0,0.005923331250141275,0.7269399209309165,1.6114075586721368,0,0,0,0,0,0,1500,1500,1500,1500,1500,1500
1748735424.5010169,-0.01,0.01,0.04,0.004363323129985824,0.00545415391248228,0.0,0.005923331250141275,0.7269399209309165,1.6114075586721368,0,0,0,0,0,0,1500,1500,1500,1500,1500,1500
1748735424.5851226,0.04,-0.02,0.01,0.002181661564992912,0.006544984694978736,0.001090830782496456,0.005923331250141275,0.7269399209309165,1.6114075586721368,0,0,0,0,0,0,1500,1500,1500,1500,1500,1500
1748735424.6843126,0.04,-0.02,0.01,0.002181661564992912,0.006544984694978736,0.001090830782496456,0.005923331250141275,0.7269399209309165,1.6114075586721368,0,0,0,0,0,0,1500,1500,1500,1500,1500,1500
1748735424.784921,0.03,-0.04,0.03,0.002181661564992912,0.00545415391248228,0.001090830782496456,0.005923331250141275,0.7269399209309165,1.6114075586721368,0,0,0,0,0,0,1500,1500,1500,1500,1500,1500
1748735424.8683324,0.03,-0.04,0.03,0.002181661564992912,0.00545415391248228,0.001090830782496456,0.005923331250141275,0.7269399209309165,1.6114075586721368,0,0,0,0,0,0,1500,1500,1500,1500,1500,1500
1748735424.9689758,0.01,-0.02,0.04,-0.001090830782496456,-0.001090830782496456,0.0,0.005923331250141275,0.7269399209309165,1.6114075586721368,0,0,0,0,0,0,1500,1500,1500,1500,1500,1500
1748735425.0682373,0.02,-0.01,0.05,-0.002181661564992912,0.001090830782496456,-0.001090830782496456,0.005923331250141275,0.7269399209309165,1.6114075586721368,0,0,0,0,0,0,1500,1500,1500,1500,1500,1500
1748735425.167502,0.02,-0.01,0.05,-0.002181661564992912,0.001090830782496456,-0.001090830782496456,0.005923331250141275,0.7269399209309165,1.6114075586721368,0,0,0,0,0,0,1500,1500,1500,1500,1500,1500
1748735425.2682242,0.0,-0.04,0.02,-0.002181661564992912,0.001090830782496456,0.001090830782496456,0.005923331250141275,0.7269399209309165,1.6114075586721368,0,0,0,0,0,0,1500,1500,1500,1500,1500,1500
1748735425.352354,0.0,-0.04,0.02,-0.002181661564992912,0.001090830782496456,0.001090830782496456,0.005923331250141275,0.7269399209309165,1.6114075586721368,0,0,0,0,0,0,1500,1500,1500,1500,1500,1500
1748735425.4510841,0.01,-0.03,0.04,0.0,0.0,0.0,0.005923331250141275,0.7269399209309165,1.6114075586721368,0,0,0,0,0,0,1500,1500,1500,1500,1500,1500
1748735425.5517719,0.02,-0.01,0.0,-0.001090830782496456,-0.002181661564992912,-0.001090830782496456,0.005923331250141275,0.7269399209309165,1.6114075586721368,0,0,0,0,0,0,1500,1500,1500,1500,1500,1500
1748735425.6522098,0.02,-0.01,0.0,-0.001090830782496456,-0.002181661564992912,-0.001090830782496456,0.005923331250141275,0.7269399209309165,1.6114075586721368,0,0,0,0,0,0,1500,1500,1500,1500,1500,1500
1748735425.754952,0.01,0.0,0.01,0.003272492347489368,-0.003272492347489368,0.0,0.005923331250141275,0.7269399209309165,1.6114075586721368,0,0,0,0,0,0,1500,1500,1500,1500,1500,1500
1748735425.8676755,0.0,0.0,0.06,0.0,0.0,0.0,0.005923331250141275,0.7269399209309165,1.6114075586721368,0,0,0,0,0,0,1500,1500,1500,1500,1500,1500
1748735425.9713945,0.0,0.0,0.06,0.0,0.0,0.0,0.005923331250141275,0.7269399209309165,1.6114075586721368,0,0,0,0,0,0,1500,1500,1500,1500,1500,1500
1748735426.0545793,0.0,-0.04,0.04,-0.001090830782496456,0.0,-0.001090830782496456,0.005923331250141275,0.7269399209309165,1.6114075586721368,0,0,0,0,0,0,1500,1500,1500,1500,1500,1500
1748735426.151825,0.0,-0.01,0.03,-0.001090830782496456,0.003272492347489368,0.001090830782496456,0.005923331250141275,0.7269399209309165,1.6114075586721368,0,0,0,0,0,0,1500,1500,1500,1500,1500,1500
1748735426.252771,0.0,-0.01,0.03,-0.001090830782496456,0.003272492347489368,0.001090830782496456,0.005923331250141275,0.7269399209309165,1.6114075586721368,0,0,0,0,0,0,1500,1500,1500,1500,1500,1500
1748735426.3358982,0.02,-0.01,0.04,0.0,0.002181661564992912,0.001090830782496456,0.005923331250141275,0.7269399209309165,1.6114075586721368,0,0,0,0,0,0,1500,1500,1500,1500,1500,1500
1748735426.43563,0.02,-0.01,0.04,0.0,0.002181661564992912,0.001090830782496456,0.005923331250141275,0.7269399209309165,1.6114075586721368,0,0,0,0,0,0,1500,1500,1500,1500,1500,1500
1748735426.5358949,0.0,-0.02,0.03,0.0,-0.002181661564992912,-0.001090830782496456,0.005923331250141275,0.7269399209309165,1.6114075586721368,0,0,0,0,0,0,1500,1500,1500,1500,1500,1500
1748735426.634602,0.0,0.0,0.05,-0.001090830782496456,-0.001090830782496456,-0.001090830782496456,0.005923331250141275,0.7269399209309165,1.6114075586721368,0,0,0,0,0,0,1500,1500,1500,1500,1500,1500
1748735426.7345212,0.0,0.0,0.05,-0.001090830782496456,-0.001090830782496456,-0.001090830782496456,0.005923331250141275,0.7269399209309165,1.6114075586721368,0,0,0,0,0,0,1500,1500,1500,1500,1500,1500
1748735426.817585,0.02,-0.02,0.0,0.002181661564992912,-0.00545415391248228,0.0,0.005923331250141275,0.7269399209309165,1.6114075586721368,0,0,0,0,0,0,1500,1500,1500,1500,1500,1500
1748735426.917728,0.02,-0.02,0.0,0.002181661564992912,-0.00545415391248228,0.0,0.005923331250141275,0.7269399209309165,1.6114075586721368,0,0,0,0,0,0,1500,1500,1500,1500,1500,1500
1748735427.0178385,0.01,0.0,0.0,0.001090830782496456,-0.002181661564992912,0.0,0.005923331250141275,0.7269399209309165,1.6114075586721368,0,0,0,0,0,0,1500,1500,1500,1500,1500,1500
1748735427.1012833,0.01,0.0,0.0,0.001090830782496456,-0.002181661564992912,0.0,0.005923331250141275,0.7269399209309165,1.6114075586721368,0,0,0,0,0,0,1500,1500,1500,1500,1500,1500
1748735427.2010553,0.0,-0.05,0.06,-0.002181661564992912,-0.002181661564992912,-0.001090830782496456,0.005923331250141275,0.7269399209309165,1.6114075586721368,0,0,0,0,0,0,1500,1500,1500,1500,1500,1500
1748735427.3012278,0.01,0.0,0.0,-0.001090830782496456,0.0,0.001090830782496456,0.005923331250141275,0.7269399209309165,1.6114075586721368,0,0,0,0,0,0,1500,1500,1500,1500,1500,1500
1748735427.4015887,0.01,0.0,0.0,-0.001090830782496456,0.0,0.001090830782496456,0.005923331250141275,0.7269399209309165,1.6114075586721368,0,0,0,0,0,0,1500,1500,1500,1500,1500,1500
1748735427.500378,0.0,0.0,0.0,0.002181661564992912,-0.003272492347489368,0.001090830782496456,0.005923331250141275,0.7269399209309165,1.6114075586721368,0,0,0,0,0,0,1500,1500,1500,1500,1500,1500
1748735427.584445,0.0,0.0,0.0,0.002181661564992912,-0.003272492347489368,0.001090830782496456,0.005923331250141275,0.7269399209309165,1.6114075586721368,0,0,0,0,0,0,1500,1500,1500,1500,1500,1500
1748735427.6836739,0.0,-0.04,0.04,0.002181661564992912,-0.002181661564992912,0.001090830782496456,0.005923331250141275,0.7269399209309165,1.6114075586721368,0,0,0,0,0,0,1500,1500,1500,1500,1500,1500
1748735427.7838283,-0.01,-0.04,0.04,-0.002181661564992912,-0.001090830782496456,0.0,0.005923331250141275,0.7269399209309165,1.6114075586721368,0,0,0,0,0,0,1500,1500,1500,1500,1500,1500
1748735427.8697705,-0.01,-0.04,0.04,-0.002181661564992912,-0.001090830782496456,0.0,0.005923331250141275,0.7269399209309165,1.6114075586721368,0,0,0,0,0,0,1500,1500,1500,1500,1500,1500
1748735427.9670188,0.0,-0.01,0.04,-0.001090830782496456,0.0,0.001090830782496456,0.005923331250141275,0.7269399209309165,1.6114075586721368,0,0,0,0,0,0,1500,1500,1500,1500,1500,1500
1748735428.053372,0.0,-0.04,0.05,-0.002181661564992912,0.001090830782496456,0.001090830782496456,0.005923331250141275,0.7269399209309165,1.6114075586721368,0,0,0,0,0,0,1500,1500,1500,1500,1500,1500
1748735428.1512058,0.0,-0.04,0.05,-0.002181661564992912,0.001090830782496456,0.001090830782496456,0.005923331250141275,0.7269399209309165,1.6114075586721368,0,0,0,0,0,0,1500,1500,1500,1500,1500,1500
1748735428.251209,0.02,-0.01,0.02,-0.001090830782496456,-0.002181661564992912,0.001090830782496456,0.005923331250141275,0.7269399209309165,1.6114075586721368,0,0,0,0,0,0,1500,1500,1500,1500,1500,1500
1748735428.3342628,0.02,-0.01,0.02,-0.001090830782496456,-0.002181661564992912,0.001090830782496456,0.005923331250141275,0.7269399209309165,1.6114075586721368,0,0,0,0,0,0,1500,1500,1500,1500,1500,1500
1748735428.4338849,0.0,-0.04,0.05,-0.001090830782496456,0.001090830782496456,0.0,0.005923331250141275,0.7269399209309165,1.6114075586721368,0,0,0,0,0,0,1500,1500,1500,1500,1500,1500
1748735428.5338042,0.0,-0.04,0.05,-0.001090830782496456,0.001090830782496456,0.0,0.005923331250141275,0.7269399209309165,1.6114075586721368,0,0,0,0,0,0,1500,1500,1500,1500,1500,1500
1748735428.6175616,0.0,-0.02,0.01,0.002181661564992912,0.001090830782496456,0.001090830782496456,0.005923331250141275,0.7269399209309165,1.6114075586721368,0,0,0,0,0,0,1500,1500,1500,1500,1500,1500
1748735428.717573,0.0,0.01,0.03,0.003272492347489368,0.0,-0.001090830782496456,0.005923331250141275,0.7269399209309165,1.6114075586721368,0,0,0,0,0,0,1500,1500,1500,1500,1500,1500
1748735428.818203,0.0,0.01,0.03,0.003272492347489368,0.0,-0.001090830782496456,0.005923331250141275,0.7269399209309165,1.6114075586721368,0,0,0,0,0,0,1500,1500,1500,1500,1500,1500
1748735428.917817,0.0,-0.03,0.08,0.001090830782496456,-0.001090830782496456,0.0,0.005923331250141275,0.7269399209309165,1.6114075586721368,0,0,0,0,0,0,1500,1500,1500,1500,1500,1500
1748735429.0121162,0.0,-0.02,0.02,0.0,0.0,0.001090830782496456,0.005923331250141275,0.7269399209309165,1.6114075586721368,0,0,0,0,0,0,1500,1500,1500,1500,1500,1500
1748735429.1012,0.0,-0.02,0.02,0.0,0.0,0.001090830782496456,0.005923331250141275,0.7269399209309165,1.6114075586721368,0,0,0,0,0,0,1500,1500,1500,1500,1500,1500
1748735429.2022345,0.02,0.0,0.0,0.001090830782496456,0.001090830782496456,-0.003272492347489368,0.005923331250141275,0.7269399209309165,1.6114075586721368,0,0,0,0,0,0,1500,1500,1500,1500,1500,1500
1748735429.3023095,0.02,0.0,0.0,0.001090830782496456,0.001090830782496456,-0.003272492347489368,0.005923331250141275,0.7269399209309165,1.6114075586721368,0,0,0,0,0,0,1500,1500,1500,1500,1500,1500
1748735429.402179,0.01,-0.01,0.05,0.001090830782496456,-0.003272492347489368,-0.001090830782496456,0.005923331250141275,0.7269399209309165,1.6114075586721368,0,0,0,0,0,0,1500,1500,1500,1500,1500,1500
1748735429.5014873,0.02,-0.02,0.02,0.0,-0.003272492347489368,0.003272492347489368,0.005923331250141275,0.7269399209309165,1.6114075586721368,0,0,0,0,0,0,1500,1500,1500,1500,1500,1500
1748735429.5845218,0.02,-0.02,0.02,0.0,-0.003272492347489368,0.003272492347489368,0.005923331250141275,0.7269399209309165,1.6114075586721368,0,0,0,0,0,0,1500,1500,1500,1500,1500,1500
1748735429.6846437,0.0,-0.01,0.04,0.002181661564992912,-0.002181661564992912,0.0,0.005923331250141275,0.7269399209309165,1.6114075586721368,0,0,0,0,0,0,1500,1500,1500,1500,1500,1500
1748735429.7844706,0.0,-0.01,0.04,0.002181661564992912,-0.002181661564992912,0.0,0.005923331250141275,0.7269399209309165,1.6114075586721368,0,0,0,0,0,0,1500,1500,1500,1500,1500,1500
1748735429.8685951,0.0,0.0,0.03,0.001090830782496456,0.002181661564992912,0.0,0.005923331250141275,0.7269399209309165,1.6114075586721368,0,0,0,0,0,0,1500,1500,1500,1500,1500,1500
1748735429.9635015,-0.02,-0.03,0.04,0.0,-0.001090830782496456,-0.001090830782496456,0.005923331250141275,0.7269399209309165,1.6114075586721368,0,0,0,0,0,0,1500,1500,1500,1500,1500,1500
1748735430.0684216,-0.02,-0.03,0.04,0.0,-0.001090830782496456,-0.001090830782496456,0.005923331250141275,0.7269399209309165,1.6114075586721368,0,0,0,0,0,0,1500,1500,1500,1500,1500,1500
1748735430.1692462,0.0,-0.04,0.02,-0.001090830782496456,-0.003272492347489368,0.003272492347489368,0.005923331250141275,0.7269399209309165,1.6114075586721368,0,0,0,0,0,0,1500,1500,1500,1500,1500,1500
1748735430.2675982,0.0,-0.04,0.02,-0.001090830782496456,-0.003272492347489368,0.003272492347489368,0.005923331250141275,0.7269399209309165,1.6114075586721368,0,0,0,0,0,0,1500,1500,1500,1500,1500,1500
1748735430.3508246,0.0,-0.02,0.02,0.0,0.002181661564992912,0.0,0.005923331250141275,0.7269399209309165,1.6114075586721368,0,0,0,0,0,0,1500,1500,1500,1500,1500,1500
1748735430.450977,0.01,-0.01,0.0,0.0,-0.002181661564992912,0.0,0.005923331250141275,0.7269399209309165,1.6114075586721368,0,0,0,0,0,0,1500,1500,1500,1500,1500,1500
1748735430.551393,0.01,-0.01,0.0,0.0,-0.002181661564992912,0.0,0.005923331250141275,0.7269399209309165,1.6114075586721368,0,0,0,0,0,0,1500,1500,1500,1500,1500,1500
1748735430.651296,0.0,-0.03,0.02,-0.004363323129985824,0.001090830782496456,0.002181661564992912,0.005923331250141275,0.7269399209309165,1.6114075586721368,0,0,0,0,0,0,1500,1500,1500,1500,1500,1500
1748735430.751241,0.0,-0.03,0.02,-0.004363323129985824,0.001090830782496456,0.002181661564992912,0.005923331250141275,0.7269399209309165,1.6114075586721368,0,0,0,0,0,0,1500,1500,1500,1500,1500,1500
1748735430.834202,0.0,-0.04,0.04,-0.004363323129985824,-0.002181661564992912,0.002181661564992912,0.005923331250141275,0.7269399209309165,1.6114075586721368,0,0,0,0,0,0,1500,1500,1500,1500,1500,1500
1748735430.934463,0.03,-0.01,0.0,-0.001090830782496456,-0.002181661564992912,0.001090830782496456,0.005923331250141275,0.7269399209309165,1.6114075586721368,0,0,0,0,0,0,1500,1500,1500,1500,1500,1500
1748735431.034049,0.03,-0.01,0.0,-0.001090830782496456,-0.002181661564992912,0.001090830782496456,0.005923331250141275,0.7269399209309165,1.6114075586721368,0,0,0,0,0,0,1500,1500,1500,1500,1500,1500
1748735431.1172338,0.01,0.03,0.03,0.0,0.003272492347489368,0.001090830782496456,0.005923331250141275,0.7269399209309165,1.6114075586721368,0,0,0,0,0,0,1500,1500,1500,1500,1500,1500
1748735431.2173936,0.01,0.03,0.03,0.0,0.003272492347489368,0.001090830782496456,0.005923331250141275,0.7269399209309165,1.6114075586721368,0,0,0,0,0,0,1500,1500,1500,1500,1500,1500
1748735431.3177705,0.0,-0.01,0.07,0.002181661564992912,0.004363323129985824,0.0,0.005923331250141275,0.7269399209309165,1.6114075586721368,0,0,0,0,0,0,1500,1500,1500,1500,1500,1500
1748735431.4176722,0.0,-0.05,0.05,-0.002181661564992912,0.002181661564992912,0.0,0.005923331250141275,0.7269399209309165,1.6114075586721368,0,0,0,0,0,0,1500,1500,1500,1500,1500,1500
1748735431.5178592,0.0,-0.05,0.05,-0.002181661564992912,0.002181661564992912,0.0,0.005923331250141275,0.7269399209309165,1.6114075586721368,0,0,0,0,0,0,1500,1500,1500,1500,1500,1500
1748735431.6009822,0.02,-0.01,0.01,-0.001090830782496456,0.00545415391248228,-0.001090830782496456,0.005923331250141275,0.7269399209309165,1.6114075586721368,0,0,0,0,0,0,1500,1500,1500,1500,1500,1500
1748735431.701526,0.02,-0.01,0.01,-0.001090830782496456,0.00545415391248228,-0.001090830782496456,0.005923331250141275,0.7269399209309165,1.6114075586721368,0,0,0,0,0,0,1500,1500,1500,1500,1500,1500
1748735431.8011775,0.01,0.0,0.04,-0.001090830782496456,0.0,0.0,0.005812840889112836,0.726834041964272,1.6113248485112974,0,0,0,0,0,0,1500,1500,1500,1500,1500,1500
1748735431.9008713,0.0,-0.04,0.05,-0.003272492347489368,-0.004363323129985824,0.001090830782496456,0.005812840889112836,0.726834041964272,1.6113248485112974,0,0,0,0,0,0,1500,1500,1500,1500,1500,1500
1748735432.0011442,0.0,-0.04,0.05,-0.003272492347489368,-0.004363323129985824,0.001090830782496456,0.005812840889112836,0.726834041964272,1.6113248485112974,0,0,0,0,0,0,1500,1500,1500,1500,1500,1500
1748735432.0852754,0.01,-0.04,0.06,0.001090830782496456,0.002181661564992912,0.0,0.005702368417671502,0.7267281729652973,1.6112421646023334,0,0,0,0,0,0,1500,1500,1500,1500,1500,1500
1748735432.1855228,0.01,-0.04,0.06,0.001090830782496456,0.002181661564992912,0.0,0.005702368417671502,0.7267281729652973,1.6112421646023334,0,0,0,0,0,0,1500,1500,1500,1500,1500,1500
1748735432.2842891,0.02,-0.01,0.03,-0.001090830782496456,0.001090830782496456,-0.001090830782496456,0.005702368417671502,0.7267281729652973,1.6112421646023334,0,0,0,0,0,0,1500,1500,1500,1500,1500,1500
1748735432.3676105,0.01,0.02,0.01,0.001090830782496456,-0.002181661564992912,0.0,0.0055919138275898495,0.7266223139299917,1.6111595069435622,0,0,0,0,0,0,1500,1500,1500,1500,1500,1500
1748735432.4670165,0.01,0.02,0.01,0.001090830782496456,-0.002181661564992912,0.0,0.0055919138275898495,0.7266223139299917,1.6111595069435622,0,0,0,0,0,0,1500,1500,1500,1500,1500,1500
1748735432.567235,0.0,-0.05,0.05,-0.002181661564992912,0.0,0.0,0.005550345120494604,0.7266628260897459,1.6111550684999687,0,0,0,0,0,0,1500,1500,1500,1500,1500,1500
1748735432.6698215,0.02,-0.03,0.0,-0.002181661564992912,-0.001090830782496456,0.0,0.005550345120494604,0.7266628260897459,1.6111550684999687,0,0,0,0,0,0,1500,1500,1500,1500,1500,1500
1748735432.7673514,0.02,-0.03,0.0,-0.002181661564992912,-0.001090830782496456,0.0,0.005550345120494604,0.7266628260897459,1.6111550684999687,0,0,0,0,0,0,1500,1500,1500,1500,1500,1500
1748735432.851287,0.0,0.01,0.0,0.001090830782496456,-0.003272492347489368,0.0,0.005550345120494604,0.7266628260897459,1.6111550684999687,0,0,0,0,0,0,1500,1500,1500,1500,1500,1500
1748735432.9511278,0.0,0.01,0.0,0.001090830782496456,-0.003272492347489368,0.0,0.005550345120494604,0.7266628260897459,1.6111550684999687,0,0,0,0,0,0,1500,1500,1500,1500,1500,1500
1748735433.051308,0.01,0.01,0.01,-0.002181661564992912,-0.007635815477475192,0.0,0.005550345120494604,0.7266628260897459,1.6111550684999687,0,0,0,0,0,0,1500,1500,1500,1500,1500,1500
1748735433.1515687,0.0,-0.03,0.05,0.001090830782496456,0.002181661564992912,0.0,0.005550345120494604,0.7266628260897459,1.6111550684999687,0,0,0,0,0,0,1500,1500,1500,1500,1500,1500
1748735433.250756,0.0,-0.03,0.05,0.001090830782496456,0.002181661564992912,0.0,0.005550345120494604,0.7266628260897459,1.6111550684999687,0,0,0,0,0,0,1500,1500,1500,1500,1500,1500
1748735433.3342083,0.0,-0.01,0.0,0.0,0.003272492347489368,-0.001090830782496456,0.005550345120494604,0.7266628260897459,1.6111550684999687,0,0,0,0,0,0,1500,1500,1500,1500,1500,1500
1748735433.4338903,0.0,-0.01,0.0,0.0,0.003272492347489368,-0.001090830782496456,0.005550345120494604,0.7266628260897459,1.6111550684999687,0,0,0,0,0,0,1500,1500,1500,1500,1500,1500
1748735433.535216,0.03,-0.01,0.02,0.002181661564992912,0.0,0.002181661564992912,0.005550345120494604,0.7266628260897459,1.6111550684999687,0,0,0,0,0,0,1500,1500,1500,1500,1500,1500
1748735433.6356003,0.0,-0.02,0.03,0.002181661564992912,-0.00545415391248228,0.001090830782496456,0.005550345120494604,0.7266628260897459,1.6111550684999687,0,0,0,0,0,0,1500,1500,1500,1500,1500,1500
1748735433.7350678,0.0,-0.02,0.03,0.002181661564992912,-0.00545415391248228,0.001090830782496456,0.005550345120494604,0.7266628260897459,1.6111550684999687,0,0,0,0,0,0,1500,1500,1500,1500,1500,1500
1748735433.8183627,0.0,-0.03,0.02,0.002181661564992912,-0.003272492347489368,0.001090830782496456,0.005550345120494604,0.7266628260897459,1.6111550684999687,0,0,0,0,0,0,1500,1500,1500,1500,1500,1500
1748735433.916282,0.0,-0.03,0.02,0.002181661564992912,-0.003272492347489368,0.001090830782496456,0.005550345120494604,0.7266628260897459,1.6111550684999687,0,0,0,0,0,0,1500,1500,1500,1500,1500,1500
1748735434.0191221,0.0,0.0,0.04,0.002181661564992912,0.001090830782496456,-0.002181661564992912,0.005550345120494604,0.7266628260897459,1.6111550684999687,0,0,0,0,0,0,1500,1500,1500,1500,1500,1500
1748735434.101286,0.0,0.01,0.0,0.0,0.0,0.001090830782496456,0.005550345120494604,0.7266628260897459,1.6111550684999687,0,0,0,0,0,0,1500,1500,1500,1500,1500,1500
1748735434.2004967,0.0,0.01,0.0,0.0,0.0,0.001090830782496456,0.005550345120494604,0.7266628260897459,1.6111550684999687,0,0,0,0,0,0,1500,1500,1500,1500,1500,1500
1748735434.3005035,0.01,-0.04,0.06,0.002181661564992912,0.002181661564992912,0.0,0.005550345120494604,0.7266628260897459,1.6111550684999687,0,0,0,0,0,0,1500,1500,1500,1500,1500,1500
1748735434.4007227,0.01,-0.04,0.06,0.002181661564992912,0.002181661564992912,0.0,0.005550345120494604,0.7266628260897459,1.6111550684999687,0,0,0,0,0,0,1500,1500,1500,1500,1500,1500
1748735434.500273,0.0,-0.01,0.04,-0.002181661564992912,-0.006544984694978736,0.0,0.005550345120494604,0.7266628260897459,1.6111550684999687,0,0,0,0,0,0,1500,1500,1500,1500,1500,1500
1748735434.5842164,0.0,0.0,0.02,-0.001090830782496456,0.0,0.0,0.005550345120494604,0.7266628260897459,1.6111550684999687,0,0,0,0,0,0,1500,1500,1500,1500,1500,1500
1748735434.6840994,0.0,0.0,0.02,-0.001090830782496456,0.0,0.0,0.005550345120494604,0.7266628260897459,1.6111550684999687,0,0,0,0,0,0,1500,1500,1500,1500,1500,1500
1748735434.7842846,0.0,0.0,0.02,0.002181661564992912,0.002181661564992912,0.002181661564992912,0.005550345120494604,0.7266628260897459,1.6111550684999687,0,0,0,0,0,0,1500,1500,1500,1500,1500,1500
1748735434.8672068,0.0,0.0,0.02,0.002181661564992912,0.002181661564992912,0.002181661564992912,0.005550345120494604,0.7266628260897459,1.6111550684999687,0,0,0,0,0,0,1500,1500,1500,1500,1500,1500
1748735434.9670663,0.01,-0.04,0.04,0.0,0.003272492347489368,0.0,0.005550345120494604,0.7266628260897459,1.6111550684999687,0,0,0,0,0,0,1500,1500,1500,1500,1500,1500
1748735435.0677683,0.0,-0.03,0.04,-0.00545415391248228,0.0,0.001090830782496456,0.005550345120494604,0.7266628260897459,1.6111550684999687,0,0,0,0,0,0,1500,1500,1500,1500,1500,1500
1748735435.1673553,0.0,-0.03,0.04,-0.00545415391248228,0.0,0.001090830782496456,0.005550345120494604,0.7266628260897459,1.6111550684999687,0,0,0,0,0,0,1500,1500,1500,1500,1500,1500
1748735435.267872,0.02,0.0,0.01,0.001090830782496456,0.0,0.0,0.005550345120494604,0.7266628260897459,1.6111550684999687,0,0,0,0,0,0,1500,1500,1500,1500,1500,1500
1748735435.3518727,0.02,0.0,0.01,0.001090830782496456,0.0,0.0,0.005550345120494604,0.7266628260897459,1.6111550684999687,0,0,0,0,0,0,1500,1500,1500,1500,1500,1500
1748735435.4511094,-0.01,-0.03,0.01,-0.002181661564992912,0.001090830782496456,0.002181661564992912,0.005550345120494604,0.7266628260897459,1.6111550684999687,0,0,0,0,0,0,1500,1500,1500,1500,1500,1500
1748735435.5519328,0.01,-0.05,0.06,0.002181661564992912,0.00545415391248228,0.0,0.005550345120494604,0.7266628260897459,1.6111550684999687,0,0,0,0,0,0,1500,1500,1500,1500,1500,1500
1748735435.6500933,0.01,-0.05,0.06,0.002181661564992912,0.00545415391248228,0.0,0.005550345120494604,0.7266628260897459,1.6111550684999687,0,0,0,0,0,0,1500,1500,1500,1500,1500,1500
1748735435.751217,0.03,-0.01,-0.01,-0.001090830782496456,-0.002181661564992912,-0.003272492347489368,0.005550345120494604,0.7266628260897459,1.6111550684999687,0,0,0,0,0,0,1500,1500,1500,1500,1500,1500
1748735435.834222,0.0,0.0,0.01,-0.001090830782496456,0.002181661564992912,0.001090830782496456,0.005550345120494604,0.7266628260897459,1.6111550684999687,0,0,0,0,0,0,1500,1500,1500,1500,1500,1500
1748735435.9342663,0.0,0.0,0.01,-0.001090830782496456,0.002181661564992912,0.001090830782496456,0.005550345120494604,0.7266628260897459,1.6111550684999687,0,0,0,0,0,0,1500,1500,1500,1500,1500,1500
1748735436.034218,-0.01,-0.01,0.05,-0.004363323129985824,-0.002181661564992912,0.001090830782496456,0.005550345120494604,0.7266628260897459,1.6111550684999687,0,0,0,0,0,0,1500,1500,1500,1500,1500,1500
1748735436.117221,-0.01,-0.01,0.05,-0.004363323129985824,-0.002181661564992912,0.001090830782496456,0.005550345120494604,0.7266628260897459,1.6111550684999687,0,0,0,0,0,0,1500,1500,1500,1500,1500,1500
1748735436.2183166,0.0,-0.02,0.02,-0.003272492347489368,0.004363323129985824,0.001090830782496456,0.005550345120494604,0.7266628260897459,1.6111550684999687,0,0,0,0,0,0,1500,1500,1500,1500,1500,1500
1748735436.3174899,0.0,-0.02,0.02,-0.003272492347489368,0.004363323129985824,0.001090830782496456,0.005550345120494604,0.7266628260897459,1.6111550684999687,0,0,0,0,0,0,1500,1500,1500,1500,1500,1500
1748735436.417471,0.01,0.0,0.0,0.0,-0.00545415391248228,-0.001090830782496456,0.005550345120494604,0.7266628260897459,1.6111550684999687,0,0,0,0,0,0,1500,1500,1500,1500,1500,1500
1748735436.5178618,0.0,0.0,0.03,-0.001090830782496456,0.002181661564992912,0.002181661564992912,0.005550345120494604,0.7266628260897459,1.6111550684999687,0,0,0,0,0,0,1500,1500,1500,1500,1500,1500
1748735436.6005664,0.0,0.0,0.03,-0.001090830782496456,0.002181661564992912,0.002181661564992912,0.005550345120494604,0.7266628260897459,1.6111550684999687,0,0,0,0,0,0,1500,1500,1500,1500,1500,1500
1748735436.7012544,0.0,-0.04,0.03,0.002181661564992912,0.0,0.0,0.005550345120494604,0.7266628260897459,1.6111550684999687,0,0,0,0,0,0,1500,1500,1500,1500,1500,1500
1748735436.8007524,0.0,-0.05,0.05,-0.001090830782496456,0.001090830782496456,0.001090830782496456,0.005550345120494604,0.7266628260897459,1.6111550684999687,0,0,0,0,0,0,1500,1500,1500,1500,1500,1500
1748735436.884127,0.0,-0.05,0.05,-0.001090830782496456,0.001090830782496456,0.001090830782496456,0.005550345120494604,0.7266628260897459,1.6111550684999687,0,0,0,0,0,0,1500,1500,1500,1500,1500,1500
1748735436.9850135,0.0,-0.03,0.02,0.001090830782496456,-0.003272492347489368,0.0,0.005550345120494604,0.7266628260897459,1.6111550684999687,0,0,0,0,0,0,1500,1500,1500,1500,1500,1500
1748735437.0677652,0.0,-0.03,0.02,0.001090830782496456,-0.003272492347489368,0.0,0.005550345120494604,0.7266628260897459,1.6111550684999687,0,0,0,0,0,0,1500,1500,1500,1500,1500,1500
1748735437.168824,0.0,-0.02,0.05,0.002181661564992912,0.002181661564992912,0.0,0.005550345120494604,0.7266628260897459,1.6111550684999687,0,0,0,0,0,0,1500,1500,1500,1500,1500,1500
1748735437.2611673,0.0,-0.01,0.03,-0.001090830782496456,0.001090830782496456,-0.001090830782496456,0.005550345120494604,0.7266628260897459,1.6111550684999687,0,0,0,0,0,0,1500,1500,1500,1500,1500,1500
1748735437.351121,0.0,-0.01,0.03,-0.001090830782496456,0.001090830782496456,-0.001090830782496456,0.005550345120494604,0.7266628260897459,1.6111550684999687,0,0,0,0,0,0,1500,1500,1500,1500,1500,1500
1748735437.4516842,0.0,-0.02,0.03,-0.003272492347489368,-0.004363323129985824,-0.001090830782496456,0.005550345120494604,0.7266628260897459,1.6111550684999687,0,0,0,0,0,0,1500,1500,1500,1500,1500,1500
1748735437.5511997,0.0,-0.02,0.03,-0.003272492347489368,-0.004363323129985824,-0.001090830782496456,0.005550345120494604,0.7266628260897459,1.6111550684999687,0,0,0,0,0,0,1500,1500,1500,1500,1500,1500
1748735437.6511557,0.0,-0.03,0.0,0.0,-0.002181661564992912,0.0,0.005550345120494604,0.7266628260897459,1.6111550684999687,0,0,0,0,0,0,1500,1500,1500,1500,1500,1500
1748735437.7415352,0.0,0.0,0.01,0.001090830782496456,-0.001090830782496456,0.002181661564992912,0.005550345120494604,0.7266628260897459,1.6111550684999687,0,0,0,0,0,0,1500,1500,1500,1500,1500,1500
1748735437.833789,0.0,0.0,0.01,0.001090830782496456,-0.001090830782496456,0.002181661564992912,0.005550345120494604,0.7266628260897459,1.6111550684999687,0,0,0,0,0,0,1500,1500,1500,1500,1500,1500
1748735437.9338572,0.01,-0.04,0.04,0.002181661564992912,-0.002181661564992912,0.001090830782496456,0.005550345120494604,0.7266628260897459,1.6111550684999687,0,0,0,0,0,0,1500,1500,1500,1500,1500,1500
1748735438.0341108,0.01,-0.04,0.04,0.002181661564992912,-0.002181661564992912,0.001090830782496456,0.005550345120494604,0.7266628260897459,1.6111550684999687,0,0,0,0,0,0,1500,1500,1500,1500,1500,1500
1748735438.1178472,-0.01,-0.02,0.01,-0.002181661564992912,0.001090830782496456,0.0,0.005550345120494604,0.7266628260897459,1.6111550684999687,0,0,0,0,0,0,1500,1500,1500,1500,1500,1500
1748735438.2167773,0.0,0.0,0.02,0.0,0.00545415391248228,0.0,0.005550345120494604,0.7266628260897459,1.6111550684999687,0,0,0,0,0,0,1500,1500,1500,1500,1500,1500
1748735438.3174374,0.0,0.0,0.02,0.0,0.00545415391248228,0.0,0.005550345120494604,0.7266628260897459,1.6111550684999687,0,0,0,0,0,0,1500,1500,1500,1500,1500,1500
1748735438.4180017,0.01,0.0,0.0,0.004363323129985824,-0.002181661564992912,0.003272492347489368,0.005550345120494604,0.7266628260897459,1.6111550684999687,0,0,0,0,0,0,1500,1500,1500,1500,1500,1500
1748735438.5176005,0.01,0.0,0.0,0.004363323129985824,-0.002181661564992912,0.003272492347489368,0.005550345120494604,0.7266628260897459,1.6111550684999687,0,0,0,0,0,0,1500,1500,1500,1500,1500,1500
1748735438.6005604,0.0,-0.01,0.04,0.002181661564992912,0.002181661564992912,0.002181661564992912,0.005550345120494604,0.7266628260897459,1.6111550684999687,0,0,0,0,0,0,1500,1500,1500,1500,1500,1500
1748735438.7009268,0.0,-0.04,0.04,-0.003272492347489368,0.001090830782496456,0.0,0.005550345120494604,0.7266628260897459,1.6111550684999687,0,0,0,0,0,0,1500,1500,1500,1500,1500,1500
1748735438.8010852,0.0,-0.04,0.04,-0.003272492347489368,0.001090830782496456,0.0,0.005550345120494604,0.7266628260897459,1.6111550684999687,0,0,0,0,0,0,1500,1500,1500,1500,1500,1500
1748735438.901264,0.0,0.01,0.04,-0.001090830782496456,0.001090830782496456,0.001090830782496456,0.005550345120494604,0.7266628260897459,1.6111550684999687,0,0,0,0,0,0,1500,1500,1500,1500,1500,1500
1748735439.0006557,0.0,0.01,0.04,-0.001090830782496456,0.001090830782496456,0.001090830782496456,0.005550345120494604,0.7266628260897459,1.6111550684999687,0,0,0,0,0,0,1500,1500,1500,1500,1500,1500
1748735439.0837312,0.02,-0.02,0.05,0.0,0.0,-0.002181661564992912,0.005550345120494604,0.7266628260897459,1.6111550684999687,0,0,0,0,0,0,1500,1500,1500,1500,1500,1500
1748735439.183478,0.0,-0.03,0.04,0.002181661564992912,0.002181661564992912,0.0,0.005550345120494604,0.7266628260897459,1.6111550684999687,0,0,0,0,0,0,1500,1500,1500,1500,1500,1500
1748735439.2849758,0.0,-0.03,0.04,0.002181661564992912,0.002181661564992912,0.0,0.005550345120494604,0.7266628260897459,1.6111550684999687,0,0,0,0,0,0,1500,1500,1500,1500,1500,1500
1748735439.3676574,0.02,-0.04,0.0,0.001090830782496456,-0.002181661564992912,0.002181661564992912,0.005585803360491915,0.7264885364731615,1.6112863281034848,0,0,0,0,0,0,1500,1500,1500,1500,1500,1500
1748735439.4687858,0.02,-0.04,0.0,0.001090830782496456,-0.002181661564992912,0.002181661564992912,0.005585803360491915,0.7264885364731615,1.6112863281034848,0,0,0,0,0,0,1500,1500,1500,1500,1500,1500
1748735439.5685387,0.02,-0.01,0.0,-0.001090830782496456,-0.002181661564992912,-0.002181661564992912,0.005585803360491915,0.7264885364731615,1.6112863281034848,0,0,0,0,0,0,1500,1500,1500,1500,1500,1500
1748735439.6680539,0.01,-0.01,0.02,0.004363323129985824,-0.004363323129985824,-0.001090830782496456,0.005585803360491915,0.7264885364731615,1.6112863281034848,0,0,0,0,0,0,1500,1500,1500,1500,1500,1500
1748735439.7673442,0.01,-0.01,0.02,0.004363323129985824,-0.004363323129985824,-0.001090830782496456,0.005585803360491915,0.7264885364731615,1.6112863281034848,0,0,0,0,0,0,1500,1500,1500,1500,1500,1500
1748735439.851235,0.0,-0.04,0.04,-0.002181661564992912,-0.002181661564992912,0.0,0.005585803360491915,0.7264885364731615,1.6112863281034848,0,0,0,0,0,0,1500,1500,1500,1500,1500,1500
1748735439.9517112,0.0,-0.04,0.04,-0.002181661564992912,-0.002181661564992912,0.0,0.005585803360491915,0.7264885364731615,1.6112863281034848,0,0,0,0,0,0,1500,1500,1500,1500,1500,1500
1748735440.0512497,0.01,-0.01,0.01,-0.001090830782496456,-0.002181661564992912,-0.001090830782496456,0.005585803360491915,0.7264885364731615,1.6112863281034848,0,0,0,0,0,0,1500,1500,1500,1500,1500,1500
1748735440.1512241,0.0,-0.02,0.02,-0.002181661564992912,0.001090830782496456,0.0,0.005585803360491915,0.7264885364731615,1.6112863281034848,0,0,0,0,0,0,1500,1500,1500,1500,1500,1500
1748735440.251305,0.0,-0.02,0.02,-0.002181661564992912,0.001090830782496456,0.0,0.005585803360491915,0.7264885364731615,1.6112863281034848,0,0,0,0,0,0,1500,1500,1500,1500,1500,1500
1748735440.3344052,0.01,0.0,0.06,-0.002181661564992912,-0.003272492347489368,0.0,0.005585803360491915,0.7264885364731615,1.6112863281034848,0,0,0,0,0,0,1500,1500,1500,1500,1500,1500
1748735440.433777,0.01,0.0,0.06,-0.002181661564992912,-0.003272492347489368,0.0,0.005585803360491915,0.7264885364731615,1.6112863281034848,0,0,0,0,0,0,1500,1500,1500,1500,1500,1500
1748735440.5357358,0.0,-0.04,0.05,-0.002181661564992912,-0.002181661564992912,0.001090830782496456,0.005585803360491915,0.7264885364731615,1.6112863281034848,0,0,0,0,0,0,1500,1500,1500,1500,1500,1500
1748735440.6342373,0.0,-0.01,0.03,-0.001090830782496456,-0.004363323129985824,0.0,0.005585803360491915,0.7264885364731615,1.6112863281034848,0,0,0,0,0,0,1500,1500,1500,1500,1500,1500
1748735440.733711,0.0,-0.01,0.03,-0.001090830782496456,-0.004363323129985824,0.0,0.005585803360491915,0.7264885364731615,1.6112863281034848,0,0,0,0,0,0,1500,1500,1500,1500,1500,1500
1748735440.8349807,0.02,0.0,0.0,-0.001090830782496456,-0.003272492347489368,-0.001090830782496456,0.005585803360491915,0.7264885364731615,1.6112863281034848,0,0,0,0,0,0,1500,1500,1500,1500,1500,1500
1748735440.9343534,0.0,-0.02,0.06,0.003272492347489368,0.00545415391248228,0.0,0.005585803360491915,0.7264885364731615,1.6112863281034848,0,0,0,0,0,0,1500,1500,1500,1500,1500,1500
1748735441.0336769,0.0,-0.02,0.06,0.003272492347489368,0.00545415391248228,0.0,0.005585803360491915,0.7264885364731615,1.6112863281034848,0,0,0,0,0,0,1500,1500,1500,1500,1500,1500
1748735441.1165557,0.01,-0.01,0.04,-0.003272492347489368,-0.002181661564992912,0.0,0.005585803360491915,0.7264885364731615,1.6112863281034848,0,0,0,0,0,0,1500,1500,1500,1500,1500,1500
1748735441.2175272,0.01,-0.01,0.04,-0.003272492347489368,-0.002181661564992912,0.0,0.005585803360491915,0.7264885364731615,1.6112863281034848,0,0,0,0,0,0,1500,1500,1500,1500,1500,1500
1748735441.3172336,0.0,0.0,0.0,-0.001090830782496456,-0.002181661564992912,0.003272492347489368,0.005585803360491915,0.7264885364731615,1.6112863281034848,0,0,0,0,0,0,1500,1500,1500,1500,1500,1500
1748735441.417199,0.01,-0.01,0.01,0.001090830782496456,0.0,0.001090830782496456,-2.669535997697936,-1.5707963267948966,2.8576095370967547,0,0,0,0,0,0,1500,1500,1500,1500,1500,1500
1748735441.5177712,0.01,-0.01,0.01,0.001090830782496456,0.0,0.001090830782496456,-2.669535997697936,-1.5707963267948966,2.8576095370967547,0,0,0,0,0,0,1500,1500,1500,1500,1500,1500
1748735441.601381,0.0,-0.05,0.05,0.003272492347489368,0.001090830782496456,-0.001090830782496456,0.005585803360491915,0.7264885364731615,1.6112863281034848,0,0,0,0,0,0,1500,1500,1500,1500,1500,1500
1748735441.7001774,0.0,0.0,0.02,-0.001090830782496456,-0.001090830782496456,-0.001090830782496456,0.005585803360491915,0.7264885364731615,1.6112863281034848,0,0,0,0,0,0,1500,1500,1500,1500,1500,1500
1748735441.8009863,0.0,0.0,0.02,-0.001090830782496456,-0.001090830782496456,-0.001090830782496456,0.005585803360491915,0.7264885364731615,1.6112863281034848,0,0,0,0,0,0,1500,1500,1500,1500,1500,1500
1748735441.899931,0.0,0.0,0.03,0.001090830782496456,0.004363323129985824,-0.002181661564992912,0.005585803360491915,0.7264885364731615,1.6112863281034848,0,0,0,0,0,0,1500,1500,1500,1500,1500,1500
1748735442.000825,0.0,0.0,0.03,0.001090830782496456,0.004363323129985824,-0.002181661564992912,0.005585803360491915,0.7264885364731615,1.6112863281034848,0,0,0,0,0,0,1500,1500,1500,1500,1500,1500
1748735442.0835767,-0.01,-0.02,0.06,-0.001090830782496456,-0.003272492347489368,0.001090830782496456,0.005585803360491915,0.7264885364731615,1.6112863281034848,0,0,0,0,0,0,1500,1500,1500,1500,1500,1500
1748735442.1845722,0.0,-0.02,0.04,-0.003272492347489368,-0.002181661564992912,-0.001090830782496456,0.005585803360491915,0.7264885364731615,1.6112863281034848,0,0,0,0,0,0,1500,1500,1500,1500,1500,1500
1748735442.2829568,0.0,-0.02,0.04,-0.003272492347489368,-0.002181661564992912,-0.001090830782496456,0.005585803360491915,0.7264885364731615,1.6112863281034848,0,0,0,0,0,0,1500,1500,1500,1500,1500,1500
1748735442.3671398,0.02,-0.01,0.03,0.003272492347489368,0.00545415391248228,0.0,0.005585803360491915,0.7264885364731615,1.6112863281034848,0,0,0,0,0,0,1500,1500,1500,1500,1500,1500
1748735442.4680152,0.02,-0.01,0.03,0.003272492347489368,0.00545415391248228,0.0,0.005585803360491915,0.7264885364731615,1.6112863281034848,0,0,0,0,0,0,1500,1500,1500,1500,1500,1500
1748735442.568425,-0.01,0.0,0.02,0.0,0.001090830782496456,0.0,0.005585803360491915,0.7264885364731615,1.6112863281034848,0,0,0,0,0,0,1500,1500,1500,1500,1500,1500
1748735442.668305,-0.01,0.0,0.02,0.0,0.001090830782496456,0.0,0.005585803360491915,0.7264885364731615,1.6112863281034848,0,0,0,0,0,0,1500,1500,1500,1500,1500,1500
1748735442.767552,0.0,-0.01,0.04,0.001090830782496456,-0.003272492347489368,0.0,0.005585803360491915,0.7264885364731615,1.6112863281034848,0,0,0,0,0,0,1500,1500,1500,1500,1500,1500
1748735442.851289,-0.01,-0.02,0.04,-0.003272492347489368,-0.001090830782496456,-0.001090830782496456,0.005585803360491915,0.7264885364731615,1.6112863281034848,0,0,0,0,0,0,1500,1500,1500,1500,1500,1500
1748735442.950104,-0.01,-0.02,0.04,-0.003272492347489368,-0.001090830782496456,-0.001090830782496456,0.005585803360491915,0.7264885364731615,1.6112863281034848,0,0,0,0,0,0,1500,1500,1500,1500,1500,1500
1748735443.0511098,0.01,0.0,0.02,0.0,-0.002181661564992912,-0.001090830782496456,0.005585803360491915,0.7264885364731615,1.6112863281034848,0,0,0,0,0,0,1500,1500,1500,1500,1500,1500
1748735443.1502619,0.01,0.01,0.02,0.001090830782496456,0.0,0.0,0.005585803360491915,0.7264885364731615,1.6112863281034848,0,0,0,0,0,0,1500,1500,1500,1500,1500,1500
1748735443.2503355,0.01,0.01,0.02,0.001090830782496456,0.0,0.0,0.005585803360491915,0.7264885364731615,1.6112863281034848,0,0,0,0,0,0,1500,1500,1500,1500,1500,1500
1748735443.3342228,0.0,-0.03,0.05,-0.001090830782496456,-0.003272492347489368,0.001090830782496456,0.005585803360491915,0.7264885364731615,1.6112863281034848,0,0,0,0,0,0,1500,1500,1500,1500,1500,1500
1748735443.4340358,0.0,-0.03,0.05,-0.001090830782496456,-0.003272492347489368,0.001090830782496456,0.005585803360491915,0.7264885364731615,1.6112863281034848,0,0,0,0,0,0,1500,1500,1500,1500,1500,1500
1748735443.534477,0.01,-0.03,0.04,0.0,0.003272492347489368,0.0,0.005585803360491915,0.7264885364731615,1.6112863281034848,0,0,0,0,0,0,1500,1500,1500,1500,1500,1500
1748735443.6173196,0.0,0.02,0.03,0.003272492347489368,0.004363323129985824,0.0,0.005585803360491915,0.7264885364731615,1.6112863281034848,0,0,0,0,0,0,1500,1500,1500,1500,1500,1500
1748735443.7175615,0.0,0.02,0.03,0.003272492347489368,0.004363323129985824,0.0,0.005585803360491915,0.7264885364731615,1.6112863281034848,0,0,0,0,0,0,1500,1500,1500,1500,1500,1500
1748735443.8174157,0.0,-0.04,0.04,-0.001090830782496456,0.001090830782496456,0.0,0.005585803360491915,0.7264885364731615,1.6112863281034848,0,0,0,0,0,0,1500,1500,1500,1500,1500,1500
1748735443.917496,0.0,-0.04,0.04,-0.001090830782496456,0.001090830782496456,0.0,0.005585803360491915,0.7264885364731615,1.6112863281034848,0,0,0,0,0,0,1500,1500,1500,1500,1500,1500
1748735444.0178583,0.01,-0.04,0.01,-0.002181661564992912,0.007635815477475192,-0.001090830782496456,0.005585803360491915,0.7264885364731615,1.6112863281034848,0,0,0,0,0,0,1500,1500,1500,1500,1500,1500
1748735444.1001287,0.0,-0.03,0.01,0.0,-0.002181661564992912,0.001090830782496456,0.005585803360491915,0.7264885364731615,1.6112863281034848,0,0,0,0,0,0,1500,1500,1500,1500,1500,1500
1748735444.20191,0.0,-0.03,0.01,0.0,-0.002181661564992912,0.001090830782496456,0.005585803360491915,0.7264885364731615,1.6112863281034848,0,0,0,0,0,0,1500,1500,1500,1500,1500,1500
1748735444.3013728,0.0,0.03,-0.01,0.001090830782496456,0.003272492347489368,0.0,0.005585803360491915,0.7264885364731615,1.6112863281034848,0,0,0,0,0,0,1500,1500,1500,1500,1500,1500
1748735444.398614,0.02,-0.01,0.04,0.001090830782496456,-0.002181661564992912,-0.001090830782496456,0.005585803360491915,0.7264885364731615,1.6112863281034848,0,0,0,0,0,0,1500,1500,1500,1500,1500,1500
1748735444.5012333,0.02,-0.01,0.04,0.001090830782496456,-0.002181661564992912,-0.001090830782496456,0.005585803360491915,0.7264885364731615,1.6112863281034848,0,0,0,0,0,0,1500,1500,1500,1500,1500,1500
1748735444.5836508,0.0,-0.03,0.03,0.0,0.004363323129985824,-0.002181661564992912,0.005585803360491915,0.7264885364731615,1.6112863281034848,0,0,0,0,0,0,1500,1500,1500,1500,1500,1500
1748735444.6841414,0.0,-0.03,0.03,0.0,0.004363323129985824,-0.002181661564992912,0.005585803360491915,0.7264885364731615,1.6112863281034848,0,0,0,0,0,0,1500,1500,1500,1500,1500,1500
1748735444.7848778,0.0,0.01,0.02,-0.001090830782496456,0.0,-0.002181661564992912,0.005585803360491915,0.7264885364731615,1.6112863281034848,0,0,0,0,0,0,1500,1500,1500,1500,1500,1500
1748735444.8675375,0.0,0.01,0.02,-0.001090830782496456,0.0,-0.002181661564992912,0.005585803360491915,0.7264885364731615,1.6112863281034848,0,0,0,0,0,0,1500,1500,1500,1500,1500,1500
1748735444.9672358,0.01,0.0,0.02,0.002181661564992912,0.002181661564992912,-0.003272492347489368,0.005585803360491915,0.7264885364731615,1.6112863281034848,0,0,0,0,0,0,1500,1500,1500,1500,1500,1500
1748735445.0679848,-0.01,0.0,0.02,0.001090830782496456,0.002181661564992912,-0.001090830782496456,0.005585803360491915,0.7264885364731615,1.6112863281034848,0,0,0,0,0,0,1500,1500,1500,1500,1500,1500
1748735445.1674573,-0.01,0.0,0.02,0.001090830782496456,0.002181661564992912,-0.001090830782496456,0.005585803360491915,0.7264885364731615,1.6112863281034848,0,0,0,0,0,0,1500,1500,1500,1500,1500,1500
1748735445.2672396,0.0,-0.04,0.02,0.001090830782496456,0.003272492347489368,-0.001090830782496456,0.005585803360491915,0.7264885364731615,1.6112863281034848,0,0,0,0,0,0,1500,1500,1500,1500,1500,1500
1748735445.3502202,0.0,0.0,0.01,-0.002181661564992912,-0.002181661564992912,-0.001090830782496456,0.005585803360491915,0.7264885364731615,1.6112863281034848,0,0,0,0,0,0,1500,1500,1500,1500,1500,1500
1748735445.450299,0.0,0.0,0.01,-0.002181661564992912,-0.002181661564992912,-0.001090830782496456,0.005585803360491915,0.7264885364731615,1.6112863281034848,0,0,0,0,0,0,1500,1500,1500,1500,1500,1500
1748735445.550348,0.0,0.01,0.03,0.002181661564992912,0.003272492347489368,0.001090830782496456,0.005585803360491915,0.7264885364731615,1.6112863281034848,0,0,0,0,0,0,1500,1500,1500,1500,1500,1500
1748735445.651433,0.0,0.01,0.03,0.002181661564992912,0.003272492347489368,0.001090830782496456,0.005585803360491915,0.7264885364731615,1.6112863281034848,0,0,0,0,0,0,1500,1500,1500,1500,1500,1500
1748735445.7521582,0.01,-0.04,0.03,-0.001090830782496456,0.001090830782496456,0.0,0.005585803360491915,0.7264885364731615,1.6112863281034848,0,0,0,0,0,0,1500,1500,1500,1500,1500,1500
