time,ay,ax,az,gy,gx,gz,roll,pitch,yaw,cmd_fx,cmd_fy,cmd_fz,cmd_tx,cmd_ty,cmd_tz,pwm_1,pwm_2,pwm_3,pwm_4,pwm_5,pwm_6
1748737541.1623552,0.0,0.0,0.0,0.0,0.0,0.0,0.0,0.0,0.0,0,0,0,0,0,0,1500,1500,1500,1500,1500,1500
1748737541.2601357,0.0,0.04,-0.39,-0.001090830782496456,-0.002181661564992912,-0.002181661564992912,-0.12202593199511175,-0.009747301907740686,0.0005954787255632498,0,0,0,0,0,0,1500,1500,1500,1500,1500,1500
1748737541.362658,0.0,0.04,-0.39,-0.001090830782496456,-0.002181661564992912,-0.002181661564992912,-0.12202593199511175,-0.009747301907740686,0.0005954787255632498,0,0,0,0,0,0,1500,1500,1500,1500,1500,1500
1748737541.4445007,0.0,0.02,-0.37,-0.002181661564992912,-0.001090830782496456,0.001090830782496456,-0.12190303760634862,-0.00962545684709451,0.0005874459235425447,0,0,0,0,0,0,1500,1500,1500,1500,1500,1500
1748737541.5440652,0.0,0.02,-0.37,-0.002181661564992912,-0.001090830782496456,0.001090830782496456,-0.12190303760634862,-0.00962545684709451,0.0005874459235425447,0,0,0,0,0,0,1500,1500,1500,1500,1500,1500
1748737541.6443174,0.0,0.04,-0.35000000000000003,-0.002181661564992912,-0.001090830782496456,0.0,-0.12190303760634862,-0.00962545684709451,0.0005874459235425447,0,0,0,0,0,0,1500,1500,1500,1500,1500,1500
1748737541.7292218,0.01,0.05,-0.33,-0.001090830782496456,-0.002181661564992912,-0.001090830782496456,-0.12190303760634862,-0.00962545684709451,0.0005874459235425447,0,0,0,0,0,0,1500,1500,1500,1500,1500,1500
1748737541.8284419,0.01,0.05,-0.33,-0.001090830782496456,-0.002181661564992912,-0.001090830782496456,-0.12190303760634862,-0.00962545684709451,0.0005874459235425447,0,0,0,0,0,0,1500,1500,1500,1500,1500,1500
1748737541.928301,0.0,0.02,-0.35000000000000003,-0.002181661564992912,0.006544984694978736,0.0,-0.12190303760634862,-0.00962545684709451,0.0005874459235425447,0,0,0,0,0,0,1500,1500,1500,1500,1500,1500
1748737542.0286312,0.0,0.05,-0.32,0.001090830782496456,-0.004363323129985824,0.0,-0.12190303760634862,-0.00962545684709451,0.0005874459235425447,0,0,0,0,0,0,1500,1500,1500,1500,1500,1500
1748737542.1254277,0.0,0.05,-0.32,0.001090830782496456,-0.004363323129985824,0.0,-0.12190303760634862,-0.00962545684709451,0.0005874459235425447,0,0,0,0,0,0,1500,1500,1500,1500,1500,1500
1748737542.210399,-0.01,0.03,-0.32,0.0,-0.003272492347489368,0.001090830782496456,-0.12190303760634862,-0.00962545684709451,0.0005874459235425447,0,0,0,0,0,0,1500,1500,1500,1500,1500,1500
1748737542.3087997,-0.01,0.03,-0.32,0.0,-0.003272492347489368,0.001090830782496456,-0.12190303760634862,-0.00962545684709451,0.0005874459235425447,0,0,0,0,0,0,1500,1500,1500,1500,1500,1500
1748737542.4104602,-0.01,0.04,-0.35000000000000003,0.003272492347489368,0.0,0.003272492347489368,-0.12190303760634862,-0.00962545684709451,0.0005874459235425447,0,0,0,0,0,0,1500,1500,1500,1500,1500,1500
1748737542.510309,0.0,0.02,-0.33,-0.001090830782496456,-0.001090830782496456,0.0,-0.12190303760634862,-0.00962545684709451,0.0005874459235425447,0,0,0,0,0,0,1500,1500,1500,1500,1500,1500
1748737542.6097927,0.0,0.02,-0.33,-0.001090830782496456,-0.001090830782496456,0.0,-0.12190303760634862,-0.00962545684709451,0.0005874459235425447,0,0,0,0,0,0,1500,1500,1500,1500,1500,1500
1748737542.6925602,-0.01,0.04,-0.37,0.001090830782496456,-0.004363323129985824,-0.001090830782496456,-0.12190303760634862,-0.00962545684709451,0.0005874459235425447,0,0,0,0,0,0,1500,1500,1500,1500,1500,1500
1748737542.793569,-0.01,0.04,-0.37,0.001090830782496456,-0.004363323129985824,-0.001090830782496456,-0.12190303760634862,-0.00962545684709451,0.0005874459235425447,0,0,0,0,0,0,1500,1500,1500,1500,1500,1500
1748737542.8932042,0.0,0.05,-0.36,-0.001090830782496456,-0.001090830782496456,0.0,-0.12190303760634862,-0.00962545684709451,0.0005874459235425447,0,0,0,0,0,0,1500,1500,1500,1500,1500,1500
1748737542.9763832,-0.01,0.06,-0.34,0.0,0.003272492347489368,-0.002181661564992912,-0.12190303760634862,-0.00962545684709451,0.0005874459235425447,0,0,0,0,0,0,1500,1500,1500,1500,1500,1500
1748737543.0761623,-0.01,0.06,-0.34,0.0,0.003272492347489368,-0.002181661564992912,-0.12190303760634862,-0.00962545684709451,0.0005874459235425447,0,0,0,0,0,0,1500,1500,1500,1500,1500,1500
1748737543.1767087,0.0,0.07,-0.32,0.0,0.001090830782496456,-0.001090830782496456,-0.12190303760634862,-0.00962545684709451,0.0005874459235425447,0,0,0,0,0,0,1500,1500,1500,1500,1500,1500
1748737543.2760692,0.0,0.07,-0.32,0.0,0.001090830782496456,-0.001090830782496456,-0.12190303760634862,-0.00962545684709451,0.0005874459235425447,0,0,0,0,0,0,1500,1500,1500,1500,1500,1500
1748737543.3778532,0.0,0.08,-0.33,-0.002181661564992912,0.0,0.002181661564992912,-0.12190303760634862,-0.00962545684709451,0.0005874459235425447,0,0,0,0,0,0,1500,1500,1500,1500,1500,1500
1748737543.459638,0.0,0.05,-0.33,0.0,-0.001090830782496456,-0.001090830782496456,-0.12190303760634862,-0.00962545684709451,0.0005874459235425447,0,0,0,0,0,0,1500,1500,1500,1500,1500,1500
1748737543.5592175,0.0,0.05,-0.33,0.0,-0.001090830782496456,-0.001090830782496456,-0.12190303760634862,-0.00962545684709451,0.0005874459235425447,0,0,0,0,0,0,1500,1500,1500,1500,1500,1500
1748737543.6599731,0.0,0.04,-0.34,-0.001090830782496456,-0.001090830782496456,0.0,-0.12190303760634862,-0.00962545684709451,0.0005874459235425447,0,0,0,0,0,0,1500,1500,1500,1500,1500,1500
1748737543.7464578,0.0,0.04,-0.34,-0.001090830782496456,-0.001090830782496456,0.0,-0.12190303760634862,-0.00962545684709451,0.0005874459235425447,0,0,0,0,0,0,1500,1500,1500,1500,1500,1500
1748737543.845571,-0.01,0.02,-0.35000000000000003,0.002181661564992912,0.006544984694978736,0.004363323129985824,-0.12190303760634862,-0.00962545684709451,0.0005874459235425447,0,0,0,0,0,0,1500,1500,1500,1500,1500,1500
1748737543.928279,-0.03,0.04,-0.36,0.001090830782496456,0.003272492347489368,0.0,-0.12190303760634862,-0.00962545684709451,0.0005874459235425447,0,0,0,0,0,0,1500,1500,1500,1500,1500,1500
1748737544.0282977,-0.03,0.04,-0.36,0.001090830782496456,0.003272492347489368,0.0,-0.12190303760634862,-0.00962545684709451,0.0005874459235425447,0,0,0,0,0,0,1500,1500,1500,1500,1500,1500
1748737544.1285427,0.02,0.03,-0.35000000000000003,0.0,0.0,0.001090830782496456,-0.12190303760634862,-0.00962545684709451,0.0005874459235425447,0,0,0,0,0,0,1500,1500,1500,1500,1500,1500
1748737544.2116952,0.02,0.03,-0.35000000000000003,0.0,0.0,0.001090830782496456,-0.12190303760634862,-0.00962545684709451,0.0005874459235425447,0,0,0,0,0,0,1500,1500,1500,1500,1500,1500
1748737544.3111374,0.0,0.07,-0.36,-0.001090830782496456,-0.001090830782496456,0.0,-0.12190303760634862,-0.00962545684709451,0.0005874459235425447,0,0,0,0,0,0,1500,1500,1500,1500,1500,1500
1748737544.396767,0.0,0.05,-0.3,0.002181661564992912,-0.001090830782496456,-0.001090830782496456,-0.12190303760634862,-0.00962545684709451,0.0005874459235425447,0,0,0,0,0,0,1500,1500,1500,1500,1500,1500
1748737544.4955618,0.0,0.05,-0.3,0.002181661564992912,-0.001090830782496456,-0.001090830782496456,-0.12190303760634862,-0.00962545684709451,0.0005874459235425447,0,0,0,0,0,0,1500,1500,1500,1500,1500,1500
1748737544.5956964,-0.01,0.05,-0.31,0.001090830782496456,0.0,0.001090830782496456,-0.12190303760634862,-0.00962545684709451,0.0005874459235425447,0,0,0,0,0,0,1500,1500,1500,1500,1500,1500
1748737544.6786482,-0.01,0.05,-0.31,0.001090830782496456,0.0,0.001090830782496456,-0.12190303760634862,-0.00962545684709451,0.0005874459235425447,0,0,0,0,0,0,1500,1500,1500,1500,1500,1500
1748737544.7783506,0.0,0.02,-0.35000000000000003,-0.002181661564992912,0.0,0.001090830782496456,-0.12190303760634862,-0.00962545684709451,0.0005874459235425447,0,0,0,0,0,0,1500,1500,1500,1500,1500,1500
1748737544.8673222,-0.01,0.04,-0.33,0.001090830782496456,-0.003272492347489368,-0.002181661564992912,-0.12190303760634862,-0.00962545684709451,0.0005874459235425447,0,0,0,0,0,0,1500,1500,1500,1500,1500,1500
1748737544.9625907,-0.01,0.04,-0.33,0.001090830782496456,-0.003272492347489368,-0.002181661564992912,-0.12190303760634862,-0.00962545684709451,0.0005874459235425447,0,0,0,0,0,0,1500,1500,1500,1500,1500,1500
1748737545.0626037,0.0,0.05,-0.35000000000000003,0.0,0.001090830782496456,-0.001090830782496456,-0.12190303760634862,-0.00962545684709451,0.0005874459235425447,0,0,0,0,0,0,1500,1500,1500,1500,1500,1500
1748737545.1471674,0.0,0.05,-0.35000000000000003,0.0,0.001090830782496456,-0.001090830782496456,-0.12190303760634862,-0.00962545684709451,0.0005874459235425447,0,0,0,0,0,0,1500,1500,1500,1500,1500,1500
1748737545.248085,0.0,0.04,-0.37,0.00545415391248228,0.0,-0.001090830782496456,-0.12190303760634862,-0.00962545684709451,0.0005874459235425447,0,0,0,0,0,0,1500,1500,1500,1500,1500,1500
1748737545.3464608,0.01,0.05,-0.32,0.001090830782496456,0.001090830782496456,0.001090830782496456,-0.12190303760634862,-0.00962545684709451,0.0005874459235425447,0,0,0,0,0,0,1500,1500,1500,1500,1500,1500
1748737545.4298015,0.01,0.05,-0.32,0.001090830782496456,0.001090830782496456,0.001090830782496456,-0.12190303760634862,-0.00962545684709451,0.0005874459235425447,0,0,0,0,0,0,1500,1500,1500,1500,1500,1500
1748737545.5293496,0.0,0.07,-0.3,-0.002181661564992912,0.0,0.002181661564992912,-0.12190303760634862,-0.00962545684709451,0.0005874459235425447,0,0,0,0,0,0,1500,1500,1500,1500,1500,1500
1748737545.6286469,0.0,0.07,-0.3,-0.002181661564992912,0.0,0.002181661564992912,-0.12190303760634862,-0.00962545684709451,0.0005874459235425447,0,0,0,0,0,0,1500,1500,1500,1500,1500,1500
1748737545.7133384,-0.01,0.05,-0.3,-0.003272492347489368,0.001090830782496456,0.0,-0.12190303760634862,-0.00962545684709451,0.0005874459235425447,0,0,0,0,0,0,1500,1500,1500,1500,1500,1500
1748737545.8125062,-0.01,0.05,-0.3,-0.003272492347489368,0.001090830782496456,0.0,-0.12190303760634862,-0.00962545684709451,0.0005874459235425447,0,0,0,0,0,0,1500,1500,1500,1500,1500,1500
1748737545.911755,-0.03,0.06,-0.33,-0.001090830782496456,0.001090830782496456,0.003272492347489368,-0.12190303760634862,-0.00962545684709451,0.0005874459235425447,0,0,0,0,0,0,1500,1500,1500,1500,1500,1500
1748737546.011413,-0.01,0.05,-0.33,0.0,0.001090830782496456,-0.001090830782496456,-0.12190303760634862,-0.00962545684709451,0.0005874459235425447,0,0,0,0,0,0,1500,1500,1500,1500,1500,1500
1748737546.1016474,-0.01,0.05,-0.33,0.0,0.001090830782496456,-0.001090830782496456,-0.12190303760634862,-0.00962545684709451,0.0005874459235425447,0,0,0,0,0,0,1500,1500,1500,1500,1500,1500
1748737546.19592,-0.03,0.04,-0.38,0.002181661564992912,0.002181661564992912,0.003272492347489368,-0.12190303760634862,-0.00962545684709451,0.0005874459235425447,0,0,0,0,0,0,1500,1500,1500,1500,1500,1500
1748737546.2951992,-0.03,0.04,-0.38,0.002181661564992912,0.002181661564992912,0.003272492347489368,-0.12190303760634862,-0.00962545684709451,0.0005874459235425447,0,0,0,0,0,0,1500,1500,1500,1500,1500,1500
1748737546.3939502,0.01,0.05,-0.34,0.002181661564992912,0.00545415391248228,0.003272492347489368,-0.12190303760634862,-0.00962545684709451,0.0005874459235425447,0,0,0,0,0,0,1500,1500,1500,1500,1500,1500
1748737546.4773986,0.0,0.04,-0.38,0.004363323129985824,0.001090830782496456,0.001090830782496456,-0.12190303760634862,-0.00962545684709451,0.0005874459235425447,0,0,0,0,0,0,1500,1500,1500,1500,1500,1500
1748737546.5770473,0.0,0.04,-0.38,0.004363323129985824,0.001090830782496456,0.001090830782496456,-0.12190303760634862,-0.00962545684709451,0.0005874459235425447,0,0,0,0,0,0,1500,1500,1500,1500,1500,1500
1748737546.6774604,0.0,0.04,-0.3,0.008726646259971648,-0.003272492347489368,-0.001090830782496456,-0.12190303760634862,-0.00962545684709451,0.0005874459235425447,0,0,0,0,0,0,1500,1500,1500,1500,1500,1500
1748737546.777387,0.0,0.03,-0.32,0.001090830782496456,0.003272492347489368,0.001090830782496456,-0.12190303760634862,-0.00962545684709451,0.0005874459235425447,0,0,0,0,0,0,1500,1500,1500,1500,1500,1500
1748737546.8771725,0.0,0.03,-0.32,0.001090830782496456,0.003272492347489368,0.001090830782496456,-0.12190303760634862,-0.00962545684709451,0.0005874459235425447,0,0,0,0,0,0,1500,1500,1500,1500,1500,1500
1748737546.9608471,0.0,0.07,-0.33,0.001090830782496456,0.004363323129985824,0.001090830782496456,-0.12190303760634862,-0.00962545684709451,0.0005874459235425447,0,0,0,0,0,0,1500,1500,1500,1500,1500,1500
1748737547.060694,0.0,0.07,-0.33,0.001090830782496456,0.004363323129985824,0.001090830782496456,-0.12190303760634862,-0.00962545684709451,0.0005874459235425447,0,0,0,0,0,0,1500,1500,1500,1500,1500,1500
1748737547.1599708,-0.02,0.06,-0.36,-0.002181661564992912,0.003272492347489368,0.0,-0.12190303760634862,-0.00962545684709451,0.0005874459235425447,0,0,0,0,0,0,1500,1500,1500,1500,1500,1500
1748737547.243818,-0.02,0.06,-0.36,-0.002181661564992912,0.003272492347489368,0.0,-0.12190303760634862,-0.00962545684709451,0.0005874459235425447,0,0,0,0,0,0,1500,1500,1500,1500,1500,1500
1748737547.3438396,-0.02,0.06,-0.34,-0.003272492347489368,0.0,0.002181661564992912,-0.12190303760634862,-0.00962545684709451,0.0005874459235425447,0,0,0,0,0,0,1500,1500,1500,1500,1500,1500
1748737547.4400554,-0.01,0.06,-0.34,0.0,0.002181661564992912,0.003272492347489368,-0.12190303760634862,-0.00962545684709451,0.0005874459235425447,0,0,0,0,0,0,1500,1500,1500,1500,1500,1500
1748737547.5256739,-0.01,0.06,-0.34,0.0,0.002181661564992912,0.003272492347489368,-0.12190303760634862,-0.00962545684709451,0.0005874459235425447,0,0,0,0,0,0,1500,1500,1500,1500,1500,1500
1748737547.625793,0.0,0.03,-0.33,-0.006544984694978736,0.002181661564992912,0.0,-0.12190303760634862,-0.00962545684709451,0.0005874459235425447,0,0,0,0,0,0,1500,1500,1500,1500,1500,1500
1748737547.7104325,0.0,0.03,-0.33,-0.006544984694978736,0.002181661564992912,0.0,-0.12190303760634862,-0.00962545684709451,0.0005874459235425447,0,0,0,0,0,0,1500,1500,1500,1500,1500,1500
1748737547.8106203,-0.02,0.01,-0.34,0.0,0.002181661564992912,0.001090830782496456,-0.12190303760634862,-0.00962545684709451,0.0005874459235425447,0,0,0,0,0,0,1500,1500,1500,1500,1500,1500
1748737547.9202707,-0.01,0.06,-0.33,0.004363323129985824,-0.003272492347489368,-0.001090830782496456,-0.12190303760634862,-0.00962545684709451,0.0005874459235425447,0,0,0,0,0,0,1500,1500,1500,1500,1500,1500
1748737548.0299485,-0.01,0.06,-0.33,0.004363323129985824,-0.003272492347489368,-0.001090830782496456,-0.12190303760634862,-0.00962545684709451,0.0005874459235425447,0,0,0,0,0,0,1500,1500,1500,1500,1500,1500
1748737548.123542,-0.01,0.05,-0.31,0.0,-0.002181661564992912,-0.001090830782496456,-0.12190303760634862,-0.00962545684709451,0.0005874459235425447,0,0,0,0,0,0,1500,1500,1500,1500,1500,1500
1748737548.213292,0.0,0.06,-0.35000000000000003,0.001090830782496456,0.0,-0.003272492347489368,-0.12190303760634862,-0.00962545684709451,0.0005874459235425447,0,0,0,0,0,0,1500,1500,1500,1500,1500,1500
1748737548.3114858,0.0,0.06,-0.35000000000000003,0.001090830782496456,0.0,-0.003272492347489368,-0.12190303760634862,-0.00962545684709451,0.0005874459235425447,0,0,0,0,0,0,1500,1500,1500,1500,1500,1500
1748737548.4120326,-0.03,0.07,-0.3,-0.003272492347489368,0.0,0.0,-0.12190303760634862,-0.00962545684709451,0.0005874459235425447,0,0,0,0,0,0,1500,1500,1500,1500,1500,1500
1748737548.5187716,-0.03,0.07,-0.3,-0.003272492347489368,0.0,0.0,-0.12190303760634862,-0.00962545684709451,0.0005874459235425447,0,0,0,0,0,0,1500,1500,1500,1500,1500,1500
1748737548.6289737,0.0,0.05,-0.36,0.001090830782496456,0.001090830782496456,-0.002181661564992912,-0.12190303760634862,-0.00962545684709451,0.0005874459235425447,0,0,0,0,0,0,1500,1500,1500,1500,1500,1500
1748737548.728388,0.01,0.05,-0.36,-0.002181661564992912,-0.001090830782496456,0.0,-0.12190303760634862,-0.00962545684709451,0.0005874459235425447,0,0,0,0,0,0,1500,1500,1500,1500,1500,1500
1748737548.8273041,0.01,0.05,-0.36,-0.002181661564992912,-0.001090830782496456,0.0,-0.12190303760634862,-0.00962545684709451,0.0005874459235425447,0,0,0,0,0,0,1500,1500,1500,1500,1500,1500
1748737548.9273603,-0.01,0.05,-0.35000000000000003,0.001090830782496456,0.001090830782496456,0.0,-0.12190303760634862,-0.00962545684709451,0.0005874459235425447,0,0,0,0,0,0,1500,1500,1500,1500,1500,1500
1748737549.0288794,0.0,0.04,-0.34,0.001090830782496456,0.0,0.0,-0.12190303760634862,-0.00962545684709451,0.0005874459235425447,0,0,0,0,0,0,1500,1500,1500,1500,1500,1500
1748737549.126015,0.0,0.04,-0.34,0.001090830782496456,0.0,0.0,-0.12190303760634862,-0.00962545684709451,0.0005874459235425447,0,0,0,0,0,0,1500,1500,1500,1500,1500,1500
1748737549.209424,-0.02,0.05,-0.33,0.001090830782496456,0.0,0.002181661564992912,-0.12190303760634862,-0.00962545684709451,0.0005874459235425447,0,0,0,0,0,0,1500,1500,1500,1500,1500,1500
1748737549.3104856,-0.02,0.05,-0.33,0.001090830782496456,0.0,0.002181661564992912,-0.12190303760634862,-0.00962545684709451,0.0005874459235425447,0,0,0,0,0,0,1500,1500,1500,1500,1500,1500
1748737549.410799,0.0,0.06,-0.31,0.003272492347489368,-0.003272492347489368,0.001090830782496456,-0.12190303760634862,-0.00962545684709451,0.0005874459235425447,0,0,0,0,0,0,1500,1500,1500,1500,1500,1500
1748737549.5102284,0.0,0.04,-0.31,0.004363323129985824,-0.001090830782496456,0.0,-0.12190303760634862,-0.00962545684709451,0.0005874459235425447,0,0,0,0,0,0,1500,1500,1500,1500,1500,1500
1748737549.6105597,0.0,0.04,-0.31,0.004363323129985824,-0.001090830782496456,0.0,-0.12190303760634862,-0.00962545684709451,0.0005874459235425447,0,0,0,0,0,0,1500,1500,1500,1500,1500,1500
1748737549.6933525,-0.01,0.06,-0.32,0.001090830782496456,0.001090830782496456,0.0,-0.12190303760634862,-0.00962545684709451,0.0005874459235425447,0,0,0,0,0,0,1500,1500,1500,1500,1500,1500
1748737549.7937517,0.0,0.04,-0.35000000000000003,0.001090830782496456,-0.00545415391248228,0.0,-0.12190303760634862,-0.00962545684709451,0.0005874459235425447,0,0,0,0,0,0,1500,1500,1500,1500,1500,1500
1748737549.8927066,0.0,0.04,-0.35000000000000003,0.001090830782496456,-0.00545415391248228,0.0,-0.12190303760634862,-0.00962545684709451,0.0005874459235425447,0,0,0,0,0,0,1500,1500,1500,1500,1500,1500
1748737549.9765396,0.0,0.06,-0.38,0.00545415391248228,-0.004363323129985824,0.002181661564992912,-0.12190303760634862,-0.00962545684709451,0.0005874459235425447,0,0,0,0,0,0,1500,1500,1500,1500,1500,1500
1748737550.0774345,0.0,0.06,-0.38,0.00545415391248228,-0.004363323129985824,0.002181661564992912,-0.12190303760634862,-0.00962545684709451,0.0005874459235425447,0,0,0,0,0,0,1500,1500,1500,1500,1500,1500
1748737550.1761024,0.0,0.03,-0.33,-0.002181661564992912,-0.004363323129985824,0.001090830782496456,-0.12190303760634862,-0.00962545684709451,0.0005874459235425447,0,0,0,0,0,0,1500,1500,1500,1500,1500,1500
1748737550.277282,0.0,0.03,-0.35000000000000003,-0.001090830782496456,0.0,-0.002181661564992912,-0.12190303760634862,-0.00962545684709451,0.0005874459235425447,0,0,0,0,0,0,1500,1500,1500,1500,1500,1500
1748737550.3757877,0.0,0.03,-0.35000000000000003,-0.001090830782496456,0.0,-0.002181661564992912,-0.12190303760634862,-0.00962545684709451,0.0005874459235425447,0,0,0,0,0,0,1500,1500,1500,1500,1500,1500
1748737550.4600222,0.0,0.05,-0.3,-0.001090830782496456,-0.002181661564992912,0.001090830782496456,-0.12190303760634862,-0.00962545684709451,0.0005874459235425447,0,0,0,0,0,0,1500,1500,1500,1500,1500,1500
1748737550.5604665,0.0,0.05,-0.3,-0.001090830782496456,-0.002181661564992912,0.001090830782496456,-0.12190303760634862,-0.00962545684709451,0.0005874459235425447,0,0,0,0,0,0,1500,1500,1500,1500,1500,1500
1748737550.6607037,-0.01,0.05,-0.31,0.001090830782496456,-0.004363323129985824,-0.001090830782496456,-0.12190303760634862,-0.00962545684709451,0.0005874459235425447,0,0,0,0,0,0,1500,1500,1500,1500,1500,1500
1748737550.7600636,-0.02,0.06,-0.31,0.001090830782496456,0.001090830782496456,-0.001090830782496456,-0.12190303760634862,-0.00962545684709451,0.0005874459235425447,0,0,0,0,0,0,1500,1500,1500,1500,1500,1500
1748737550.860259,-0.02,0.06,-0.31,0.001090830782496456,0.001090830782496456,-0.001090830782496456,-0.12190303760634862,-0.00962545684709451,0.0005874459235425447,0,0,0,0,0,0,1500,1500,1500,1500,1500,1500
1748737550.9437907,-0.01,0.05,-0.36,0.001090830782496456,-0.003272492347489368,0.001090830782496456,-0.12190303760634862,-0.00962545684709451,0.0005874459235425447,0,0,0,0,0,0,1500,1500,1500,1500,1500,1500
1748737551.0435703,-0.01,0.05,-0.36,0.001090830782496456,-0.003272492347489368,0.001090830782496456,-0.12190303760634862,-0.00962545684709451,0.0005874459235425447,0,0,0,0,0,0,1500,1500,1500,1500,1500,1500
1748737551.143282,-0.02,0.02,-0.34,0.003272492347489368,-0.002181661564992912,0.001090830782496456,-0.12190303760634862,-0.00962545684709451,0.0005874459235425447,0,0,2.422601,0,0,0,1500,1500,1500,1500,1473,1526
1748737551.227184,-0.01,0.04,-0.35000000000000003,0.001090830782496456,0.003272492347489368,0.001090830782496456,-0.12190303760634862,-0.00962545684709451,0.0005874459235425447,0,0,5.02322,0,0,0,1500,1500,1473,1500,1446,1552
1748737551.32613,-0.01,0.04,-0.35000000000000003,0.001090830782496456,0.003272492347489368,0.001090830782496456,-0.12190303760634862,-0.00962545684709451,0.0005874459235425447,0,0,6.540248,0,0,0,1500,1500,1459,1500,1419,1578
1748737551.4259505,0.15,0.38,-0.4,0.003272492347489368,0.0,-0.002181661564992912,-0.12190303760634862,-0.00962545684709451,0.0005874459235425447,0,0,7.035604,0,0,0,1526,1526,1457,1500,1392,1604
1748737551.5261729,-0.25,-0.45,0.23,-0.001090830782496456,-0.044724062082354694,-0.011999138607461015,-0.1214239180398955,-0.012421286628789661,0.0008773140478490383,0,0,7.159442,0,0,0,1538,1538,1457,1500,1365,1630
1748737551.627519,-0.25,-0.45,0.23,-0.001090830782496456,-0.044724062082354694,-0.011999138607461015,-0.1214239180398955,-0.012421286628789661,0.0008773140478490383,0,0,7.46904,0,0,0,1538,1538,1456,1500,1343,1634
1748737551.710441,0.14,0.36,-0.02,0.009817477042468103,-0.10471975511965978,-0.008726646259971648,-0.12095329792495252,-0.024484778552011525,0.0016049121079560714,0,0,7.5,0,0,0,1538,1538,1456,1500,1343,1635
1748737551.8105295,0.14,0.36,-0.02,0.009817477042468103,-0.10471975511965978,-0.008726646259971648,-0.12095329792495252,-0.024484778552011525,0.0016049121079560714,0,0,7.5,0,0,0,1538,1538,1456,1500,1343,1635
1748737551.9100196,-0.12,0.2,-0.25,-0.015271630954950384,-0.12435470920459599,-0.002181661564992912,-0.11685721866892392,-0.0400388592273922,0.0033207686157381336,0,0,7.5,0,0,0,1538,1538,1456,1500,1343,1635
1748737551.9926434,-0.12,0.2,-0.25,-0.015271630954950384,-0.12435470920459599,-0.002181661564992912,-0.11685721866892392,-0.0400388592273922,0.0033207686157381336,0,0,7.5,0,0,0,1538,1538,1456,1500,1343,1635
1748737552.0940678,-0.12,0.19,-0.39,-0.08399397025222712,-0.14508049407202864,0.002181661564992912,-0.12593004260320018,-0.06104492961382946,0.005807864244807446,0,0,7.5,0,0,0,1538,1538,1456,1500,1343,1635
1748737552.1941655,0.06,-0.02,-0.4,-0.07853981633974483,-0.1341721862470641,0.003272492347489368,-0.1387656304146245,-0.08189834624243232,0.008633810348932212,0,0,7.5,0,0,0,1538,1538,1456,1500,1343,1635
1748737552.293953,0.06,-0.02,-0.4,-0.07853981633974483,-0.1341721862470641,0.003272492347489368,-0.1387656304146245,-0.08189834624243232,0.008633810348932212,0,0,7.5,0,0,0,1538,1538,1456,1500,1343,1635
1748737552.392636,0.11,0.1,-0.48,-0.04363323129985824,-0.11126473981463851,0.00545415391248228,-0.14771123088603288,-0.09922965516014921,0.01102484934986728,0,0,7.5,0,0,0,1538,1538,1456,1500,1343,1635
1748737552.4772177,0.04,0.01,-0.51,-0.003272492347489368,-0.08726646259971647,0.008726646259971648,-0.15129836148647846,-0.1140119092613205,0.013310001202787258,0,0,7.5,0,0,0,1538,1538,1456,1500,1343,1635
1748737552.575667,0.04,0.01,-0.51,-0.003272492347489368,-0.08726646259971647,0.008726646259971648,-0.15129836148647846,-0.1140119092613205,0.013310001202787258,0,0,7.5,0,0,0,1538,1538,1456,1500,1343,1635
1748737552.6771696,-0.04,-0.06,-0.39,0.031634092692397225,-0.06217735460229799,0.015271630954950384,-0.14952542300678606,-0.12581889874504462,0.016182467236767327,0,0,7.5,0,0,0,1538,1538,1456,1500,1343,1635
1748737552.7755432,0.01,0.14,-0.55,0.06544984694978735,-0.044724062082354694,0.01090830782496456,-0.1429925812434563,-0.1339304649201584,0.01966432272741377,0,0,7.5,0,0,0,1538,1538,1456,1500,1343,1635
1748737552.8772557,0.01,0.14,-0.55,0.06544984694978735,-0.044724062082354694,0.01090830782496456,-0.1429925812434563,-0.1339304649201584,0.01966432272741377,0,0,7.5,0,0,0,1538,1538,1456,1500,1343,1635
1748737552.9610257,-0.16,0.14,-0.58,0.0818123086872342,-0.026179938779914945,0.00545415391248228,-0.13201221254673373,-0.13966382828071325,0.021020160621802033,0,0,7.5,0,0,0,1538,1538,1456,1500,1343,1635
1748737553.0617,-0.16,0.14,-0.58,0.0818123086872342,-0.026179938779914945,0.00545415391248228,-0.13201221254673373,-0.13966382828071325,0.021020160621802033,0,0,2.174923,0,0,0,1511,1511,1482,1500,1369,1608
1748737553.159651,-0.2,0.09,-0.51,0.10362892433716332,-0.002181661564992912,0.011999138607461015,-0.11890922055341697,-0.14149828808921985,0.022534855889693686,0,0,0,0,0,-0.139769,1484,1537,1500,1500,1395,1581
1748737553.242607,-0.07,-0.2,-0.62,0.08944812416470939,0.01090830782496456,0.0,-0.1034667052230436,-0.14074018038070904,0.02273920231974694,0,0,0,0,0,-0.621429,1457,1563,1500,1500,1421,1554
1748737553.3422163,-0.07,-0.2,-0.62,0.08944812416470939,0.01090830782496456,0.0,-0.1034667052230436,-0.14074018038070904,0.02273920231974694,0,0,0,0,0,-0.7,1430,1589,1500,1500,1447,1527
1748737553.442695,-0.06,-0.31,-0.8300000000000001,0.14726215563702155,0.03490658503988659,-0.0272707695624114,-0.08504187415163308,-0.13642823832677817,0.021121902930509535,0,0,0,0,0,-0.7,1403,1608,1500,1500,1473,1500
1748737553.5434203,-0.06,-0.31,-0.8300000000000001,0.14726215563702155,0.03490658503988659,-0.0272707695624114,-0.08504187415163308,-0.13642823832677817,0.021121902930509535,0,0,0,0,0,-0.7,1377,1608,1500,1500,1499,1500
1748737553.6426497,0.14,0.07,-0.93,0.16144295580947549,0.017453292519943295,-0.1439896632895322,-0.060627703400992654,-0.13438085377160713,0.009956376592149718,0,0,0,0,0,-0.7,1377,1608,1500,1500,1500,1500
1748737553.725835,-0.09,0.09,-0.8200000000000001,0.1505346479845109,-0.007635815477475192,-0.4559672670835186,-0.026547092097097734,-0.13760650419944404,-0.03745486946565328,0,0,0,0,0,-0.7,1377,1608,1500,1500,1500,1500
1748737553.8271103,-0.09,0.09,-0.8200000000000001,0.1505346479845109,-0.007635815477475192,-0.4559672670835186,-0.026547092097097734,-0.13760650419944404,-0.03745486946565328,0,0,0,0,0,-0.7,1377,1608,1500,1500,1500,1500
1748737553.926093,0.0,0.17,-0.77,0.06872233929727672,-0.002181661564992912,-0.7046766854927106,0.004288631364168222,-0.13855825538603786,-0.13230136238931356,0,0,0,0,0,-0.7,1377,1608,1500,1500,1500,1500
1748737554.025606,0.0,0.17,-0.77,0.06872233929727672,-0.002181661564992912,-0.7046766854927106,0.004288631364168222,-0.13855825538603786,-0.13230136238931356,0,0,0,0,0,-0.7,1377,1608,1500,1500,1500,1500
1748737554.1256142,-0.04,0.21,-0.73,-0.006544984694978736,0.038179077387375956,-0.8137597637423561,0.023666189680919946,-0.13470458651866016,-0.2454390959114601,0,0,0,0,0,-0.7,1377,1608,1500,1500,1500,1500
1748737554.209741,-0.01,0.16,-0.73,-0.05999569303730508,0.07417649320975901,-0.8595746566072073,0.03410460603348203,-0.12276508405540115,-0.368527087545341,0,0,0,0,0,-0.7,1377,1608,1500,1500,1500,1500
1748737554.3096075,-0.01,0.16,-0.73,-0.05999569303730508,0.07417649320975901,-0.8595746566072073,0.03410460603348203,-0.12276508405540115,-0.368527087545341,0,0,0,0,0,-0.7,1377,1608,1500,1500,1500,1500
1748737554.4093673,-0.09,0.01,-0.67,-0.11671889372712078,0.09272061651219876,-0.8497571795647392,0.03564291922207934,-0.10410845211263596,-0.50144960014379,0,0,0,0,0,-0.7,1377,1608,1500,1500,1500,1500
1748737554.493741,-0.18,-0.01,-0.6,-0.15271630954950383,0.08726646259971647,-0.8323038870447959,0.027354617649375905,-0.08638820426630704,-0.6237374137596057,0,0,0,0,0,-0.7,1377,1608,1500,1500,1500,1500
1748737554.5927973,-0.18,-0.01,-0.6,-0.15271630954950383,0.08726646259971647,-0.8323038870447959,0.027354617649375905,-0.08638820426630704,-0.6237374137596057,0,0,0,0,0,-0.7,1377,1608,1500,1500,1500,1500
1748737554.6771011,-0.16,0.11,-0.64,-0.16580627893946132,0.09053895494720585,-0.8192139176548384,0.01253037984400138,-0.068958899034865,-0.7520936635226855,0,0,0,0,0,-0.7,1377,1608,1500,1500,1500,1500
1748737554.7761283,-0.16,0.11,-0.64,-0.16580627893946132,0.09053895494720585,-0.8192139176548384,0.01253037984400138,-0.068958899034865,-0.7520936635226855,0,0,0,0,0,-0.248195,1403,1581,1500,1500,1500,1500
1748737554.8769782,-0.29,-0.05,-0.59,-0.1538071403320003,0.09381144729469522,-0.8028514559173916,-0.0039669237179798455,-0.05406939603943953,-0.8695079517267038,0,0,0,0,0,0,1429,1554,1500,1500,1500,1500
1748737554.959352,-0.21,0.0,-0.54,-0.12980886311707826,0.07963064712224129,-0.7330382858376184,-0.021699391709810622,-0.040196230351982096,-0.9919262088803193,0,0,0,0,0,0,1455,1527,1500,1500,1500,1500
1748737555.060514,-0.21,0.0,-0.54,-0.12980886311707826,0.07963064712224129,-0.7330382858376184,-0.021699391709810622,-0.040196230351982096,-0.9919262088803193,0,0,0,0,0,0,1481,1500,1500,1500,1500,1500
1748737555.160731,-0.25,0.0,-1.8900000000000001,-0.04908738521234052,0.06872233929727672,-0.4788747135159442,-0.03414532830754455,-0.02730348183841232,-1.0857121191009673,0,0,0,0,0,0,1500,1500,1500,1500,1500,1500
1748737555.259311,-0.25,0.0,-1.8900000000000001,-0.04908738521234052,0.06872233929727672,-0.4788747135159442,-0.03414532830754455,-0.02730348183841232,-1.0857121191009673,0,0,0,0,0,0,1500,1500,1500,1500,1500,1500
1748737555.360616,-0.24,-0.01,-0.61,0.015271630954950384,0.04254240051736178,-0.272707695624114,-0.036927947882606185,-0.017057486020172204,-1.1423692194226724,0,0,0,0,0,0,1500,1500,1500,1500,1500,1500
1748737555.4426656,-0.22,-0.01,-0.58,0.04145156973486533,0.009817477042468103,-0.1439896632895322,-0.032628625871694496,-0.011545027959085935,-1.1717127045937412,0,0,0,0,0,-0.248195,1473,1526,1500,1500,1500,1500
1748737555.5426073,-0.22,-0.01,-0.58,0.04145156973486533,0.009817477042468103,-0.1439896632895322,-0.032628625871694496,-0.011545027959085935,-1.1717127045937412,0,0,0,0,0,-0.7,1446,1552,1500,1500,1500,1500
1748737555.642585,-0.23,0.01,-0.5700000000000001,0.06654067773228381,-0.02181661564992912,-0.05235987755982989,-0.024259612862586863,-0.00987578590393829,-1.1862621456567564,0,0,0,0,0,-0.7,1419,1578,1500,1500,1500,1500
1748737555.7262304,-0.23,0.01,-0.5700000000000001,0.06654067773228381,-0.02181661564992912,-0.05235987755982989,-0.024259612862586863,-0.00987578590393829,-1.1862621456567564,0,0,0,0,0,-0.7,1392,1604,1500,1500,1500,1500
1748737555.8274155,-0.08,0.19,-0.63,0.06872233929727672,-0.038179077387375956,-0.020725784867432664,-0.01404136454094416,-0.011705777647594118,-1.1891770949434775,0,0,0,0,0,-0.7,1377,1608,1500,1500,1500,1500
1748737555.9270394,-0.1,0.12,-0.5700000000000001,0.013089969389957472,-0.04363323129985824,-0.21162117180431245,-0.0038009894797407908,-0.016677348024109882,-1.203410178702792,0,0,0,0,0,-0.7,1377,1608,1500,1500,1500,1500
1748737556.0259142,-0.1,0.12,-0.5700000000000001,0.013089969389957472,-0.04363323129985824,-0.21162117180431245,-0.0038009894797407908,-0.016677348024109882,-1.203410178702792,0,0,0,0,0,-0.7,1377,1608,1500,1500,1500,1500
1748737556.1259415,-0.1,0.23,-0.61,-0.07853981633974483,-0.022907446432425576,-0.519235452468313,-0.005671167354734008,-0.01999247634047684,-1.2594813580884083,0,0,0,0,0,-0.7,1377,1608,1500,1500,1500,1500
1748737556.2097774,-0.1,0.23,-0.61,-0.07853981633974483,-0.022907446432425576,-0.519235452468313,-0.005671167354734008,-0.01999247634047684,-1.2594813580884083,0,0,0,0,0,-0.7,1377,1608,1500,1500,1500,1500
1748737556.3107705,-0.15,0.01,-0.56,-0.09599310885968812,-0.009817477042468103,-0.6697701004528239,-0.017193164680580166,-0.022261968227061557,-1.353196128694075,0,0,0,0,0,-0.055557,1403,1581,1500,1500,1500,1500
1748737556.4103582,-0.18,-0.05,-0.59,-0.09599310885968812,0.013089969389957472,-0.7548549014875475,-0.02969734591881524,-0.023575753856950262,-1.4644038274337376,0,0,0,0,0,0,1429,1554,1500,1500,1500,1500
1748737556.5100086,-0.18,-0.05,-0.59,-0.09599310885968812,0.013089969389957472,-0.7548549014875475,-0.02969734591881524,-0.023575753856950262,-1.4644038274337376,0,0,0,0,0,0,1455,1527,1500,1500,1500,1500
1748737556.609402,-0.28,-0.11,-0.53,-0.07526732399225546,0.031634092692397225,-0.7155849933176751,-0.040612258201647905,-0.022691230099188907,-1.5827891035947508,0,0,0,0,0,0.000216,1481,1500,1500,1500,1500,1500
1748737556.6933067,-0.2,-0.05,-0.59,-0.02399827721492203,0.017453292519943295,-0.47123889803846897,-0.04698714689118248,-0.020179963318112108,-1.6679947973382152,0,0,0,0,0,0.568173,1507,1473,1500,1500,1500,1500
1748737556.792921,-0.2,-0.05,-0.59,-0.02399827721492203,0.017453292519943295,-0.47123889803846897,-0.04698714689118248,-0.020179963318112108,-1.6679947973382152,0,-0.070916,0,0,0,0.7,1533,1446,1500,1500,1500,1500
1748737556.8932943,-0.22,-0.03,-0.58,0.017453292519943295,-0.026179938779914945,-0.27598018797160334,-0.0461920671972017,-0.02199636450338824,-1.7242736522136213,0,-0.070916,0,0,0,0.7,1559,1419,1500,1500,1500,1500
1748737556.9779472,-0.22,-0.03,-0.58,0.017453292519943295,-0.026179938779914945,-0.27598018797160334,-0.0461920671972017,-0.02199636450338824,-1.7242736522136213,0,-0.070916,0,0,0,0.7,1585,1392,1500,1500,1500,1500
1748737557.077212,-0.24,-0.14,-0.64,0.028361600344907856,-0.04690572364734761,-0.1308996938995747,-0.042314776075267874,-0.0273689969190733,-1.7533433683905288,0,-0.070916,0,0,0,0.7,1608,1376,1500,1500,1500,1500
1748737557.1776617,-0.22,-0.13,-0.5700000000000001,0.05999569303730508,-0.026179938779914945,0.1189005552921137,-0.037307702734256,-0.030291026083436538,-1.7576859990828424,0,-0.070916,0.534056,0,0,0.7,1608,1376,1500,1500,1473,1526
1748737557.2773805,-0.22,-0.13,-0.5700000000000001,0.05999569303730508,-0.026179938779914945,0.1189005552921137,-0.037307702734256,-0.030291026083436538,-1.7576859990828424,0,-0.070916,7.5,0,0,0.7,1610,1379,1473,1500,1446,1552
1748737557.3757966,-0.09,0.01,-0.55,0.10471975511965978,-0.018544123302439753,0.495237175253391,-0.028548326884175503,-0.028567109127081845,-1.7106376757657178,0,-0.070916,7.5,0,0,0.7,1610,1379,1455,1500,1419,1578
1748737557.4590604,-0.09,0.01,-0.55,0.10471975511965978,-0.018544123302439753,0.495237175253391,-0.028548326884175503,-0.028567109127081845,-1.7106376757657178,0,-0.070916,7.5,0,0,0.7,1610,1379,1455,1500,1392,1604
1748737557.5596664,-1.29,-1.45,-0.09,0.06763150851478027,0.020725784867432664,0.7624907169650227,-0.019846372749052578,-0.027323799699566206,-1.6096564603627557,0,-0.070916,7.5,0,0,0.7,1610,1379,1455,1500,1365,1630
1748737557.6587684,-0.5,-0.41000000000000003,-0.16,-0.08835729338221293,-0.02181661564992912,0.8824821030396329,-0.03387470503260824,-0.026270416007079956,-1.4788948612089376,0,-0.070916,7.5,0,0,0.7,1610,1379,1455,1500,1343,1635
1748737557.7437353,-0.5,-0.41000000000000003,-0.16,-0.08835729338221293,-0.02181661564992912,0.8824821030396329,-0.03387470503260824,-0.026270416007079956,-1.4788948612089376,0,-0.070916,7.5,0,0,0.7,1610,1379,1455,1500,1343,1635
1748737557.8428571,-0.11,-0.36,0.09,-0.12871803233458182,-0.020725784867432664,0.9413869652944415,-0.054521411737504855,-0.02317081595158199,-1.337537806833793,0,-0.070916,7.5,0,0,0.7,1610,1379,1455,1500,1343,1635
1748737557.9272885,-0.11,-0.36,0.09,-0.12871803233458182,-0.020725784867432664,0.9413869652944415,-0.054521411737504855,-0.02317081595158199,-1.337537806833793,0,-0.070916,7.5,0,0,0.7,1610,1379,1455,1500,1343,1635
1748737558.0265896,0.18,-0.21,-0.38,-0.17235126363444003,-0.061086523819801536,0.9828385350293068,-0.08265804056904373,-0.01950098492150226,-1.1984792487274583,0,-0.070916,7.5,0,0,0.7,1610,1379,1455,1500,1343,1635
1748737558.1256633,0.14,-0.16,-0.48,-0.05345070834232634,-0.13744467859455345,1.0155634585042006,-0.1039141728298454,-0.021420328693832785,-1.0432002553344923,0,-0.070916,7.5,0,0,0.7,1610,1379,1455,1500,1343,1635
1748737558.2097082,0.14,-0.16,-0.48,-0.05345070834232634,-0.13744467859455345,1.0155634585042006,-0.1039141728298454,-0.021420328693832785,-1.0432002553344923,0,-0.070916,7.5,0,0,0.7,1610,1379,1455,1500,1343,1635
1748737558.3097408,0.21,-0.05,-0.43,0.039269908169872414,-0.16580627893946132,1.0177451200691934,-0.10992481857943937,-0.029845563125241406,-0.8943152547513156,0,-0.070916,7.5,0,0,0.7,1610,1379,1455,1500,1343,1635
1748737558.409952,0.08,-0.04,-0.5,0.12544553998709243,-0.18544123302439752,1.0341075818066403,-0.10460397942727344,-0.041796544262981,-0.7337014726969083,0,-0.070916,7.5,0,0,0.7,1610,1379,1455,1500,1343,1635
1748737558.493147,0.08,-0.04,-0.5,0.12544553998709243,-0.18544123302439752,1.0341075818066403,-0.10460397942727344,-0.041796544262981,-0.7337014726969083,0,-0.070916,7.5,0,0,0.7,1610,1379,1455,1500,1343,1635
1748737558.592787,-0.05,-0.18,-0.54,0.20180369476184434,-0.20616701789183017,1.0602875205865552,-0.08891220804669757,-0.056711990843576726,-0.5789498886024965,0,-0.070916,7.5,0,0,0.7,1610,1379,1455,1500,1343,1635
1748737558.6771274,-0.05,-0.18,-0.54,0.20180369476184434,-0.20616701789183017,1.0602875205865552,-0.08891220804669757,-0.056711990843576726,-0.5789498886024965,0,-0.070916,7.5,0,0,0.7,1610,1379,1455,1500,1343,1635
1748737558.7765362,0.09,-0.14,-0.67,0.23125612588924865,-0.19853120241435498,1.0875582901489667,-0.06822240529580484,-0.07706544916330553,-0.40976862340611464,0,-0.070916,7.5,0,0,0.7,1610,1379,1455,1500,1343,1635
1748737558.8718789,0.23,-0.34,-0.6,0.20725784867432664,-0.17016960206944712,1.0821041362364843,-0.05189543803988997,-0.09777384020338069,-0.23914500233224456,0,0,7.5,0,0,0.7,1611,1379,1456,1500,1343,1635
1748737558.9601839,0.23,-0.34,-0.6,0.20725784867432664,-0.17016960206944712,1.0821041362364843,-0.05189543803988997,-0.09777384020338069,-0.23914500233224456,0,0,7.5,0,0,0.7,1611,1379,1456,1500,1343,1635
1748737559.0593214,0.39,-0.08,-0.68,0.21271200258680892,-0.1308996938995747,1.069014166846527,-0.0396421283868783,-0.11567457358305659,-0.069754844669772,0,0,7.5,0,0,0.7,1611,1379,1456,1500,1343,1635
1748737559.1599207,0.39,-0.08,-0.68,0.21271200258680892,-0.1308996938995747,1.069014166846527,-0.0396421283868783,-0.11567457358305659,-0.069754844669772,0,0,7.5,0,0,0.7,1611,1379,1456,1500,1343,1635
1748737559.2431247,0.23,-0.09,-0.65,0.19198621771937624,-0.10690141668465268,1.0657416744990376,-0.032052521925109205,-0.13005248465746128,0.08787595351017097,0,0,7.5,0,0,0.7,1611,1379,1456,1500,1343,1635
1748737559.3373907,0.07,-0.08,-0.63,0.17453292519943295,-0.08835729338221293,1.038470904936626,-0.02771560418879863,-0.14193809427856557,0.25315572707826645,0,0,7.5,0,0,0.7,1611,1379,1456,1500,1343,1635
1748737559.427381,0.07,-0.08,-0.63,0.17453292519943295,-0.08835729338221293,1.038470904936626,-0.02771560418879863,-0.14193809427856557,0.25315572707826645,0,0,7.5,0,0,0.7,1611,1379,1456,1500,1343,1635
1748737559.5285738,0.2,0.1,-0.8,0.18435040224190105,-0.07635815477475191,1.0417433972841155,-0.02872640709460927,-0.15205257010015166,0.407536301940008,0,0,7.5,0,0,0.7,1611,1379,1456,1500,1343,1635
1748737559.6272585,0.2,0.1,-0.8,0.18435040224190105,-0.07635815477475191,1.0417433972841155,-0.02872640709460927,-0.15205257010015166,0.407536301940008,0,0,7.5,0,0,0.7,1611,1379,1456,1500,1343,1635
1748737559.7099316,0.0,-0.05,-0.72,0.19416787928436915,-0.06872233929727672,1.0341075818066403,-0.02927554177946176,-0.16070446940109354,0.5710742380003564,0,-0.043231,7.5,0,0,0.7,1611,1379,1455,1500,1343,1635
1748737559.80573,0.03,-0.08,-0.71,0.20180369476184434,-0.06435901616729091,1.0330167510241437,-0.029358053643564322,-0.16809289577976705,0.7240768745843166,0,0,7.5,0,0,0.001791,1584,1405,1456,1500,1343,1635
1748737559.910966,0.03,-0.08,-0.71,0.20180369476184434,-0.06435901616729091,1.0330167510241437,-0.029358053643564322,-0.16809289577976705,0.7240768745843166,0,0,7.5,0,0,0,1557,1431,1456,1500,1343,1635
1748737560.0099516,-0.05,-0.06,-0.6,0.1832595714594046,-0.05345070834232634,0.9228428419920017,-0.028611745140189146,-0.17347955566099232,0.882533723325196,0,0,6.973685,0,0,0,1530,1457,1458,1500,1349,1628
1748737560.109853,-0.05,-0.06,-0.6,0.1832595714594046,-0.05345070834232634,0.9228428419920017,-0.028611745140189146,-0.17347955566099232,0.882533723325196,0,0,0.719814,0,0,-0.589187,1503,1483,1484,1500,1375,1601
1748737560.1929529,0.02,-0.04,-0.64,0.1439896632895322,-0.04145156973486533,0.7123125009701857,-0.027937319875857358,-0.1778986271462953,1.0135377488437076,0,0,0,0,0,-0.7,1476,1509,1500,1500,1401,1574
1748737560.2936115,-0.1,-0.41000000000000003,-0.62,0.08726646259971647,-0.02945243112740431,0.4363323129985824,-0.028718701594870052,-0.18167830813091868,1.1013909709665368,0,0,0,0,0,-6e-05,1500,1500,1500,1500,1427,1547
1748737560.3940125,-0.1,-0.41000000000000003,-0.62,0.08726646259971647,-0.02945243112740431,0.4363323129985824,-0.028718701594870052,-0.18167830813091868,1.1013909709665368,0,0,0,0,0,0,1500,1500,1500,1500,1453,1520
1748737560.4773586,0.03,-0.27,-0.85,0.09817477042468103,-0.011999138607461015,0.2748893571891069,-0.027603181747379645,-0.18307265230742856,1.1536873194323995,0,0,0,0,0,0,1500,1500,1500,1500,1479,1500
1748737560.5775404,0.03,-0.27,-0.85,0.09817477042468103,-0.011999138607461015,0.2748893571891069,-0.027603181747379645,-0.18307265230742856,1.1536873194323995,0,0,0,0,0,0,1500,1500,1500,1500,1500,1500
1748737560.6778169,-0.16,-0.15,-0.9,0.17562375598192942,-0.008726646259971648,0.18980455615438332,-0.01854788163205218,-0.18489468708305606,1.1908712320420392,0,0,0,0,0,0,1500,1500,1500,1500,1500,1500
1748737560.777925,0.01,-0.07,-0.84,0.2977968036215325,-0.030543261909900768,0.12762720155208535,0.008217054156447478,-0.18939496416353022,1.2144778349773433,0,-9.777377,0,0,0,-0.080689,1473,1473,1473,1500,1500,1500
1748737560.8777618,0.01,-0.07,-0.84,0.2977968036215325,-0.030543261909900768,0.12762720155208535,0.008217054156447478,-0.18939496416353022,1.2144778349773433,0,-12.5,5.735294,0,0,-0.092892,1446,1446,1446,1500,1473,1526
1748737560.9613962,-0.04,-0.19,-0.77,0.3665191429188092,-0.04581489286485115,0.08508480103472356,0.05490330349277967,-0.19647547207483806,1.2312308575134563,0,-12.5,7.5,0,0,-0.092892,1419,1419,1419,1500,1446,1552
1748737561.0598502,0.0,-0.25,-0.77,0.42215151282612845,-0.06872233929727672,0.09817477042468103,0.11181162052832597,-0.20608536115366852,1.2427162228187278,0,-12.5,7.5,0,0,-0.092892,1392,1392,1392,1500,1419,1578
1748737561.1604357,0.0,-0.25,-0.77,0.42215151282612845,-0.06872233929727672,0.09817477042468103,0.11181162052832597,-0.20608536115366852,1.2427162228187278,0,-12.5,7.5,0,0,-0.092892,1365,1365,1365,1500,1392,1604
1748737561.25975,-0.35000000000000003,-0.03,-0.8200000000000001,0.3687008044838021,-0.14835298641951802,0.19416787928436915,0.1700366238176904,-0.2258086602022907,1.2642955134742344,0,-12.5,7.5,0,0,-0.139769,1338,1342,1347,1500,1365,1630
1748737561.359573,-0.35000000000000003,-0.03,-0.8200000000000001,0.3687008044838021,-0.14835298641951802,0.19416787928436915,0.1700366238176904,-0.2258086602022907,1.2642955134742344,0,-8.885955,7.5,0,0,-0.234621,1335,1368,1373,1500,1343,1635
1748737561.442905,-0.52,0.12,-0.23,0.23889194136672387,-0.13199052468207118,0.09817477042468103,0.2125830865281809,-0.23969506988271375,1.282161072104207,0,-8.712783,7.5,0,0,-0.255125,1335,1389,1375,1500,1343,1635
1748737561.5435736,-0.2,-0.28,-0.5700000000000001,0.037088246604879506,-0.08072147790473774,0.050178215994836975,0.23174388811572183,-0.2545913318974581,1.2917216519585866,0,-8.712783,7.5,0,0,-0.255125,1335,1389,1375,1500,1343,1635
1748737561.6429255,-0.2,-0.28,-0.5700000000000001,0.037088246604879506,-0.08072147790473774,0.050178215994836975,0.23174388811572183,-0.2545913318974581,1.2917216519585866,0,-8.712783,7.5,0,0,-0.255125,1335,1389,1375,1500,1343,1635
1748737561.7274723,-0.04,-0.24,-0.63,-0.12980886311707826,-0.025089107997418487,-0.04254240051736178,0.2242310473580463,-0.2625316149244372,1.2887898137346245,0,-10.145875,7.5,0,0,-0.178261,1328,1366,1363,1500,1343,1635
1748737561.827235,-0.04,-0.24,-0.63,-0.12980886311707826,-0.025089107997418487,-0.04254240051736178,0.2242310473580463,-0.2625316149244372,1.2887898137346245,0,-10.332679,7.5,0,0,-0.178261,1327,1364,1362,1500,1343,1635
1748737561.9255896,-0.33,-0.28,-0.6,-0.16144295580947549,0.018544123302439753,-0.08072147790473774,0.20350492710041687,-0.260995211145709,1.2767641753933907,0,-8.712783,7.5,0,0,-0.24136,1337,1387,1375,1500,1343,1635
1748737562.0098226,-0.14,0.17,-0.76,-0.2083486794568231,0.02945243112740431,-0.04145156973486533,0.1793375526678646,-0.2573050058667704,1.2695296187135263,0,-8.712783,7.5,0,0,-0.248195,1336,1388,1375,1500,1343,1635
1748737562.1099,-0.14,0.17,-0.76,-0.2083486794568231,0.02945243112740431,-0.04145156973486533,0.1793375526678646,-0.2573050058667704,1.2695296187135263,0,-10.145875,7.5,0,0,-0.184141,1328,1367,1363,1500,1343,1635
1748737562.1936414,-0.17,-0.16,-0.66,-0.25634523388666713,0.04581489286485115,-0.09599310885968812,0.14452159904699216,-0.25174816529041527,1.2602823862744463,0,-12.29445,7.5,0,0,-0.058861,1325,1340,1349,1500,1343,1635
1748737562.2936606,-0.17,-0.16,-0.66,-0.25634523388666713,0.04581489286485115,-0.09599310885968812,0.14452159904699216,-0.25174816529041527,1.2602823862744463,0,-12.5,7.5,0,0,-0.000465,1324,1327,1347,1500,1343,1635
1748737562.393779,-0.43,0.0,-0.78,-0.28361600344907856,0.031634092692397225,-0.0916297857297023,0.10868705695243139,-0.24494997463291152,1.2468601136365218,0,-12.5,7.5,0,0,-0.000215,1324,1327,1347,1500,1343,1635
1748737562.4773855,-0.06,-0.01,-0.8,-0.2912518189265537,0.02945243112740431,0.013089969389957472,0.06527844475594835,-0.23983036842738695,1.2411591124606447,0,-12.5,7.5,0,0,-0.000215,1324,1327,1347,1500,1343,1635
1748737562.57733,-0.06,-0.01,-0.8,-0.2912518189265537,0.02945243112740431,0.013089969389957472,0.06527844475594835,-0.23983036842738695,1.2411591124606447,0,-12.5,7.5,0,0,-1e-06,1324,1327,1347,1500,1343,1635
1748737562.678028,0.37,0.42,-0.3,-0.37306412761378793,0.044724062082354694,0.04908738521234052,0.01163061379719155,-0.234784784647837,1.248004961736854,0,-12.5,7.5,0,0,0,1324,1327,1347,1500,1343,1635
1748737562.7759693,0.37,0.42,-0.3,-0.37306412761378793,0.044724062082354694,0.04908738521234052,0.01163061379719155,-0.234784784647837,1.248004961736854,0,-12.5,7.5,0,0,0,1324,1327,1347,1500,1343,1635
1748737562.8778746,0.08,0.34,-0.3,-0.3687008044838021,0.06435901616729091,0.07090400086226964,-0.03945823176669264,-0.2360797992149521,1.2551705463903597,0,-12.5,7.5,0,0,0,1324,1327,1347,1500,1343,1635
1748737562.959648,0.24,0.38,-0.36,-0.3687008044838021,0.07090400086226964,0.07308566242726255,-0.08798712254008699,-0.233765698471282,1.263706707354723,0,-12.5,7.5,0,0,-0.073032,1324,1327,1347,1500,1343,1635
1748737563.059535,0.24,0.38,-0.36,-0.3687008044838021,0.07090400086226964,0.07308566242726255,-0.08798712254008699,-0.233765698471282,1.263706707354723,0,-12.5,6.942724,0,0,-0.12963,1313,1340,1347,1500,1350,1628
1748737563.1600394,0.19,0.15,-0.29,-0.38942658935123475,0.08944812416470939,0.08617563181722002,-0.14506289696715058,-0.22491609315847827,1.2728007420309349,0,-12.5,3.010836,0,0,-0.12963,1311,1338,1352,1500,1376,1601
1748737563.2417917,0.19,0.15,-0.29,-0.38942658935123475,0.08944812416470939,0.08617563181722002,-0.14506289696715058,-0.22491609315847827,1.2728007420309349,0,-12.5,0,0,0,-0.12963,1310,1336,1354,1500,1402,1574
1748737563.34281,0.05,0.2,-0.46,-0.3861540970037454,0.08944812416470939,0.06544984694978735,-0.20019616135845344,-0.21341133270393228,1.281648625282643,0,-12.5,0,0,0,-0.12963,1310,1336,1354,1500,1428,1547
1748737563.442865,-0.05,-0.2,-0.47000000000000003,-0.3643374813538163,0.07090400086226964,0.05890486225480862,-0.25762769202480296,-0.2024708059543944,1.2868628137906242,0,-12.5,0,0,0,-0.12963,1310,1336,1354,1500,1454,1520
1748737563.5436275,-0.05,-0.2,-0.47000000000000003,-0.3643374813538163,0.07090400086226964,0.05890486225480862,-0.25762769202480296,-0.2024708059543944,1.2868628137906242,0,-12.5,0,0,0,-0.12963,1310,1336,1354,1500,1480,1500
1748737563.6439395,-0.13,-0.08,-0.72,-0.3108867730114899,0.04581489286485115,0.06763150851478027,-0.04244411663021757,0.5004096700658779,-1.3788486047780915,0,-12.5,0,0,0,-0.073032,1321,1325,1354,1500,1500,1500
1748737563.7273054,-0.06,-0.05,-0.52,-0.21380283336930536,0.002181661564992912,0.05672320068981571,-0.3515032657674892,-0.18725594618436175,1.3032953340305518,0,-12.5,0,0,0,-0.065756,1321,1325,1354,1500,1500,1500
1748737563.8272338,-0.06,-0.05,-0.52,-0.21380283336930536,0.002181661564992912,0.05672320068981571,-0.3515032657674892,-0.18725594618436175,1.3032953340305518,0,-12.5,0,0,0,-0.065756,1321,1325,1354,1500,1500,1500
1748737563.9264123,0.13,0.23,-0.5700000000000001,-0.14726215563702155,-0.05672320068981571,0.07526732399225546,-0.379713926399525,-0.1874691429805754,1.3158112482573163,0,-12.5,0,0,0,-0.062261,1321,1325,1354,1500,1500,1500
1748737564.0284579,0.13,0.23,-0.5700000000000001,-0.14726215563702155,-0.05672320068981571,0.07526732399225546,-0.379713926399525,-0.1874691429805754,1.3158112482573163,0,-12.5,0,0,0,-0.062261,1321,1325,1354,1500,1500,1500
1748737564.126388,0.01,0.13,-0.46,-0.13853550937704992,-0.07526732399225546,0.07308566242726255,-0.40574473692413576,-0.19341089088946742,1.331493279852478,0,-12.5,0,0,0,-0.09715,1321,1325,1354,1500,1500,1500
1748737564.2093194,0.09,0.1,-0.51,-0.08726646259971647,-0.07635815477475191,0.07853981633974483,-0.425555202359843,-0.20008385812313095,1.3465899841713584,0,-12.5,0,0,0,-0.150289,1309,1339,1354,1500,1500,1500
1748737564.3083212,0.09,0.1,-0.51,-0.08726646259971647,-0.07635815477475191,0.07853981633974483,-0.425555202359843,-0.20008385812313095,1.3465899841713584,0,-8.541315,0,0,0,-0.24136,1335,1365,1380,1500,1500,1500
1748737564.4089847,0.14,0.35000000000000003,-0.42,-0.0916297857297023,-0.08944812416470939,0.039269908169872414,-0.4406347174588606,-0.20722705442671463,1.3596401987500506,0,-8.20349,0,0,0,-0.298711,1333,1391,1385,1500,1500,1500
1748737564.4932683,0.14,0.35000000000000003,-0.42,-0.0916297857297023,-0.08944812416470939,0.039269908169872414,-0.4406347174588606,-0.20722705442671463,1.3596401987500506,0,-8.20349,0,0,0,-0.298711,1333,1395,1385,1500,1500,1500
1748737564.5934927,0.35000000000000003,0.23,-0.4,-0.07090400086226964,-0.08726646259971647,-0.004363323129985824,-0.4564190441584768,-0.21955209169735632,1.368930692416499,0,-8.037135,0,0,0,-0.298711,1335,1397,1386,1500,1500,1500
1748737564.6927,0.16,0.25,-0.43,-0.011999138607461015,-0.08399397025222712,-0.12326387842209953,-0.46391957092583724,-0.23921567042083194,1.3649060840993477,0,-8.037135,0,0,0,-0.298711,1335,1397,1386,1500,1500,1500
1748737564.7930026,0.16,0.25,-0.43,-0.011999138607461015,-0.08399397025222712,-0.12326387842209953,-0.46391957092583724,-0.23921567042083194,1.3649060840993477,0,-8.037135,0,0,0,-0.298711,1335,1397,1386,1500,1500,1500
1748737564.8932984,0.01,0.16,-0.42,0.05345070834232634,-0.11671889372712078,-0.14180800172453928,-0.45694566557356475,-0.2647087571366573,1.352890244364416,0,-8.037135,0,0,0,-0.306309,1334,1398,1386,1500,1500,1500
1748737564.977396,-0.09,0.09,-0.48,0.09817477042468103,-0.136353847812057,-0.13526301702956053,-0.4414994603592676,-0.2933716415669303,1.3408252479604073,0,-7.709534,0,0,0,-0.345732,1333,1406,1389,1500,1500,1500
1748737565.077324,-0.09,0.09,-0.48,0.09817477042468103,-0.136353847812057,-0.13526301702956053,-0.4414994603592676,-0.2933716415669303,1.3408252479604073,0,-12.5,0,0,0,-0.043296,1321,1379,1362,1500,1500,1500
1748737565.1772366,0.09,0.3,-0.29,0.09490227807719166,-0.14289883250703572,-0.13308135546456762,-0.4247987553935862,-0.3224999893709583,1.3299786570228989,0,-12.5,0,0,0,-0.030116,1321,1352,1354,1500,1500,1500
1748737565.2772918,0.09,0.3,-0.29,0.09490227807719166,-0.14289883250703572,-0.13308135546456762,-0.4247987553935862,-0.3224999893709583,1.3299786570228989,0,-12.5,0,0,0,-0.065756,1321,1325,1354,1500,1500,1500
1748737565.376506,-0.37,0.0,-1.62,0.10035643198967395,-0.1832595714594046,-0.11999138607461016,-0.40725003257645964,-0.35267588244623244,1.3209248133301101,0,-9.595686,0,0,0,-0.202355,1328,1351,1375,1500,1500,1500
1748737565.458983,-0.11,0.04,-0.31,0.06763150851478027,-0.17889624832941878,0.00545415391248228,-0.3963233512119758,-0.3791640118278202,1.3243534623114372,0,-6.467298,0,0,0,-0.404931,1341,1377,1399,1500,1500,1500
1748737565.5589144,-0.11,0.04,-0.31,0.06763150851478027,-0.17889624832941878,0.00545415391248228,-0.3963233512119758,-0.3791640118278202,1.3243534623114372,0,-6.029575,0,0,0,-0.459395,1340,1403,1403,1500,1500,1500
1748737565.659487,0.12,0.05,-0.39,0.02181661564992912,-0.12871803233458182,-0.011999138607461015,-0.3938091678376978,-0.4004044655613476,1.3345526847450768,0,-6.029575,0,0,0,-0.459395,1340,1429,1403,1500,1500,1500
1748737565.743082,0.12,0.05,-0.39,0.02181661564992912,-0.12871803233458182,-0.011999138607461015,-0.3938091678376978,-0.4004044655613476,1.3345526847450768,0,-6.029575,0,0,0,-0.459395,1340,1443,1403,1500,1500,1500
1748737565.844028,0.1,0.29,-0.27,0.004363323129985824,-0.24652775684419906,-0.10253809355466686,-0.3915219887676289,-0.4239221045852,1.3344986161752583,0,-1.584443,0,0,0,-0.688489,1361,1469,1429,1500,1500,1500
1748737565.9438858,0.02,0.22,-0.24,0.017453292519943295,-0.12217304763960307,-0.23343778745424157,-0.38145934117612085,-0.452136325428686,1.3146678956828624,0,0,0,0,0,-0.7,1377,1495,1455,1500,1500,1500
1748737566.0434363,0.02,0.22,-0.24,0.017453292519943295,-0.12217304763960307,-0.23343778745424157,-0.38145934117612085,-0.452136325428686,1.3146678956828624,0,0,0,0,0,-0.7,1377,1521,1481,1500,1500,1500
1748737566.1432428,0.27,0.03,-0.29,0.0719948316447661,-0.10035643198967395,-0.25634523388666713,-0.3598030171363714,-0.48693942112780453,1.2814252189769537,0,0,0,0,0,-0.568169,1390,1547,1500,1500,1500,1500
1748737566.2275538,0.37,-0.08,-0.23,0.10471975511965978,-0.06326818538479445,-0.23561944901923448,-0.32886257068001296,-0.5161242175536352,1.246826810855916,0,0,0,0,0,-0.027766,1416,1520,1500,1500,1500,1500
1748737566.3263779,0.37,-0.08,-0.23,0.10471975511965978,-0.06326818538479445,-0.23561944901923448,-0.32886257068001296,-0.5161242175536352,1.246826810855916,0,0,0,0,0,0,1442,1500,1500,1500,1500,1500
1748737566.4271562,0.31,-0.19,-0.16,0.1734420944169365,-0.06872233929727672,-0.17016960206944712,-0.3022073257977759,-0.5437436149745726,1.2205624594361209,0,0,0,0,0,0,1468,1500,1500,1500,1500,1500
1748737566.5263314,0.31,-0.19,-0.16,0.1734420944169365,-0.06872233929727672,-0.17016960206944712,-0.3022073257977759,-0.5437436149745726,1.2205624594361209,0,0,0,0,0,0,1494,1500,1500,1500,1500,1500
1748737566.6275506,0.29,-0.06,-0.15,0.24216443371421323,-0.08508480103472356,-0.11671889372712078,-0.2642623655772319,-0.5675885844706506,1.2006347753524684,0,0,0,0,0,-0.030116,1500,1500,1500,1500,1500,1500
1748737566.709434,0.13,-0.12,-0.17,0.3337942194439155,-0.09381144729469522,-0.018544123302439753,-0.21925560973203523,-0.5876673846139867,1.1962069414701786,0,0,0,0,0,-0.632367,1473,1526,1500,1500,1500,1500
1748737566.8098204,0.13,-0.12,-0.17,0.3337942194439155,-0.09381144729469522,-0.018544123302439753,-0.21925560973203523,-0.5876673846139867,1.1962069414701786,0,0,0,0,0,-0.7,1446,1552,1500,1500,1500,1500
1748737566.9090662,0.11,-0.1,-0.13,0.36760997370130566,-0.08726646259971647,0.030543261909900768,-0.17331417670504992,-0.6030407399283602,1.2027427273807414,0,0,0,0,0,-0.7,1419,1578,1500,1500,1500,1500
1748737566.9939048,0.11,-0.1,-0.13,0.36760997370130566,-0.08726646259971647,0.030543261909900768,-0.17331417670504992,-0.6030407399283602,1.2027427273807414,0,0,0,0,0,-0.57863,1392,1598,1500,1500,1500,1500
1748737567.0948505,0.14,0.06,-0.07,0.36979163526629855,-0.08399397025222712,0.02399827721492203,-0.12243709787531096,-0.616724354736934,1.2133632819396751,0,0,0,0,0,0,1418,1571,1500,1500,1500,1500
1748737567.1938589,0.09,0.0,-0.04,0.31852258848896514,-0.061086523819801536,-0.1505346479845109,-0.06648622702815284,-0.6299429538657786,1.204969389189637,0,0,0,0,0,0,1444,1544,1500,1500,1500,1500
1748737567.294099,0.09,0.0,-0.04,0.31852258848896514,-0.061086523819801536,-0.1505346479845109,-0.06648622702815284,-0.6299429538657786,1.204969389189637,0,0.105481,0,0,0,0,1470,1517,1500,1500,1500,1500
1748737567.3938084,0.1,-0.15,-0.1,0.27052603405912107,-0.03381575425739013,-0.22362031041177347,0.003023680883813912,-0.6389111763516817,1.1635340212553413,0,10.145942,0,0,0,0,1496,1543,1526,1500,1500,1500
1748737567.4773762,0.07,-0.15,-0.09,0.2792526803190927,-0.01090830782496456,-0.08944812416470939,0.05848097566495433,-0.6418938243369594,1.1357668351073245,0,3.839031,0,0,0,0,1522,1569,1552,1500,1500,1500
1748737567.5756395,0.07,-0.15,-0.09,0.2792526803190927,-0.01090830782496456,-0.08944812416470939,0.05848097566495433,-0.6418938243369594,1.1357668351073245,0,0,0,0,0,0,1500,1542,1525,1500,1500,1500
1748737567.6772606,0.17,-0.01,-0.09,0.272707695624114,0.013089969389957472,0.00545415391248228,0.10503585108946395,-0.6420931722741567,1.1286428112236635,0,0,0,0,0,0,1500,1515,1500,1500,1500,1500
1748737567.7756958,0.17,-0.01,-0.09,0.272707695624114,0.013089969389957472,0.00545415391248228,0.10503585108946395,-0.6420931722741567,1.1286428112236635,0,0,0,0,0,0,1500,1500,1500,1500,1500,1500
1748737567.87564,-0.02,-0.07,-0.07,0.23343778745424157,0.04690572364734761,0.04908738521234052,0.13810144527631713,-0.6374111207374071,1.1359049443469191,0,0,0,0,0,0,1500,1500,1500,1500,1500,1500
1748737567.959714,0.02,-0.03,-0.09,0.19853120241435498,0.04690572364734761,0.10799224746714914,0.16087887312870336,-0.6328084539424412,1.1530763805379818,0,0,0,0,0,0,1500,1500,1500,1500,1500,1500
1748737568.0587623,0.02,-0.03,-0.09,0.19853120241435498,0.04690572364734761,0.10799224746714914,0.16087887312870336,-0.6328084539424412,1.1530763805379818,0,0,0,0,0,0,1500,1500,1500,1500,1500,1500
1748737568.159292,0.06,-0.03,-0.09,0.16035212502697901,0.04690572364734761,0.14835298641951802,0.17224439324007448,-0.6298022774641236,1.1776899908790612,0,2.683926,0,0,0,-0.6434,1473,1526,1526,1500,1500,1500
1748737568.2594597,0.01,0.0,-0.07,0.11671889372712078,0.05126904677733343,0.17671458676442586,0.17424937315084166,-0.626748674118015,1.210554449787306,0,3.503555,0,0,0,-0.7,1446,1552,1552,1500,1500,1500
1748737568.3592744,0.01,0.0,-0.07,0.11671889372712078,0.05126904677733343,0.17671458676442586,0.17424937315084166,-0.626748674118015,1.210554449787306,0,3.725502,0,0,0,-0.7,1419,1578,1569,1500,1500,1500
1748737568.4434466,0.14,-0.04,-0.06,0.08835729338221293,0.05672320068981571,0.20289452554434081,0.16847827137845306,-0.6240682716123699,1.2454352219459224,0,6.319842,0,0,0,-0.422704,1445,1604,1588,1500,1500,1500
1748737568.54363,0.14,-0.04,-0.06,0.08835729338221293,0.05672320068981571,0.20289452554434081,0.16847827137845306,-0.6240682716123699,1.2454352219459224,0,12.5,0,0,0,-0.007013,1471,1630,1614,1500,1500,1500
1748737568.6431057,0.45,0.39,-0.18,0.02399827721492203,0.09599310885968812,0.13526301702956053,0.15824847043389695,-0.6197809965163228,1.2832745416669435,0,9.960847,0,0,0,0,1497,1632,1612,1500,1500,1500
1748737568.7260885,0.45,0.0,0.05,-0.0272707695624114,0.14180800172453928,-0.09599310885968812,0.15621734014153568,-0.6058790200354881,1.2876014655855177,0,0,0,0,0,0,1500,1605,1585,1500,1500,1500
1748737568.8264992,0.45,0.0,0.05,-0.0272707695624114,0.14180800172453928,-0.09599310885968812,0.15621734014153568,-0.6058790200354881,1.2876014655855177,0,0,0,0,0,0,1500,1578,1558,1500,1500,1500
1748737568.9255347,0.0,0.18,-0.14,-0.025089107997418487,0.08290313946973066,-0.2999784651865254,0.17376927036597328,-0.5836280406894525,1.2496928798559932,0,0,0,0,0,0,1500,1551,1531,1500,1500,1500
1748737569.0109782,0.0,0.18,-0.14,-0.025089107997418487,0.08290313946973066,-0.2999784651865254,0.17376927036597328,-0.5836280406894525,1.2496928798559932,0,5.068043,0,0,0,0,1526,1577,1557,1500,1500,1500
1748737569.110634,-0.25,-0.01,-0.01,0.006544984694978736,0.025089107997418487,-0.3076142806640006,0.20328765646001115,-0.5658333330417237,1.1933057004294059,0,12.5,0,0,0,0,1552,1603,1583,1500,1500,1500
