time,ay,ax,az,gy,gx,gz,roll,pitch,yaw,cmd_fx,cmd_fy,cmd_fz,cmd_tx,cmd_ty,cmd_tz,pwm_1,pwm_2,pwm_3,pwm_4,pwm_5,pwm_6
1748723529.3134363,0.0,0.0,0.0,0.0,0.0,0.0,0.0,0.0,0.0,0,0,0,0,0,0,1500,1500,1500,1500,1500,1500
1748723529.410464,0.23,-0.21,-0.08,0.03490658503988659,0.061086523819801536,-0.011999138607461015,-0.27225836213129684,-0.19876640484913802,-0.4724896631557156,0,0,0,0,0,0,1500,1500,1500,1500,1500,1500
1748723529.5113127,0.23,-0.21,-0.08,0.03490658503988659,0.061086523819801536,-0.011999138607461015,-0.27225836213129684,-0.19876640484913802,-0.4724896631557156,0,0,0,0,0,0,1500,1500,1500,1500,1500,1500
1748723529.614302,0.18,-0.26,-0.05,0.032724923474893676,0.04036073895236887,-0.016362461737446838,-0.270539266197896,-0.19476581272895802,-0.4756094581007294,0,0,0,0,0,0,1500,1500,1500,1500,1500,1500
1748723529.711499,0.22,-0.25,0.0,0.044724062082354694,0.037088246604879506,-0.007635815477475192,-0.26760878257083587,-0.19043740963989816,-0.4770447081794816,0,0,0,0,0,0,1500,1500,1500,1500,1500,1500
1748723529.8125587,0.22,-0.25,0.0,0.044724062082354694,0.037088246604879506,-0.007635815477475192,-0.26760878257083587,-0.19043740963989816,-0.4770447081794816,0,0,0,0,0,0,1500,1500,1500,1500,1500,1500
1748723529.8983755,0.22,-0.22,-0.09,0.04799655442984406,0.04254240051736178,-0.003272492347489368,-0.2634172491530765,-0.18665285530972653,-0.4783557780592456,0,0,0,0,0,0,1500,1500,1500,1500,1500,1500
1748723529.9923708,0.2,-0.2,-0.14,0.04036073895236887,0.04690572364734761,-0.007635815477475192,-0.2602839339747139,-0.18276528420730379,-0.4797419391645392,0,0,0,0,0,0,1500,1500,1500,1500,1500,1500
1748723530.0945034,0.2,-0.2,-0.14,0.04036073895236887,0.04690572364734761,-0.007635815477475192,-0.2602839339747139,-0.18276528420730379,-0.4797419391645392,0,0,0,0,0,0,1500,1500,1500,1500,1500,1500
1748723530.1789458,0.22,-0.22,-0.09,0.04036073895236887,0.05999569303730508,-0.004363323129985824,-0.2566661859973878,-0.17935937042211078,-0.4809577954058238,0,0,5.116099,0,0,0,1500,1500,1460,1500,1460,1540
1748723530.2793047,0.22,-0.22,-0.09,0.04036073895236887,0.05999569303730508,-0.004363323129985824,-0.2566661859973878,-0.17935937042211078,-0.4809577954058238,0,0,7.5,0,0,0,1538,1538,1456,1500,1420,1580
1748723530.3777554,0.22,-0.23,-0.04,0.039269908169872414,0.04363323129985824,-0.007635815477475192,-0.2537301108162966,-0.17526104053499936,-0.4823418953207335,0,0,7.5,0,0,0,1538,1538,1456,1500,1380,1620
1748723530.4613755,0.22,-0.23,-0.04,0.039269908169872414,0.04363323129985824,-0.007635815477475192,-0.2537301108162966,-0.17526104053499936,-0.4823418953207335,0,0,7.5,0,0,0,1538,1538,1456,1500,1343,1635
1748723530.562251,0.71,0.0,-0.05,0.03599741582238305,0.039269908169872414,-0.00545415391248228,-0.2519032712915451,-0.17132238053295115,-0.4837558086399509,0,0,7.5,0,0,0,1538,1538,1456,1500,1343,1635
1748723530.6778948,0.77,0.62,0.29,-0.013089969389957472,-0.04254240051736178,-0.016362461737446838,-0.25040377664759816,-0.17320932640968717,-0.4845494080241853,0,0,7.5,0,0,0,1538,1538,1456,1500,1343,1635
1748723530.782084,0.77,0.62,0.29,-0.013089969389957472,-0.04254240051736178,-0.016362461737446838,-0.25040377664759816,-0.17320932640968717,-0.4845494080241853,0,0,5.487617,0,0,0,1500,1500,1460,1500,1369,1612
1748723530.8881764,0.21,-0.38,0.23,-0.09272061651219876,-0.055632369907319255,-0.013089969389957472,-0.258818584206054,-0.18167549013665504,-0.48505261129119986,0,0,0,0,0,0,1500,1500,1500,1500,1409,1572
1748723530.9884582,0.05,-0.37,-0.05,-0.10362892433716332,-0.08944812416470939,-0.02399827721492203,-0.2762531996293812,-0.19706900220437334,-0.4839422858795788,0,0,0,0,0,0,1500,1500,1500,1500,1449,1532
1748723531.0893414,-0.26,-0.73,-0.33,-0.0719948316447661,-0.0818123086872342,-0.014180800172453928,-0.29373818014559827,-0.2126891209464977,-0.4824430892499972,0,0,0,0,0,0,1500,1500,1500,1500,1489,1500
1748723531.186213,-0.26,-0.73,-0.33,-0.0719948316447661,-0.0818123086872342,-0.014180800172453928,-0.29373818014559827,-0.2126891209464977,-0.4824430892499972,0,0,0,0,0,0,1500,1500,1500,1500,1500,1500
1748723531.2959905,0.38,0.08,-0.46,0.014180800172453928,-0.08835729338221293,-0.014180800172453928,-0.30617872317537587,-0.23344436650636063,-0.4791829304306632,0,0,0,0,0,0,1500,1500,1500,1500,1500,1500
1748723531.386188,0.38,0.08,-0.46,0.014180800172453928,-0.08835729338221293,-0.014180800172453928,-0.30617872317537587,-0.23344436650636063,-0.4791829304306632,0,0,0,0,0,0,1500,1500,1500,1500,1500,1500
1748723531.4839487,0.19,-0.26,-0.23,0.11562806294462433,-0.061086523819801536,-0.014180800172453928,-0.29994982479744364,-0.2489738043078376,-0.47608706929145717,0,0,0,0,0,0,1500,1500,1500,1500,1500,1500
1748723531.5842614,0.22,-0.14,-0.21,0.18871372537188688,-0.04908738521234052,-0.008726646259971648,-0.28180071469717827,-0.261744235817068,-0.4733615138875831,0,0,0,0,0,0,1500,1500,1500,1500,1500,1500
1748723531.682356,0.22,-0.14,-0.21,0.18871372537188688,-0.04908738521234052,-0.008726646259971648,-0.28180071469717827,-0.261744235817068,-0.4733615138875831,0,0,0,0,0,0,1500,1500,1500,1500,1500,1500
1748723531.7839475,0.17,-0.19,-0.23,0.24216443371421323,-0.038179077387375956,-0.006544984694978736,-0.2564318399605421,-0.2716115413675955,-0.47018251803560895,0,0,0,0,0,0,1500,1500,1500,1500,1500,1500
1748723531.866379,0.17,-0.19,-0.23,0.24216443371421323,-0.038179077387375956,-0.006544984694978736,-0.2564318399605421,-0.2716115413675955,-0.47018251803560895,0,0,0,0,0,0,1500,1500,1500,1500,1500,1500
1748723531.9668522,0.22,-0.2,-0.23,0.27052603405912107,-0.02399827721492203,0.0,-0.22267647397629567,-0.2806579759616041,-0.4674843482324051,0,0,0,0,0,0,1500,1500,1500,1500,1500,1500
1748723532.0640984,0.22,-0.24,-0.21,0.284706834231575,-0.015271630954950384,0.00545415391248228,-0.1875439892344015,-0.2880387076335939,-0.46529404648901257,0,0,0,0,0,0,1500,1500,1500,1500,1500,1500
1748723532.1466017,0.22,-0.24,-0.21,0.284706834231575,-0.015271630954950384,0.00545415391248228,-0.1875439892344015,-0.2880387076335939,-0.46529404648901257,0,0,0,0,0,0,1500,1500,1500,1500,1500,1500
1748723532.2450984,0.17,-0.27,-0.19,0.2781618495365963,-0.01090830782496456,0.015271630954950384,-0.15061895565846065,-0.2944009014302736,-0.4613432307665854,0,0,0,0,0,0,1500,1500,1500,1500,1500,1500
1748723532.3320794,0.16,-0.26,-0.21,0.26070855701665296,-0.001090830782496456,0.0272707695624114,-0.11773997382406541,-0.29870642976164025,-0.45632936166278604,0,0,0,0,0,0,1500,1500,1500,1500,1500,1500
1748723532.4298522,0.16,-0.26,-0.21,0.26070855701665296,-0.001090830782496456,0.0272707695624114,-0.11773997382406541,-0.29870642976164025,-0.45632936166278604,0,0,0,0,0,0,1500,1500,1500,1500,1500,1500
1748723532.5283945,0.22,-0.24,-0.19,0.23234695667174513,0.004363323129985824,0.032724923474893676,-0.08647190829955172,-0.3028564089665443,-0.4497019295018084,0,0,0,0,0,0,1500,1500,1500,1500,1500,1500
1748723532.6344023,0.22,-0.24,-0.19,0.23234695667174513,0.004363323129985824,0.032724923474893676,-0.08647190829955172,-0.3028564089665443,-0.4497019295018084,0,0,0,0,0,0,1500,1500,1500,1500,1500,1500
1748723532.7316618,0.2,-0.22,-0.21,0.19198621771937624,0.00545415391248228,0.04145156973486533,-0.06270123788237619,-0.30679421651479477,-0.4422291368748486,0,0,0,0,0,0,1500,1500,1500,1500,1500,1500
1748723532.8312783,0.19,-0.23,-0.16,0.13962634015954636,0.006544984694978736,0.04908738521234052,-0.044384794568072115,-0.31033555155314096,-0.4333591295001407,0,0,0,0,0,0,1500,1500,1500,1500,1500,1500
1748723532.9126506,0.19,-0.23,-0.16,0.13962634015954636,0.006544984694978736,0.04908738521234052,-0.044384794568072115,-0.31033555155314096,-0.4333591295001407,0,0,0,0,0,0,1500,1500,1500,1500,1500,1500
1748723533.0125804,0.16,-0.23,-0.15,0.08617563181722002,0.013089969389957472,0.0545415391248228,-0.03412215336624701,-0.31323960518068367,-0.42358708567889375,0,0,0,0,0,0,1500,1500,1500,1500,1500,1500
1748723533.1113577,0.16,-0.23,-0.15,0.08617563181722002,0.013089969389957472,0.0545415391248228,-0.03412215336624701,-0.31323960518068367,-0.42358708567889375,0,0,7.5,0,0,0,1538,1538,1460,1500,1460,1540
1748723533.1941385,0.16,-0.24,-0.2,0.03599741582238305,0.013089969389957472,0.05890486225480862,-0.032169648960706024,-0.31594096898503427,-0.4129258159541488,0,0,7.5,0,0,0,1538,1538,1456,1500,1420,1580
1748723533.2953782,0.17,-0.22,-0.19,-0.002181661564992912,0.013089969389957472,0.05999569303730508,-0.03727758688522721,-0.3181123232114723,-0.40242086475329036,0,0,7.5,0,0,0,1538,1538,1456,1500,1380,1620
1748723533.3955164,0.17,-0.22,-0.19,-0.002181661564992912,0.013089969389957472,0.05999569303730508,-0.03727758688522721,-0.3181123232114723,-0.40242086475329036,0,0,7.5,0,0,0,1538,1538,1456,1500,1343,1635
1748723533.4939253,0.23,0.09,-0.16,-0.004363323129985824,0.008726646259971648,0.06872233929727672,-0.04608432681295281,-0.3190563084358055,-0.39096390826494914,0,0,7.5,0,0,0,1538,1538,1456,1500,1343,1635
1748723533.5839806,0.28,-0.27,0.43,-0.10362892433716332,-0.019634954084936207,0.06763150851478027,-0.057239677690224575,-0.3209975882883936,-0.37939960576681736,0,0,7.5,0,0,0,1538,1538,1456,1500,1343,1635
1748723533.6776433,0.28,-0.27,0.43,-0.10362892433716332,-0.019634954084936207,0.06763150851478027,-0.057239677690224575,-0.3209975882883936,-0.37939960576681736,0,0,7.5,0,0,0,1538,1538,1456,1500,1343,1635
1748723533.7787836,0.2,-0.3,0.15,-0.18435040224190105,0.0,0.06763150851478027,-0.08546333483807395,-0.32199345032588833,-0.3685609905552368,0,0,7.5,0,0,0,1538,1538,1456,1500,1343,1635
1748723533.8778353,0.2,-0.3,0.15,-0.18435040224190105,0.0,0.06763150851478027,-0.08546333483807395,-0.32199345032588833,-0.3685609905552368,0,0,7.5,0,0,0,1538,1538,1456,1500,1343,1635
1748723533.9621644,0.23,-0.22,-0.03,-0.1908953869368798,-0.018544123302439753,0.05672320068981571,-0.12332767521018562,-0.32609781750665096,-0.35632046300709574,0,0,7.5,0,0,0,1538,1538,1456,1500,1343,1635
1748723534.0544052,0.14,-0.2,-0.05,-0.15817046346198613,-0.014180800172453928,0.05672320068981571,-0.15909027376656346,-0.33184756140972177,-0.34504311690057554,0,0,7.5,0,0,0,1538,1538,1456,1500,1343,1635
1748723534.1611338,0.14,-0.2,-0.05,-0.15817046346198613,-0.014180800172453928,0.05672320068981571,-0.15909027376656346,-0.33184756140972177,-0.34504311690057554,0,0,7.5,0,0,0,1538,1538,1456,1500,1343,1635
1748723534.2650118,0.27,-0.34,-0.04,-0.12217304763960307,-0.00545415391248228,0.055632369907319255,-0.18563332389523052,-0.3341495269968867,-0.33527674098062177,0,0,7.5,0,0,0,1538,1538,1456,1500,1343,1635
1748723534.3645568,0.27,-0.34,-0.04,-0.12217304763960307,-0.00545415391248228,0.055632369907319255,-0.18563332389523052,-0.3341495269968867,-0.33527674098062177,0,0,7.5,0,0,0,1538,1538,1456,1500,1343,1635
1748723534.4606907,0.28,-0.13,-0.12,-0.06435901616729091,0.014180800172453928,0.06435901616729091,-0.20771062178834201,-0.33574438106292254,-0.32405236865661746,0,0,7.5,0,0,0,1538,1538,1456,1500,1343,1635
1748723534.5603027,0.34,-0.07,-0.1,-0.022907446432425576,0.030543261909900768,0.037088246604879506,-0.22105062569768333,-0.33451802990011975,-0.3149207524536387,0,0,7.5,0,0,0,1538,1538,1456,1500,1343,1635
1748723534.6610863,0.34,-0.07,-0.1,-0.022907446432425576,0.030543261909900768,0.037088246604879506,-0.22105062569768333,-0.33451802990011975,-0.3149207524536387,0,0,5.611455,0,0,0,1500,1500,1460,1500,1367,1614
1748723534.7604573,0.21,-0.18,-0.14,0.011999138607461015,0.04799655442984406,0.017453292519943295,-0.22684631334126415,-0.331596191394306,-0.31100049633658217,0,0,0.0387,0,0,0,1500,1500,1500,1500,1407,1574
1748723534.8604858,0.27,0.12,-0.38,0.044724062082354694,0.07744898555724837,0.003272492347489368,-0.22783881168232617,-0.3263607349926425,-0.31005531271866144,0,0,0,0,0,0,1500,1500,1500,1500,1447,1534
1748723534.9447868,0.27,0.12,-0.38,0.044724062082354694,0.07744898555724837,0.003272492347489368,-0.22783881168232617,-0.3263607349926425,-0.31005531271866144,0,0,0,0,0,0,1500,1500,1500,1500,1487,1500
1748723535.0452037,0.62,0.11,-0.62,0.06654067773228381,0.10253809355466686,-0.017453292519943295,-0.22602387360504841,-0.3183892340008401,-0.31191427917182685,0,0,0,0,0,0,1500,1500,1500,1500,1500,1500
1748723535.1451652,0.62,0.11,-0.62,0.06654067773228381,0.10253809355466686,-0.017453292519943295,-0.22602387360504841,-0.3183892340008401,-0.31191427917182685,0,0,0,0,0,0,1500,1500,1500,1500,1500,1500
1748723535.244949,0.11,-0.41000000000000003,-0.27,0.16907877128695067,0.13308135546456762,-0.025089107997418487,-0.21032487812479764,-0.30796679282432343,-0.3174163668954608,0,0,0,0,0,0,1500,1500,1500,1500,1500,1500
1748723535.34474,0.06,-0.3,-0.26,0.25089107997418486,0.1505346479845109,-0.02945243112740431,-0.17904560997055619,-0.28966280482897394,-0.3246112259193896,0,0,0,0,0,0,1500,1500,1500,1500,1500,1500
1748723535.4274845,0.06,-0.3,-0.26,0.25089107997418486,0.1505346479845109,-0.02945243112740431,-0.17904560997055619,-0.28966280482897394,-0.3246112259193896,0,0,0,0,0,0,1500,1500,1500,1500,1500,1500
1748723535.5270877,0.13,-0.29,-0.23,0.2879793265790644,0.16035212502697901,-0.031634092692397225,-0.14251182526218098,-0.2718857958220208,-0.33119546928737176,0,0,0,0,0,0,1500,1500,1500,1500,1500,1500
1748723535.6225524,0.15,-0.23,-0.22,0.2923426497090502,0.15489797111449674,-0.032724923474893676,-0.10033897359067118,-0.2523819343244627,-0.33807490525925427,0,0,0,0,0,0,1500,1500,1500,1500,1500,1500
1748723535.710225,0.15,-0.23,-0.22,0.2923426497090502,0.15489797111449674,-0.032724923474893676,-0.10033897359067118,-0.2523819343244627,-0.33807490525925427,0,0,0,0,0,0,1500,1500,1500,1500,1500,1500
1748723535.8114386,0.17,-0.17,-0.19,0.2825251726665821,0.15162547876700738,-0.037088246604879506,-0.05852139996216401,-0.23340006342036757,-0.34463458352063564,0,0,0,0,0,0,1500,1500,1500,1500,1500,1500
1748723535.9110372,0.17,-0.17,-0.19,0.2825251726665821,0.15162547876700738,-0.037088246604879506,-0.05852139996216401,-0.23340006342036757,-0.34463458352063564,0,0,0,0,0,0,1500,1500,1500,1500,1500,1500
1748723536.013425,0.16,-0.22,-0.19,0.2519819107566813,0.1439896632895322,-0.032724923474893676,-0.022085224945309363,-0.21629295391052397,-0.35000011449167234,0,0,0.472136,0,0,0,1500,1500,1500,1500,1460,1540
1748723536.111093,0.18,-0.21,-0.18,0.21489366415180183,0.136353847812057,-0.0272707695624114,0.011244342723302065,-0.199350014635522,-0.3541904522574543,0,0,7.5,0,0,0,1538,1538,1460,1500,1420,1580
1748723536.194653,0.18,-0.21,-0.18,0.21489366415180183,0.136353847812057,-0.0272707695624114,0.011244342723302065,-0.199350014635522,-0.3541904522574543,0,0,7.5,0,0,0,1538,1538,1456,1500,1380,1620
1748723536.2944922,-0.23,-0.85,0.06,0.18544123302439752,0.13308135546456762,-0.03490658503988659,0.0380803222375121,-0.18323283676748853,-0.35647403868168004,0,0,7.5,0,0,0,1538,1538,1456,1500,1343,1635
1748723536.394745,-0.23,-0.85,0.06,0.18544123302439752,0.13308135546456762,-0.03490658503988659,0.0380803222375121,-0.18323283676748853,-0.35647403868168004,0,0,7.5,0,0,0,1538,1538,1456,1500,1343,1635
1748723536.4952304,1.06,0.24,0.36,0.09708393964218458,0.10035643198967395,-0.006544984694978736,0.057346199415385046,-0.1688416397458756,-0.3561928340565493,0,0,7.5,0,0,0,1538,1538,1456,1500,1343,1635
1748723536.5954447,0.4,-0.21,0.26,-0.04799655442984406,0.09926560120717749,0.0,0.055274695102698945,-0.15615149789094868,-0.3545945589970797,0,0,7.5,0,0,0,1538,1538,1456,1500,1343,1635
1748723536.6770916,0.4,-0.21,0.26,-0.04799655442984406,0.09926560120717749,0.0,0.055274695102698945,-0.15615149789094868,-0.3545945589970797,0,0,7.252322,0,0,0,1538,1538,1457,1500,1346,1632
1748723536.7793844,0.38,-0.07,0.03,-0.09490227807719166,0.07963064712224129,0.006544984694978736,0.03617219043662635,-0.14884812263649702,-0.35304210026585464,0,0,0.162539,0,0,0,1500,1500,1497,1500,1386,1592
1748723536.8776264,0.38,-0.07,0.03,-0.09490227807719166,0.07963064712224129,0.006544984694978736,0.03617219043662635,-0.14884812263649702,-0.35304210026585464,0,0,0,0,0,0,1500,1500,1500,1500,1426,1552
1748723536.9611692,0.14,-0.43,-0.09,-0.08617563181722002,0.06435901616729091,-0.002181661564992912,0.017395826673318356,-0.14297514791150392,-0.35209671783535995,0,0,0,0,0,0,1500,1500,1500,1500,1466,1512
1748723537.0609705,0.31,-0.27,-0.32,-0.05126904677733343,0.08399397025222712,0.0,0.00367560560591944,-0.13446544335304145,-0.3517177422994333,0,0,0,0,0,0,1500,1500,1500,1500,1500,1500
1748723537.161268,0.31,-0.27,-0.32,-0.05126904677733343,0.08399397025222712,0.0,0.00367560560591944,-0.13446544335304145,-0.3517177422994333,0,0,0,0,0,0,1500,1500,1500,1500,1500,1500
1748723537.2607677,0.24,-0.24,-0.28,0.04254240051736178,0.09926560120717749,0.006544984694978736,-0.0032685744070864386,-0.12363645528396928,-0.3508917274964911,0,0,0,0,0,0,1500,1500,1500,1500,1500,1500
1748723537.351719,-0.16,-0.8300000000000001,-0.05,0.11562806294462433,0.09272061651219876,0.022907446432425576,0.007269631125815784,-0.1114520389674942,-0.34926624564043846,0,0,0,0,0,0,1500,1500,1500,1500,1500,1500
1748723537.4442115,-0.16,-0.8300000000000001,-0.05,0.11562806294462433,0.09272061651219876,0.022907446432425576,0.007269631125815784,-0.1114520389674942,-0.34926624564043846,0,0,0,0,0,0,1500,1500,1500,1500,1500,1500
1748723537.5459566,0.18,0.64,-0.51,0.1908953869368798,0.11126473981463851,0.007635815477475192,0.02978392739465115,-0.09509684272484287,-0.3460697870800958,0,0,0,0,0,0,1500,1500,1500,1500,1500,1500
1748723537.6442065,0.18,0.64,-0.51,0.1908953869368798,0.11126473981463851,0.007635815477475192,0.02978392739465115,-0.09509684272484287,-0.3460697870800958,0,0,0,0,0,0,1500,1500,1500,1500,1500,1500
1748723537.7283936,0.63,-0.19,-0.07,0.22580197197676638,0.10690141668465268,0.016362461737446838,0.05830882014368994,-0.0797990825069003,-0.34226208177036027,0,0,0,0,0,0,1500,1500,1500,1500,1500,1500
1748723537.8267212,0.63,-0.19,-0.07,0.22580197197676638,0.10690141668465268,0.016362461737446838,0.05830882014368994,-0.0797990825069003,-0.34226208177036027,0,0,0,0,0,0,1500,1500,1500,1500,1500,1500
1748723537.9118707,0.59,0.29,-0.6,0.17998707911191522,0.08508480103472356,0.018544123302439753,0.08673268746258435,-0.06603985600059396,-0.33768708965548433,0,0,0,0,0,0,1500,1500,1500,1500,1500,1500
1748723538.0115497,0.6900000000000001,-0.42,-0.19,0.16689710972195776,0.08617563181722002,0.019634954084936207,0.1079772320273084,-0.05739102396920695,-0.3321062384988337,0,0,0,0,0,0,1500,1500,1500,1500,1500,1500
1748723538.1108334,0.6900000000000001,-0.42,-0.19,0.16689710972195776,0.08617563181722002,0.019634954084936207,0.1079772320273084,-0.05739102396920695,-0.3321062384988337,0,0,0,0,0,0,1500,1500,1500,1500,1500,1500
1748723538.1942341,0.87,0.44,0.02,0.15162547876700738,0.06544984694978735,0.02399827721492203,0.12689252925186945,-0.05471169185595324,-0.32631396073425745,0,0,0,0,0,0,1500,1500,1500,1500,1500,1500
1748723538.2955084,0.07,-1.09,0.21,0.09381144729469522,0.025089107997418487,0.03599741582238305,0.14164598116191868,-0.050138519349895175,-0.31985025123284133,0,0,0,0,0,0,1500,1500,1500,1500,1500,1500
1748723538.3956742,0.07,-1.09,0.21,0.09381144729469522,0.025089107997418487,0.03599741582238305,0.14164598116191868,-0.050138519349895175,-0.31985025123284133,0,0,0,0,0,0,1500,1500,1500,1500,1500,1500
1748723538.4939795,0.38,-0.9500000000000001,-0.59,0.08617563181722002,0.026179938779914945,0.04363323129985824,0.15482204843739655,-0.045658491638907665,-0.3133996743038632,0,0,0,0,0,0,1500,1500,1500,1500,1500,1500
1748723538.5953891,0.38,-0.9500000000000001,-0.59,0.08617563181722002,0.026179938779914945,0.04363323129985824,0.15482204843739655,-0.045658491638907665,-0.3133996743038632,0,0,0,0,0,0,1500,1500,1500,1500,1500,1500
1748723538.6948817,0.33,-0.47000000000000003,-0.61,0.06763150851478027,0.02181661564992912,0.04690572364734761,0.16607908791707335,-0.04162530018622964,-0.3061300299352249,0,0,0,0,0,0,1500,1500,1500,1500,1500,1500
1748723538.7943578,-0.27,-1.03,-0.72,0.03599741582238305,0.018544123302439753,0.039269908169872414,0.16955971940167106,-0.04331470062470111,-0.298719945934004,0,0,0,0,0,0,1500,1500,1500,1500,1500,1500
1748723538.8941805,-0.27,-1.03,-0.72,0.03599741582238305,0.018544123302439753,0.039269908169872414,0.16955971940167106,-0.04331470062470111,-0.298719945934004,0,0,0,0,0,0,1500,1500,1500,1500,1500,1500
1748723538.9951441,0.53,-0.67,-0.06,0.016362461737446838,0.017453292519943295,0.039269908169872414,0.17202434779048303,-0.044039416866645725,-0.2915652409454992,0,0,0,0,0,0,1500,1500,1500,1500,1500,1500
1748723539.0943913,0.31,-0.44,-0.02,0.00545415391248228,0.007635815477475192,0.04581489286485115,0.16053148391146452,-0.05707078779995164,-0.28385418561297665,0,0,0,0,0,0,1500,1500,1500,1500,1500,1500
1748723539.177447,0.31,-0.44,-0.02,0.00545415391248228,0.007635815477475192,0.04581489286485115,0.16053148391146452,-0.05707078779995164,-0.28385418561297665,0,0,0,0,0,0,1500,1500,1500,1500,1500,1500
1748723539.2771223,0.25,-0.35000000000000003,-0.05,0.0,0.004363323129985824,0.04581489286485115,0.15145023077222258,-0.06566085800655747,-0.2767633071166493,0,0,0,0,0,0,1500,1500,1500,1500,1500,1500
1748723539.376697,0.25,-0.35000000000000003,-0.05,0.0,0.004363323129985824,0.04581489286485115,0.15145023077222258,-0.06566085800655747,-0.2767633071166493,0,0,0,0,0,0,1500,1500,1500,1500,1500,1500
1748723539.4608247,0.28,-0.36,-0.1,0.00545415391248228,-0.001090830782496456,0.044724062082354694,0.14357655921218263,-0.07368003729134366,-0.2691286530108291,0,0,0,0,0,0,1500,1500,1500,1500,1500,1500
1748723539.5615034,0.31,-0.02,-0.23,0.009817477042468103,-0.00545415391248228,0.04581489286485115,0.13792784241410105,-0.08008024142113188,-0.2619302615927018,0,0,0,0,0,0,1500,1500,1500,1500,1500,1500
1748723539.6607583,0.31,-0.02,-0.23,0.009817477042468103,-0.00545415391248228,0.04581489286485115,0.13792784241410105,-0.08008024142113188,-0.2619302615927018,0,0,0,0,0,0,1500,1500,1500,1500,1500,1500
1748723539.7611182,0.36,-0.19,-0.1,0.01090830782496456,0.0,0.04036073895236887,0.1334601721469774,-0.08655868470178968,-0.25427411343784645,0,0,0,0,0,0,1500,1500,1500,1500,1500,1500
1748723539.8603985,0.31,0.25,-0.32,0.018544123302439753,0.002181661564992912,0.037088246604879506,0.13051291369133772,-0.09213159521604719,-0.24786536606217044,0,0,0,0,0,0,1500,1500,1500,1500,1500,1500
1748723539.9443922,0.31,0.25,-0.32,0.018544123302439753,0.002181661564992912,0.037088246604879506,0.13051291369133772,-0.09213159521604719,-0.24786536606217044,0,0,0,0,0,0,1500,1500,1500,1500,1500,1500
1748723540.0441267,0.38,-0.03,-0.16,0.017453292519943295,-0.002181661564992912,0.04036073895236887,0.12913905338038578,-0.09701798780243759,-0.24097140196883238,0,0,0,0,0,0,1500,1500,1500,1500,1500,1500
1748723540.144267,0.38,-0.03,-0.16,0.017453292519943295,-0.002181661564992912,0.04036073895236887,0.12913905338038578,-0.09701798780243759,-0.24097140196883238,0,0,0,0,0,0,1500,1500,1500,1500,1500,1500
1748723540.227568,0.28,-0.2,-0.14,0.022907446432425576,-0.007635815477475192,0.038179077387375956,0.1267747903268084,-0.10313073575726171,-0.2339939105468109,0,0,0,0,0,0,1500,1500,1500,1500,1500,1500
1748723540.3287287,0.28,-0.2,-0.14,0.022907446432425576,-0.007635815477475192,0.038179077387375956,0.1267747903268084,-0.10313073575726171,-0.2339939105468109,0,0,0,0,0,0,1500,1500,1500,1500,1500,1500
1748723540.4278948,0.21,-0.26,-0.1,0.02181661564992912,-0.01090830782496456,0.030543261909900768,0.1252750682295226,-0.10933851134999824,-0.22755063754269744,0,0,0,0,0,0,1500,1500,1500,1500,1500,1500
1748723540.5274298,0.3,-0.04,0.01,0.014180800172453928,-0.019634954084936207,0.038179077387375956,0.1230212409250776,-0.11533557081381474,-0.22178373265696058,0,0,0,0,0,0,1500,1500,1500,1500,1500,1500
1748723540.6274614,0.3,-0.04,0.01,0.014180800172453928,-0.019634954084936207,0.038179077387375956,0.1230212409250776,-0.11533557081381474,-0.22178373265696058,0,0,0,0,0,0,1500,1500,1500,1500,1500,1500
1748723540.710458,0.05,-0.19,-0.38,0.018544123302439753,-0.015271630954950384,0.03599741582238305,0.12193271613363352,-0.12218910874870263,-0.21589734796135654,0,0,0,0,0,0,1500,1500,1500,1500,1500,1500
1748723540.81147,0.28,0.08,-0.01,0.002181661564992912,-0.02181661564992912,0.04036073895236887,0.1202449716788327,-0.12918424190635194,-0.21058468053816462,0,0,0,0,0,0,1500,1500,1500,1500,1500,1500
1748723540.9108014,0.28,0.08,-0.01,0.002181661564992912,-0.02181661564992912,0.04036073895236887,0.1202449716788327,-0.12918424190635194,-0.21058468053816462,0,0,0,0,0,0,1500,1500,1500,1500,1500,1500
1748723541.0107923,0.24,-0.29,-0.08,0.009817477042468103,-0.02399827721492203,0.037088246604879506,0.11856728931299836,-0.1378919426289788,-0.20512121708208053,0,0,0,0,0,0,1500,1500,1500,1500,1500,1500
1748723541.1109574,0.24,-0.29,-0.08,0.009817477042468103,-0.02399827721492203,0.037088246604879506,0.11856728931299836,-0.1378919426289788,-0.20512121708208053,0,0,0,0,0,0,1500,1500,1500,1500,1500,1500
1748723541.1941566,0.35000000000000003,-0.17,-0.24,0.003272492347489368,-0.031634092692397225,0.03490658503988659,0.11478413640461443,-0.1479063402267948,-0.19982578124614053,0,0,0,0,0,0,1500,1500,1500,1500,1500,1500
1748723541.294278,0.13,-0.27,-0.25,-0.004363323129985824,-0.030543261909900768,0.031634092692397225,0.11114551261851617,-0.15874316529257845,-0.19442856091471575,0,0,0,0,0,0,1500,1500,1500,1500,1500,1500
1748723541.394244,0.13,-0.27,-0.25,-0.004363323129985824,-0.030543261909900768,0.031634092692397225,0.11114551261851617,-0.15874316529257845,-0.19442856091471575,0,0,0,0,0,0,1500,1500,1500,1500,1500,1500
1748723541.4764407,-0.1,-0.29,-0.07,-0.016362461737446838,-0.03490658503988659,0.03381575425739013,0.10478450130124312,-0.170195451679693,-0.18879732483156372,0,0,0,0,0,0,1500,1500,1500,1500,1500,1500
1748723541.5777626,-0.1,-0.29,-0.07,-0.016362461737446838,-0.03490658503988659,0.03381575425739013,0.10478450130124312,-0.170195451679693,-0.18879732483156372,0,0,0,0,0,0,1500,1500,1500,1500,1500,1500
1748723541.6767213,0.35000000000000003,-0.27,-0.03,-0.009817477042468103,-0.03490658503988659,0.04036073895236887,0.09952659545349077,-0.18210769055246065,-0.18334192153446388,0,0,0,0,0,0,1500,1500,1500,1500,1500,1500
1748723541.7780442,0.52,0.16,-0.13,-0.015271630954950384,-0.02399827721492203,0.026179938779914945,0.09462225546906783,-0.1898838744355791,-0.17850742504472863,0,0,0,0,0,0,1500,1500,1500,1500,1500,1500
1748723541.8775306,0.52,0.16,-0.13,-0.015271630954950384,-0.02399827721492203,0.026179938779914945,0.09462225546906783,-0.1898838744355791,-0.17850742504472863,0,0,0,0,0,0,1500,1500,1500,1500,1500,1500
1748723541.961606,0.24,-0.17,-0.17,-0.009817477042468103,-0.02945243112740431,0.025089107997418487,0.08904592917506886,-0.20014722325118683,-0.1736928877236067,0,0,0,0,0,0,1500,1500,1500,1500,1500,1500
1748723542.0607975,0.26,-0.15,-0.13,-0.018544123302439753,-0.019634954084936207,0.02399827721492203,0.08283418423998327,-0.20857000153479746,-0.16952842454605896,0,0,0,0,0,0,1500,1500,1500,1500,1500,1500
1748723542.16054,0.26,-0.15,-0.13,-0.018544123302439753,-0.019634954084936207,0.02399827721492203,0.08283418423998327,-0.20857000153479746,-0.16952842454605896,0,0,0,0,0,0,1500,1500,1500,1500,1500,1500
1748723542.2601962,0.28,-0.16,-0.15,-0.020725784867432664,-0.016362461737446838,0.015271630954950384,0.07626152419534707,-0.21685355575233817,-0.16588052954421262,0,0,0,0,0,0,1500,1500,1500,1500,1500,1500
1748723542.3607721,0.28,-0.16,-0.15,-0.020725784867432664,-0.016362461737446838,0.015271630954950384,0.07626152419534707,-0.21685355575233817,-0.16588052954421262,0,0,0,0,0,0,1500,1500,1500,1500,1500,1500
1748723542.4488978,0.3,-0.05,-0.18,-0.026179938779914945,-0.01090830782496456,0.014180800172453928,0.06867916567191336,-0.2246770773874435,-0.16265332214478595,0,0,0,0,0,0,1500,1500,1500,1500,1500,1500
1748723542.545621,0.27,-0.16,-0.23,-0.0272707695624114,-0.008726646259971648,0.014180800172453928,0.06012900130119685,-0.23133591762537317,-0.15959022397575698,0,0,0,0,0,0,1500,1500,1500,1500,1500,1500
1748723542.6442513,0.27,-0.16,-0.23,-0.0272707695624114,-0.008726646259971648,0.014180800172453928,0.06012900130119685,-0.23133591762537317,-0.15959022397575698,0,0,0,0,0,0,1500,1500,1500,1500,1500,1500
1748723542.7271557,0.24,-0.14,-0.16,-0.028361600344907856,0.001090830782496456,0.004363323129985824,0.05169510101150937,-0.23742907573972827,-0.15806201028916106,0,0,0,0,0,0,1500,1500,1500,1500,1500,1500
1748723542.8272283,0.24,-0.14,-0.16,-0.028361600344907856,0.001090830782496456,0.004363323129985824,0.05169510101150937,-0.23742907573972827,-0.15806201028916106,0,0,0,0,0,0,1500,1500,1500,1500,1500,1500
1748723542.928122,0.24,-0.2,-0.09,-0.02945243112740431,0.004363323129985824,0.006544984694978736,0.04366024804169958,-0.24311274328376295,-0.15714321835334646,0,0,0,0,0,0,1500,1500,1500,1500,1500,1500
1748723543.0271592,0.24,-0.21,-0.18,-0.030543261909900768,0.008726646259971648,-0.002181661564992912,0.03474354948359469,-0.24874162190228052,-0.15619488114004804,0,0,0,0,0,0,1500,1500,1500,1500,1500,1500
1748723543.127597,0.24,-0.21,-0.18,-0.030543261909900768,0.008726646259971648,-0.002181661564992912,0.03474354948359469,-0.24874162190228052,-0.15619488114004804,0,0,0,0,0,0,1500,1500,1500,1500,1500,1500
1748723543.2095954,0.13,-0.24,-0.2,-0.0272707695624114,0.006544984694978736,-0.01090830782496456,0.026522468481521125,-0.25369507206465747,-0.15539659615458798,0,0,0,0,0,0,1500,1500,1500,1500,1500,1500
1748723543.3058836,0.36,-0.17,-0.25,-0.031634092692397225,0.003272492347489368,-0.006544984694978736,0.018341521763855485,-0.25777041480363433,-0.15454410418379702,0,0,0,0,0,0,1500,1500,1500,1500,1500,1500
1748723543.4107397,0.36,-0.17,-0.25,-0.031634092692397225,0.003272492347489368,-0.006544984694978736,0.018341521763855485,-0.25777041480363433,-0.15454410418379702,0,0,0,0,0,0,1500,1500,1500,1500,1500,1500
1748723543.5117764,0.35000000000000003,-0.39,-0.21,-0.037088246604879506,0.016362461737446838,-0.013089969389957472,0.008656338610819098,-0.2612337045940129,-0.15395585594145422,0,0,0,0,0,0,1500,1500,1500,1500,1500,1500
1748723543.6098263,0.35000000000000003,-0.39,-0.21,-0.037088246604879506,0.016362461737446838,-0.013089969389957472,0.008656338610819098,-0.2612337045940129,-0.15395585594145422,0,0,0,0,0,0,1500,1500,1500,1500,1500,1500
1748723543.6938987,0.21,-0.28,-0.18,-0.032724923474893676,0.01090830782496456,-0.009817477042468103,-0.49597986821397116,-0.224046785831907,2.607511797319512,0,0,0,0,0,0,1500,1500,1500,1500,1500,1500
1748723543.794247,0.28,-0.25,-0.18,-0.02945243112740431,0.014180800172453928,-0.016362461737446838,-0.008341951446468758,-0.2683793106834425,-0.15572108144594934,0,0,0,0,0,0,1500,1500,1500,1500,1500,1500
1748723543.894256,0.28,-0.25,-0.18,-0.02945243112740431,0.014180800172453928,-0.016362461737446838,-0.008341951446468758,-0.2683793106834425,-0.15572108144594934,0,0,0,0,0,0,1500,1500,1500,1500,1500,1500
1748723543.9777148,0.24,-0.42,-0.32,-0.028361600344907856,0.013089969389957472,-0.015271630954950384,-0.017300079070943497,-0.2735519917166676,-0.15687171994521656,0,0,0,0,0,0,1500,1500,1500,1500,1500,1500
1748723544.0761652,0.24,-0.42,-0.32,-0.028361600344907856,0.013089969389957472,-0.015271630954950384,-0.017300079070943497,-0.2735519917166676,-0.15687171994521656,0,0,0,0,0,0,1500,1500,1500,1500,1500,1500
1748723544.1773472,0.2,-0.21,-0.08,-0.017453292519943295,0.013089969389957472,-0.017453292519943295,-0.025252318029796095,-0.27904218446328893,-0.1580035585185521,0,0,0,0,0,0,1500,1500,1500,1500,1500,1500
1748723544.2767437,0.08,-0.09,-0.38,-0.016362461737446838,0.006544984694978736,-0.013089969389957472,-0.030323545495715174,-0.28082699329858296,-0.15876977994975525,0,0,0,0,0,0,1500,1500,1500,1500,1500,1500
1748723544.376463,0.08,-0.09,-0.38,-0.016362461737446838,0.006544984694978736,-0.013089969389957472,-0.030323545495715174,-0.28082699329858296,-0.15876977994975525,0,0,0,0,0,0,1500,1500,1500,1500,1500,1500
1748723544.461881,-0.03,-0.3,-0.29,-0.003272492347489368,0.013089969389957472,-0.011999138607461015,-0.039148833327073716,-0.2861079881458725,-0.1582312690094667,0,0,0,0,0,0,1500,1500,1500,1500,1500,1500
1748723544.5603707,-0.03,-0.3,-0.29,-0.003272492347489368,0.013089969389957472,-0.011999138607461015,-0.039148833327073716,-0.2861079881458725,-0.1582312690094667,0,0,0,0,0,0,1500,1500,1500,1500,1500,1500
1748723544.6606596,0.21,-0.15,-0.19,-0.009817477042468103,0.01090830782496456,-0.015271630954950384,-0.044756257832075305,-0.28994520075587443,-0.159369325259523,0,0,0,0,0,0,1500,1500,1500,1500,1500,1500
1748723544.760021,0.2,-0.27,-0.11,-0.00545415391248228,0.008726646259971648,-0.016362461737446838,-0.05000796433288056,-0.2940064158925237,-0.16029239115345986,0,0,0,0,0,0,1500,1500,1500,1500,1500,1500
1748723544.8608444,0.2,-0.27,-0.11,-0.00545415391248228,0.008726646259971648,-0.016362461737446838,-0.05000796433288056,-0.2940064158925237,-0.16029239115345986,0,0,0,0,0,0,1500,1500,1500,1500,1500,1500
1748723544.9429622,0.6,0.33,-0.15,-0.002181661564992912,0.022907446432425576,-0.031634092692397225,-0.054282922098140333,-0.2971421042263787,-0.1616032478469255,0,0,0,0,0,0,1500,1500,1500,1500,1500,1500
1748723545.0440962,0.6,0.33,-0.15,-0.002181661564992912,0.022907446432425576,-0.031634092692397225,-0.054282922098140333,-0.2971421042263787,-0.1616032478469255,0,0,0,0,0,0,1500,1500,1500,1500,1500,1500
1748723545.1441364,0.17,-0.28,-0.03,0.003272492347489368,0.015271630954950384,-0.0272707695624114,-0.05572461901245294,-0.29758707621954195,-0.16336903364600025,0,0,0,0,0,0,1500,1500,1500,1500,1500,1500
1748723545.2268953,1.05,1.12,-0.8300000000000001,-0.002181661564992912,0.028361600344907856,-0.017453292519943295,-0.058436114870509016,-0.2979226259740161,-0.16581419018685262,0,0,0,0,0,0,1500,1500,1500,1500,1500,1500
1748723545.3274446,1.05,1.12,-0.8300000000000001,-0.002181661564992912,0.028361600344907856,-0.017453292519943295,-0.058436114870509016,-0.2979226259740161,-0.16581419018685262,0,0,0,0,0,0,1500,1500,1500,1500,1500,1500
1748723545.4274688,0.75,0.8,-0.72,0.0,0.022907446432425576,-0.022907446432425576,-0.06127229330786881,-0.2977863444174534,-0.16849385157458252,0,0,0,0,0,0,1500,1500,1500,1500,1500,1500
1748723545.526913,-0.67,-2.0100000000000002,0.54,-0.006544984694978736,0.001090830782496456,-0.016362461737446838,-0.06199329414039965,-0.29651481865709706,-0.1718840890307635,0,0,0,0,0,0,1500,1500,1500,1500,1500,1500
1748723545.6269803,-0.67,-2.0100000000000002,0.54,-0.006544984694978736,0.001090830782496456,-0.016362461737446838,-0.06199329414039965,-0.29651481865709706,-0.1718840890307635,0,0,0,0,0,0,1500,1500,1500,1500,1500,1500
1748723545.7099633,1.1300000000000001,0.33,-1.02,-0.017453292519943295,-0.001090830782496456,-0.020725784867432664,-0.06302639303270394,-0.29638940869592906,-0.17508995823905027,0,0,0,0,0,0,1500,1500,1500,1500,1500,1500
1748723545.8109558,1.1300000000000001,0.33,-1.02,-0.017453292519943295,-0.001090830782496456,-0.020725784867432664,-0.06302639303270394,-0.29638940869592906,-0.17508995823905027,0,0,0,0,0,0,1500,1500,1500,1500,1500,1500
1748723545.911634,0.49,-0.51,-1.04,-0.019634954084936207,-0.006544984694978736,-0.028361600344907856,-0.0658154675929135,-0.2986170755973801,-0.17761011712905697,0,0,0,0,0,0,1500,1500,1500,1500,1500,1500
1748723546.0114367,1.29,1.18,-0.62,0.0,0.016362461737446838,-0.018544123302439753,-0.0653778150510233,-0.29763067897860007,-0.18117160500495325,0,0,0,0,0,0,1500,1500,1500,1500,1500,1500
1748723546.109895,1.29,1.18,-0.62,0.0,0.016362461737446838,-0.018544123302439753,-0.0653778150510233,-0.29763067897860007,-0.18117160500495325,0,0,0,0,0,0,1500,1500,1500,1500,1500,1500
1748723546.1940825,0.23,-0.65,-0.2,0.008726646259971648,0.0,-0.019634954084936207,-0.07034640495254009,-0.29893270277775064,-0.18289363925329008,0,0,0,0,0,0,1500,1500,1500,1500,1500,1500
1748723546.294133,0.23,-0.65,-0.2,0.008726646259971648,0.0,-0.019634954084936207,-0.07034640495254009,-0.29893270277775064,-0.18289363925329008,0,0,0,0,0,0,1500,1500,1500,1500,1500,1500
1748723546.393445,0.17,-0.63,-0.14,0.018544123302439753,0.006544984694978736,-0.025089107997418487,-0.07950657940266967,-0.3154442957746334,-0.18273262917900204,0,0,0,0,0,0,1500,1500,1500,1500,1500,1500
1748723546.4775124,0.56,-0.43,-0.56,0.009817477042468103,0.001090830782496456,-0.019634954084936207,-0.09043799142062453,-0.3235906823320435,-0.18241106971451895,0,0,0,0,0,0,1500,1500,1500,1500,1500,1500
1748723546.577325,0.56,-0.43,-0.56,0.009817477042468103,0.001090830782496456,-0.019634954084936207,-0.09043799142062453,-0.3235906823320435,-0.18241106971451895,0,0,0,0,0,0,1500,1500,1500,1500,1500,1500
1748723546.6769767,0.26,-0.38,-0.22,0.001090830782496456,-0.002181661564992912,-0.02181661564992912,-0.09943195353711927,-0.3302080469383116,-0.18261411580590511,0,0,0,0,0,0,1500,1500,1500,1500,1500,1500
1748723546.7768571,0.26,-0.38,-0.22,0.001090830782496456,-0.002181661564992912,-0.02181661564992912,-0.09943195353711927,-0.3302080469383116,-0.18261411580590511,0,0,0,0,0,0,1500,1500,1500,1500,1500,1500
1748723546.8773594,0.34,-0.22,-0.29,0.001090830782496456,-0.001090830782496456,-0.02181661564992912,-0.10696466319841522,-0.33774495881089106,-0.183714688386861,0,0,0,0,0,0,1500,1500,1500,1500,1500,1500
1748723546.9602568,0.14,-0.32,-0.18,-0.002181661564992912,-0.006544984694978736,-0.02399827721492203,-0.11312938459848984,-0.3444669644512307,-0.18529341123794268,0,0,0,0,0,0,1500,1500,1500,1500,1500,1500
1748723547.060465,0.14,-0.32,-0.18,-0.002181661564992912,-0.006544984694978736,-0.02399827721492203,-0.11312938459848984,-0.3444669644512307,-0.18529341123794268,0,0,0,0,0,0,1500,1500,1500,1500,1500,1500
1748723547.1603231,0.19,-0.28,-0.23,-0.006544984694978736,-0.004363323129985824,-0.025089107997418487,-0.11946426037708531,-0.35071989959986183,-0.18682536160333282,0,0,0,0,0,0,1500,1500,1500,1500,1500,1500
1748723547.2607992,0.15,-0.34,-0.24,-0.001090830782496456,-0.006544984694978736,-0.026179938779914945,-0.12457237701563954,-0.3558778463484188,-0.1887018874186902,0,0,0,0,0,0,1500,1500,1500,1500,1500,1500
1748723547.3599436,0.15,-0.34,-0.24,-0.001090830782496456,-0.006544984694978736,-0.026179938779914945,-0.12457237701563954,-0.3558778463484188,-0.1887018874186902,0,0,0,0,0,0,1500,1500,1500,1500,1500,1500
1748723547.4430745,0.2,-0.26,-0.19,0.0,-0.011999138607461015,-0.0272707695624114,-0.13029887702115397,-0.361262618627178,-0.19057793023868447,0,0,0,0,0,0,1500,1500,1500,1500,1500,1500
1748723547.5426092,0.2,-0.26,-0.19,0.0,-0.011999138607461015,-0.0272707695624114,-0.13029887702115397,-0.361262618627178,-0.19057793023868447,0,0,0,0,0,0,1500,1500,1500,1500,1500,1500
1748723547.6427748,0.19,-0.28,-0.2,-0.006544984694978736,-0.00545415391248228,-0.026179938779914945,-0.1355445470948321,-0.36684886866353683,-0.19225700822037217,0,0,5.673375,0,0,0,1500,1500,1460,1500,1460,1540
1748723547.7275634,0.18,-0.26,-0.21,0.0,-0.003272492347489368,-0.02399827721492203,-0.14091210422371445,-0.37266842917326615,-0.1937297844251557,0,0,7.5,0,0,0,1538,1538,1456,1500,1420,1580
1748723547.826506,0.18,-0.26,-0.21,0.0,-0.003272492347489368,-0.02399827721492203,-0.14091210422371445,-0.37266842917326615,-0.1937297844251557,0,0,7.5,0,0,0,1538,1538,1456,1500,1380,1620
1748723547.9272892,1.53,0.22,-0.41000000000000003,-0.014180800172453928,-0.019634954084936207,-0.04581489286485115,-0.14399379379038743,-0.37727816258194913,-0.19668341793536998,0,0,7.5,0,0,0,1538,1538,1456,1500,1343,1635
1748723548.0273392,1.53,0.22,-0.41000000000000003,-0.014180800172453928,-0.019634954084936207,-0.04581489286485115,-0.14399379379038743,-0.37727816258194913,-0.19668341793536998,0,0,7.5,0,0,0,1538,1538,1456,1500,1343,1635
1748723548.126681,0.7000000000000001,-0.48,0.63,0.028361600344907856,-0.03490658503988659,-0.02399827721492203,-0.1423242304097766,-0.38342666305360573,-0.20019433282788593,0,0,7.5,0,0,0,1538,1538,1456,1500,1343,1635
1748723548.2114058,0.38,-0.27,0.19,-0.136353847812057,-0.001090830782496456,-0.03381575425739013,-0.15069181188841624,-0.38742296372588136,-0.20455337362491882,0,0,7.5,0,0,0,1538,1538,1456,1500,1343,1635
1748723548.311697,0.38,-0.27,0.19,-0.136353847812057,-0.001090830782496456,-0.03381575425739013,-0.15069181188841624,-0.38742296372588136,-0.20455337362491882,0,0,7.5,0,0,0,1538,1538,1456,1500,1343,1635
1748723548.4105022,0.41000000000000003,-0.24,-0.04,-0.2007128639793479,0.0,-0.04145156973486533,-0.17957989226266738,-0.39310513806691066,-0.20802105714112812,0,0,7.5,0,0,0,1538,1538,1456,1500,1343,1635
1748723548.5106854,0.41000000000000003,-0.24,-0.04,-0.2007128639793479,0.0,-0.04145156973486533,-0.17957989226266738,-0.39310513806691066,-0.20802105714112812,0,0,7.5,0,0,0,1538,1538,1456,1500,1343,1635
1748723548.6106951,0.22,-0.15,-0.08,-0.1908953869368798,0.003272492347489368,-0.04581489286485115,-0.21373636455860354,-0.3996349080005762,-0.2131116534304435,0,0,7.5,0,0,0,1538,1538,1456,1500,1343,1635
1748723548.693282,0.27,-0.06,-0.13,-0.1734420944169365,0.01090830782496456,-0.032724923474893676,-0.24339225535943562,-0.404945284239776,-0.2170478147668444,0,0,7.5,0,0,0,1538,1538,1456,1500,1343,1635
1748723548.7938776,0.27,-0.06,-0.13,-0.1734420944169365,0.01090830782496456,-0.032724923474893676,-0.24339225535943562,-0.404945284239776,-0.2170478147668444,0,0,7.5,0,0,0,1538,1538,1456,1500,1343,1635
1748723548.8942354,0.29,-0.35000000000000003,-0.09,-0.12980886311707826,0.038179077387375956,-0.022907446432425576,-0.2704627863644756,-0.40720300020286837,-0.22097900268855994,0,0,7.5,0,0,0,1538,1538,1456,1500,1343,1635
1748723548.9769428,0.29,-0.35000000000000003,-0.09,-0.12980886311707826,0.038179077387375956,-0.022907446432425576,-0.2704627863644756,-0.40720300020286837,-0.22097900268855994,0,0,7.5,0,0,0,1538,1538,1456,1500,1343,1635
1748723549.0766935,0.3,-0.31,-0.17,-0.09490227807719166,0.0719948316447661,-0.00545415391248228,-0.2904765186922667,-0.4046351868661966,-0.22368121228374024,0,0,7.5,0,0,0,1538,1538,1456,1500,1343,1635
1748723549.1770499,0.36,-0.26,-0.19,-0.0545415391248228,0.08617563181722002,-0.018544123302439753,-0.3053987274469945,-0.39850800039830847,-0.22626289359228685,0,0,7.5,0,0,0,1538,1538,1456,1500,1343,1635
1748723549.277067,0.36,-0.26,-0.19,-0.0545415391248228,0.08617563181722002,-0.018544123302439753,-0.3053987274469945,-0.39850800039830847,-0.22626289359228685,0,0,7.5,0,0,0,1538,1538,1456,1500,1343,1635
1748723549.3772786,0.37,-0.39,-0.06,-0.030543261909900768,0.1090830782496456,-0.03490658503988659,-0.31483485040841314,-0.39004687291888895,-0.23278686343417215,0,0,7.5,0,0,0,1538,1538,1456,1500,1343,1635
1748723549.460668,0.31,-0.32,-0.14,0.001090830782496456,0.13853550937704992,-0.0272707695624114,-0.32002311347838414,-0.3794857636505577,-0.24123196753036033,0,0,7.5,0,0,0,1538,1538,1456,1500,1343,1635
1748723549.5605721,0.31,-0.32,-0.14,0.001090830782496456,0.13853550937704992,-0.0272707695624114,-0.32002311347838414,-0.3794857636505577,-0.24123196753036033,0,0,7.5,0,0,0,1538,1538,1456,1500,1343,1635
1748723549.660183,0.08,-0.44,-0.06,0.019634954084936207,0.16471544815696484,-0.032724923474893676,-0.32016968695096165,-0.3650734735173756,-0.2513463719437972,0,0,7.5,0,0,0,1538,1538,1456,1500,1343,1635
1748723549.7613003,0.08,-0.44,-0.06,0.019634954084936207,0.16471544815696484,-0.032724923474893676,-0.32016968695096165,-0.3650734735173756,-0.2513463719437972,0,0,7.5,0,0,0,1538,1538,1456,1500,1343,1635
1748723549.86333,0.42,0.09,-0.22,0.05235987755982989,0.17889624832941878,-0.032724923474893676,-0.3159406054189268,-0.3454790440027501,-0.26309825205478704,0,0,7.5,0,0,0,1538,1538,1456,1500,1343,1635
1748723549.9611259,0.04,-0.31,-0.12,0.08835729338221293,0.20398535632683726,-0.02945243112740431,-0.3083126531573546,-0.3239455510895,-0.2748969026067962,0,0,3.041796,0,0,0,1500,1500,1496,1500,1383,1595
1748723550.0608933,0.04,-0.31,-0.12,0.08835729338221293,0.20398535632683726,-0.02945243112740431,-0.3083126531573546,-0.3239455510895,-0.2748969026067962,0,0,7.5,0,0,0,1538,1538,1456,1500,1343,1635
1748723550.1606815,0.24,-0.14,-0.62,0.1189005552921137,0.22252947962927702,-0.031634092692397225,-0.29399937507300306,-0.2987452686407097,-0.2883321798762022,0,0,7.5,0,0,0,1538,1538,1456,1500,1343,1635
1748723550.2617695,0.19,-0.28,0.05,0.14180800172453928,0.2585268954516601,-0.06544984694978735,-0.2688815142631224,-0.2662222442669124,-0.3075626099169917,0,0,7.5,0,0,0,1538,1538,1456,1500,1343,1635
1748723550.3625143,0.19,-0.28,0.05,0.14180800172453928,0.2585268954516601,-0.06544984694978735,-0.2688815142631224,-0.2662222442669124,-0.3075626099169917,0,0,0,0,0,0,1500,1500,1496,1500,1383,1595
1748723550.4433746,0.12,0.07,-0.07,0.15817046346198613,0.2781618495365963,-0.07417649320975901,-0.2482035928919314,-0.23496257163656792,-0.3290581832486728,0,0,0,0,0,0,1500,1500,1500,1500,1423,1555
1748723550.5441344,0.12,0.07,-0.07,0.15817046346198613,0.2781618495365963,-0.07417649320975901,-0.2482035928919314,-0.23496257163656792,-0.3290581832486728,0,0,0,0,0,0,1500,1500,1500,1500,1463,1515
1748723550.643312,0.53,-0.1,-0.68,0.1559888018969932,0.27598018797160334,-0.0818123086872342,-0.22284590869207943,-0.20024118911585156,-0.3509984980854787,0,0,0,0,0,0,1500,1500,1500,1500,1500,1500
1748723550.728868,0.78,0.24,-0.49,0.19416787928436915,0.24870941840919197,-0.06763150851478027,-0.20491551025287064,-0.1735740095726827,-0.3684263385263072,0,0,0,0,0,0,1500,1500,1500,1500,1500,1500
1748723550.8331835,0.78,0.24,-0.49,0.19416787928436915,0.24870941840919197,-0.06763150851478027,-0.20491551025287064,-0.1735740095726827,-0.3684263385263072,0,0,0,0,0,0,1500,1500,1500,1500,1500,1500
1748723550.9280999,0.28,-0.37,-0.13,0.28579766501407144,0.25089107997418486,-0.07090400086226964,-0.17298920741866478,-0.14427223809342313,-0.3857857749476024,0,0,0,0,0,0,1500,1500,1500,1500,1500,1500
1748723551.027877,0.3,-0.07,-0.25,0.30652344988150415,0.23671027980173096,-0.04908738521234052,-0.13512715394187114,-0.1152616470729564,-0.3990440557026042,0,0,0,0,0,0,1500,1500,1500,1500,1500,1500
1748723551.1268108,0.3,-0.07,-0.25,0.30652344988150415,0.23671027980173096,-0.04908738521234052,-0.13512715394187114,-0.1152616470729564,-0.3990440557026042,0,0,0,0,0,0,1500,1500,1500,1500,1500,1500
1748723551.210633,0.18,-0.34,-0.12,0.3108867730114899,0.22252947962927702,-0.039269908169872414,-0.09110334693171311,-0.08546856857174599,-0.4096362966017813,0,0,0,0,0,0,1500,1500,1500,1500,1500,1500
1748723551.3108125,0.18,-0.34,-0.12,0.3108867730114899,0.22252947962927702,-0.039269908169872414,-0.09110334693171311,-0.08546856857174599,-0.4096362966017813,0,0,0,0,0,0,1500,1500,1500,1500,1500,1500
1748723551.4103725,0.21,-0.27,-0.17,0.3021601267515183,0.21271200258680892,-0.04036073895236887,-0.049357345158790235,-0.05927393378540985,-0.4177941898678501,0,0,0,0,0,0,1500,1500,1500,1500,1500,1500
1748723551.5100923,-0.01,-1.0,-0.32,0.2694352032766246,0.1908953869368798,-0.03381575425739013,-0.011052129194599667,-0.035096227902673645,-0.42407209201623014,0,0,0,0,0,0,1500,1500,1500,1500,1500,1500
1748723551.6099205,-0.01,-1.0,-0.32,0.2694352032766246,0.1908953869368798,-0.03381575425739013,-0.011052129194599667,-0.035096227902673645,-0.42407209201623014,0,0,0,0,0,0,1500,1500,1500,1500,1500,1500
1748723551.694023,0.62,-0.65,0.14,0.22471114119426994,0.14508049407202864,-0.03381575425739013,0.028632075770908122,-0.00813262188664054,-0.4288498087658768,0,0,0,0,0,0,1500,1500,1500,1500,1500,1500
1748723551.794069,0.62,-0.65,0.14,0.22471114119426994,0.14508049407202864,-0.03381575425739013,0.028632075770908122,-0.00813262188664054,-0.4288498087658768,0,0,0,0,0,0,1500,1500,1500,1500,1500,1500
1748723551.8928015,0.3,-0.11,0.26,0.19962203319685143,0.13308135546456762,-0.039269908169872414,0.06468423428494079,-0.0036705591250539025,-0.4324279966675067,0,0,0,0,0,0,1500,1500,1500,1500,1500,1500
1748723551.9779732,0.19,-0.86,-0.18,0.1636246173744684,0.11017390903214205,-0.0272707695624114,0.08671796759388994,0.026993721560701667,-0.43359983125343127,0,0,0,0,0,0,1500,1500,1500,1500,1500,1500
1748723552.076777,0.19,-0.86,-0.18,0.1636246173744684,0.11017390903214205,-0.0272707695624114,0.08671796759388994,0.026993721560701667,-0.43359983125343127,0,0,0,0,0,0,1500,1500,1500,1500,1500,1500
1748723552.1776621,0.31,-0.11,-0.47000000000000003,0.12544553998709243,0.0818123086872342,-0.015271630954950384,0.1054611633152081,0.04141175388141969,-0.4338493709742413,0,0,0,0,0,0,1500,1500,1500,1500,1500,1500
1748723552.2770188,1.35,0.9400000000000001,-0.4,0.07635815477475191,0.06654067773228381,-0.002181661564992912,0.11049938868078707,0.04987769117619856,-0.4332461341783256,0,0,0,0,0,0,1500,1500,1500,1500,1500,1500
1748723552.3769352,1.35,0.9400000000000001,-0.4,0.07635815477475191,0.06654067773228381,-0.002181661564992912,0.11049938868078707,0.04987769117619856,-0.4332461341783256,0,0,0,0,0,0,1500,1500,1500,1500,1500,1500
1748723552.459625,0.64,-0.36,0.2,0.03381575425739013,0.04799655442984406,-0.001090830782496456,0.10815741410517302,0.05259281920732044,-0.4328957205046605,0,0,0,0,0,0,1500,1500,1500,1500,1500,1500
1748723552.5595617,0.64,-0.36,0.2,0.03381575425739013,0.04799655442984406,-0.001090830782496456,0.10815741410517302,0.05259281920732044,-0.4328957205046605,0,0,0,0,0,0,1500,1500,1500,1500,1500,1500
1748723552.6595693,0.76,-0.64,-0.17,0.008726646259971648,0.018544123302439753,0.0,0.11032922710497854,0.057096280506366906,-0.4311249382777436,0,0,0,0,0,0,1500,1500,1500,1500,1500,1500
1748723552.7429273,0.76,-0.64,-0.17,0.008726646259971648,0.018544123302439753,0.0,0.11032922710497854,0.057096280506366906,-0.4311249382777436,0,0,0,0,0,0,1500,1500,1500,1500,1500,1500
1748723552.8440418,0.33,-0.73,0.1,-0.003272492347489368,0.007635815477475192,0.015271630954950384,0.10859029076525145,0.054863442009243646,-0.42952266008962997,0,0,0,0,0,0,1500,1500,1500,1500,1500,1500
1748723552.9273245,0.37,-0.51,-0.01,-0.008726646259971648,-0.007635815477475192,0.015271630954950384,0.0960341850308534,0.041871197339985594,-0.4275341890899313,0,0,0,0,0,0,1500,1500,1500,1500,1500,1500
1748723553.0267193,0.37,-0.51,-0.01,-0.008726646259971648,-0.007635815477475192,0.015271630954950384,0.0960341850308534,0.041871197339985594,-0.4275341890899313,0,0,0,0,0,0,1500,1500,1500,1500,1500,1500
1748723553.1273966,0.39,-0.37,-0.01,-0.007635815477475192,-0.01090830782496456,0.02181661564992912,0.08518050896739775,0.028503060213823185,-0.42479832508565546,0,0,0,0,0,0,1500,1500,1500,1500,1500,1500
1748723553.2101097,0.39,-0.37,-0.01,-0.007635815477475192,-0.01090830782496456,0.02181661564992912,0.08518050896739775,0.028503060213823185,-0.42479832508565546,0,0,0,0,0,0,1500,1500,1500,1500,1500,1500
1748723553.3107061,0.4,-0.32,1.31,-0.01090830782496456,-0.02181661564992912,0.022907446432425576,0.07565549708298477,0.015819479215120006,-0.42153273310485345,0,0,0,0,0,0,1500,1500,1500,1500,1500,1500
1748723553.4095557,0.21,-0.45,-0.09,-0.007635815477475192,-0.022907446432425576,0.028361600344907856,0.0685363900763445,0.004055600555158197,-0.41807082906162285,0,0,0,0,0,0,1500,1500,1500,1500,1500,1500
1748723553.494189,0.21,-0.45,-0.09,-0.007635815477475192,-0.022907446432425576,0.028361600344907856,0.0685363900763445,0.004055600555158197,-0.41807082906162285,0,0,0,0,0,0,1500,1500,1500,1500,1500,1500
1748723553.5927296,0.12,-0.18,0.0,0.001090830782496456,-0.02945243112740431,0.025089107997418487,0.061524491234216015,-0.008413749364983448,-0.414050359670674,0,0,0,0,0,0,1500,1500,1500,1500,1500,1500
1748723553.6930852,0.37,-0.37,-0.17,0.014180800172453928,-0.026179938779914945,0.019634954084936207,0.05515345831817009,-0.019323970477377977,-0.41055424704006777,0,0,0,0,0,0,1500,1500,1500,1500,1500,1500
1748723553.794239,0.37,-0.37,-0.17,0.014180800172453928,-0.026179938779914945,0.019634954084936207,0.05515345831817009,-0.019323970477377977,-0.41055424704006777,0,0,0,0,0,0,1500,1500,1500,1500,1500,1500
1748723553.8940225,0.4,-0.26,-0.19,0.025089107997418487,-0.02399827721492203,0.020725784867432664,0.05137540217588089,-0.02904421127293057,-0.40715745613338516,0,0,0,0,0,0,1500,1500,1500,1500,1500,1500
1748723553.9772778,0.4,-0.26,-0.19,0.025089107997418487,-0.02399827721492203,0.020725784867432664,0.05137540217588089,-0.02904421127293057,-0.40715745613338516,0,0,0,0,0,0,1500,1500,1500,1500,1500,1500
1748723554.077398,0.25,-0.31,-0.05,0.032724923474893676,-0.02399827721492203,0.020725784867432664,0.0492194850021679,-0.039536821752737095,-0.4036678528609515,0,0,0,0,0,0,1500,1500,1500,1500,1500,1500
1748723554.162651,0.27,-0.3,-0.05,0.039269908169872414,-0.026179938779914945,0.02181661564992912,0.048376950678172645,-0.0492447098093169,-0.4005637390944044,0,0,0,0,0,0,1500,1500,1500,1500,1500,1500
1748723554.2601292,0.27,-0.3,-0.05,0.039269908169872414,-0.026179938779914945,0.02181661564992912,0.048376950678172645,-0.0492447098093169,-0.4005637390944044,0,0,0,0,0,0,1500,1500,1500,1500,1500,1500
1748723554.359817,0.39,-0.32,-0.01,0.04363323129985824,-0.02945243112740431,0.020725784867432664,0.04855459062377016,-0.05986317245155569,-0.3972632290357493,0,0,0,0,0,0,1500,1500,1500,1500,1500,1500
1748723554.4600132,0.39,-0.32,-0.01,0.04363323129985824,-0.02945243112740431,0.020725784867432664,0.04855459062377016,-0.05986317245155569,-0.3972632290357493,0,0,0,0,0,0,1500,1500,1500,1500,1500,1500
1748723554.5604262,0.5,-0.35000000000000003,-0.2,0.04581489286485115,-0.025089107997418487,0.011999138607461015,0.04925989899094319,-0.06949912337608243,-0.39423162986894295,0,0,0,0,0,0,1500,1500,1500,1500,1500,1500
1748723554.6598125,0.24,-0.53,0.0,0.04908738521234052,-0.02399827721492203,0.019634954084936207,0.050791548807898,-0.07771678390291091,-0.3915737365696175,0,0,0,0,0,0,1500,1500,1500,1500,1500,1500
1748723554.7432277,0.24,-0.53,0.0,0.04908738521234052,-0.02399827721492203,0.019634954084936207,0.050791548807898,-0.07771678390291091,-0.3915737365696175,0,0,0,0,0,0,1500,1500,1500,1500,1500,1500
1748723554.8441648,0.18,-0.32,-0.22,0.04363323129985824,-0.022907446432425576,0.01090830782496456,0.05262652859646849,-0.08948770272099983,-0.3888099132046877,0,0,0,0,0,0,1500,1500,1500,1500,1500,1500
1748723554.943262,0.18,-0.32,-0.22,0.04363323129985824,-0.022907446432425576,0.01090830782496456,0.05262652859646849,-0.08948770272099983,-0.3888099132046877,0,0,0,0,0,0,1500,1500,1500,1500,1500,1500
1748723555.043051,0.32,-0.28,-0.12,0.05126904677733343,-0.018544123302439753,0.007635815477475192,0.05439932466341335,-0.09925056003859987,-0.3881439129839196,0,0,0,0,0,0,1500,1500,1500,1500,1500,1500
1748723555.1434183,0.33,-0.24,-0.1,0.044724062082354694,-0.019634954084936207,0.004363323129985824,0.055412478407933834,-0.10953390194461989,-0.38772519260863864,0,0,0,0,0,0,1500,1500,1500,1500,1500,1500
1748723555.2276866,0.33,-0.24,-0.1,0.044724062082354694,-0.019634954084936207,0.004363323129985824,0.055412478407933834,-0.10953390194461989,-0.38772519260863864,0,0,0,0,0,0,1500,1500,1500,1500,1500,1500
1748723555.327414,0.19,-0.12,-0.16,0.039269908169872414,-0.018544123302439753,0.003272492347489368,0.056230189032997306,-0.11947849920781466,-0.3872844957369569,0,0,0,0,0,0,1500,1500,1500,1500,1500,1500
1748723555.4168725,0.32,-0.18,-0.2,0.02399827721492203,-0.015271630954950384,-0.006544984694978736,0.05499883605585935,-0.12920899789276147,-0.3867262558055908,0,0,0,0,0,0,1500,1500,1500,1500,1500,1500
1748723555.509063,0.32,-0.18,-0.2,0.02399827721492203,-0.015271630954950384,-0.006544984694978736,0.05499883605585935,-0.12920899789276147,-0.3867262558055908,0,0,0,0,0,0,1500,1500,1500,1500,1500,1500
1748723555.6095722,0.42,-0.23,-0.13,0.007635815477475192,-0.016362461737446838,-0.006544984694978736,0.05211331622266263,-0.1387546751682016,-0.3862691749376029,0,0,0,0,0,0,1500,1500,1500,1500,1500,1500
1748723555.6942444,0.42,-0.23,-0.13,0.007635815477475192,-0.016362461737446838,-0.006544984694978736,0.05211331622266263,-0.1387546751682016,-0.3862691749376029,0,0,0,0,0,0,1500,1500,1500,1500,1500,1500
1748723555.7928343,0.22,-0.15,-0.13,-0.002181661564992912,-0.016362461737446838,-0.003272492347489368,0.04726534369445628,-0.1485589783517941,-0.3856527216635898,0,0,0,0,0,0,1500,1500,1500,1500,1500,1500
1748723555.8929057,0.22,-0.15,-0.13,-0.002181661564992912,-0.016362461737446838,-0.003272492347489368,0.04726534369445628,-0.1485589783517941,-0.3856527216635898,0,0,0,0,0,0,1500,1500,1500,1500,1500,1500
1748723555.9781504,0.32,-0.24,-0.12,0.00545415391248228,-0.017453292519943295,-0.00545415391248228,0.042779385596648574,-0.15767033173767886,-0.38513576652126563,0,0,0,0,0,0,1500,1500,1500,1500,1500,1500
1748723556.0765347,0.27,-0.21,-0.13,-0.006544984694978736,-0.018544123302439753,-0.006544984694978736,0.037885437946588676,-0.16735556603660992,-0.38443842788641625,0,0,0,0,0,0,1500,1500,1500,1500,1500,1500
1748723556.1778872,0.27,-0.21,-0.13,-0.006544984694978736,-0.018544123302439753,-0.006544984694978736,0.037885437946588676,-0.16735556603660992,-0.38443842788641625,0,0,0,0,0,0,1500,1500,1500,1500,1500,1500
1748723556.2767904,0.23,-0.16,-0.5,-0.003272492347489368,-0.00545415391248228,-0.01090830782496456,0.0320580447710686,-0.1768470718552211,-0.38361708855955834,0,0,0,0,0,0,1500,1500,1500,1500,1500,1500
1748723556.3697286,0.12,-0.4,-0.2,-0.017453292519943295,-0.008726646259971648,-0.007635815477475192,0.026545006936670654,-0.18477157782450931,-0.38284789056161117,0,0,0,0,0,0,1500,1500,1500,1500,1500,1500
1748723556.4600275,0.12,-0.4,-0.2,-0.017453292519943295,-0.008726646259971648,-0.007635815477475192,0.026545006936670654,-0.18477157782450931,-0.38284789056161117,0,0,0,0,0,0,1500,1500,1500,1500,1500,1500
1748723556.5596547,0.29,-0.22,0.03,-0.011999138607461015,0.001090830782496456,-0.006544984694978736,0.020313919299270823,-0.19296210877340822,-0.38199176073589225,0,0,0,0,0,0,1500,1500,1500,1500,1500,1500
1748723556.6602318,0.29,-0.22,0.03,-0.011999138607461015,0.001090830782496456,-0.006544984694978736,0.020313919299270823,-0.19296210877340822,-0.38199176073589225,0,0,0,0,0,0,1500,1500,1500,1500,1500,1500
1748723556.760031,0.19,-0.09,-0.28,-0.006544984694978736,0.002181661564992912,-0.003272492347489368,0.01386103059994467,-0.20081445014598487,-0.3809365970287187,0,0,0,0,0,0,1500,1500,1500,1500,1500,1500
1748723556.8526585,0.24,-0.25,-0.17,-0.008726646259971648,0.006544984694978736,-0.003272492347489368,0.008449778291511856,-0.20833630658595365,-0.3798163881514682,0,0,0,0,0,0,1500,1500,1500,1500,1500,1500
1748723556.9430935,0.24,-0.25,-0.17,-0.008726646259971648,0.006544984694978736,-0.003272492347489368,0.008449778291511856,-0.20833630658595365,-0.3798163881514682,0,0,0,0,0,0,1500,1500,1500,1500,1500,1500
1748723557.0427845,0.22,-0.16,-0.16,0.004363323129985824,0.008726646259971648,-0.004363323129985824,0.003023827158669927,-0.2152409999289919,-0.37866472083393143,0,0,0,0,0,0,1500,1500,1500,1500,1500,1500
1748723557.1440418,0.22,-0.16,-0.16,0.004363323129985824,0.008726646259971648,-0.004363323129985824,0.003023827158669927,-0.2152409999289919,-0.37866472083393143,0,0,0,0,0,0,1500,1500,1500,1500,1500,1500
1748723557.2267988,0.25,-0.16,-0.22,0.004363323129985824,0.006544984694978736,-0.007635815477475192,-0.002951857802988095,-0.22198387681650744,-0.37740013450355253,0,0,0,0,0,0,1500,1500,1500,1500,1500,1500
1748723557.3205621,0.27,-0.18,-0.18,0.007635815477475192,0.013089969389957472,-0.004363323129985824,-0.0069250294869711345,-0.2267091559328951,-0.37627981583469683,0,0,0,0,0,0,1500,1500,1500,1500,1500,1500
1748723557.4266567,0.27,-0.18,-0.18,0.007635815477475192,0.013089969389957472,-0.004363323129985824,-0.0069250294869711345,-0.2267091559328951,-0.37627981583469683,0,0,0,0,0,0,1500,1500,1500,1500,1500,1500
1748723557.5266714,0.33,-0.16,-0.22,0.008726646259971648,0.01090830782496456,-0.009817477042468103,-0.011614192790484087,-0.23158082240574435,-0.37532920680217846,0,0,0,0,0,0,1500,1500,1500,1500,1500,1500
1748723557.6266105,0.33,-0.16,-0.22,0.008726646259971648,0.01090830782496456,-0.009817477042468103,-0.011614192790484087,-0.23158082240574435,-0.37532920680217846,0,0,0,0,0,0,1500,1500,1500,1500,1500,1500
1748723557.7092876,0.35000000000000003,-0.3,-0.2,-0.003272492347489368,0.01090830782496456,-0.00545415391248228,-0.01698565887066501,-0.23682776585991475,-0.3744054961190244,0,0,0,0,0,0,1500,1500,1500,1500,1500,1500
