time,ay,ax,az,gy,gx,gz,roll,pitch,yaw,cmd_fx,cmd_fy,cmd_fz,cmd_tx,cmd_ty,cmd_tz,pwm_1,pwm_2,pwm_3,pwm_4,pwm_5,pwm_6
1748736545.8327353,0.0,0.0,0.0,0.0,0.0,0.0,0.0,0.0,0.0,0,0,0,0,0,0,1500,1500,1500,1500,1500,1500
1748736545.9267063,-0.01,-0.19,-0.11,0.039269908169872414,-0.017453292519943295,-0.044724062082354694,-0.035274978998378524,-0.2546434527170956,0.6165239585426596,0,0,0,0,0,0,1500,1500,1500,1500,1500,1500
1748736546.027043,-0.01,-0.19,-0.11,0.039269908169872414,-0.017453292519943295,-0.044724062082354694,-0.035274978998378524,-0.2546434527170956,0.6165239585426596,0,0,0,0,0,0,1500,1500,1500,1500,1500,1500
1748736546.1271737,-0.04,-0.19,-0.13,0.038179077387375956,-0.011999138607461015,-0.04036073895236887,-0.02897366137407339,-0.25555940110554415,0.609683544982559,0,0,0,0,0,0,1500,1500,1500,1500,1500,1500
1748736546.2108967,0.0,-0.13,-0.18,0.028361600344907856,-0.001090830782496456,-0.02945243112740431,-0.023785776988074506,-0.2560039103603459,0.6045075674262137,0,0,0,0,0,0,1500,1500,1500,1500,1500,1500
1748736546.3104062,0.0,-0.13,-0.18,0.028361600344907856,-0.001090830782496456,-0.02945243112740431,-0.023785776988074506,-0.2560039103603459,0.6045075674262137,0,0,0,0,0,0,1500,1500,1500,1500,1500,1500
1748736546.4107842,-0.03,-0.16,-0.13,0.016362461737446838,0.002181661564992912,-0.020725784867432664,-0.02121823983737216,-0.2561858721834224,0.6012095468983201,0,0,0,0,0,0,1500,1500,1500,1500,1500,1500
1748736546.5110562,-0.03,-0.16,-0.13,0.016362461737446838,0.002181661564992912,-0.020725784867432664,-0.02121823983737216,-0.2561858721834224,0.6012095468983201,0,0,0,0,0,0,1500,1500,1500,1500,1500,1500
1748736546.6107638,-0.02,-0.13,-0.13,-0.001090830782496456,0.003272492347489368,-0.01090830782496456,-0.021641920466193874,-0.256380320446509,0.599086415623371,0,0,0,0,0,0,1500,1500,1500,1500,1500,1500
1748736546.6947124,-0.02,-0.16,-0.07,-0.02181661564992912,-0.00545415391248228,-0.003272492347489368,-0.024745031821988832,-0.25644193964590445,0.5989601283644305,0,0,0,0,0,0,1500,1500,1500,1500,1500,1500
1748736546.7947183,-0.02,-0.16,-0.07,-0.02181661564992912,-0.00545415391248228,-0.003272492347489368,-0.024745031821988832,-0.25644193964590445,0.5989601283644305,0,0,0,0,0,0,1500,1500,1500,1500,1500,1500
1748736546.8943803,0.0,-0.16,-0.1,-0.03490658503988659,-0.00545415391248228,0.008726646259971648,-0.03078913061030319,-0.2566735982329797,0.5994217792966768,0,0,0,0,0,0,1500,1500,1500,1500,1500,1500
1748736546.9779594,0.0,-0.16,-0.1,-0.03490658503988659,-0.00545415391248228,0.008726646259971648,-0.03078913061030319,-0.2566735982329797,0.5994217792966768,0,0,0,0,0,0,1500,1500,1500,1500,1500,1500
1748736547.077218,-0.02,-0.17,-0.11,-0.04254240051736178,0.001090830782496456,0.01090830782496456,-0.03776763978057823,-0.2568603757622485,0.600100132608126,0,0,0,0,0,0,1500,1500,1500,1500,1500,1500
1748736547.1785696,0.0,-0.18,-0.11,-0.039269908169872414,-0.002181661564992912,0.013089969389957472,-0.04456665137935244,-0.25686708534945435,0.601794405740361,0,0,0,0,0,0,1500,1500,1500,1500,1500,1500
1748736547.278115,0.0,-0.18,-0.11,-0.039269908169872414,-0.002181661564992912,0.013089969389957472,-0.04456665137935244,-0.25686708534945435,0.601794405740361,0,0,0,0,0,0,1500,1500,1500,1500,1500,1500
1748736547.3785875,-0.04,-0.12,-0.12,0.026179938779914945,-0.019634954084936207,-0.019634954084936207,-0.050885677491927184,-0.27448040832630843,0.6034552768970242,0,0,0,0,0,0,1500,1500,1500,1500,1500,1500
1748736547.460761,-0.04,-0.12,-0.12,0.026179938779914945,-0.019634954084936207,-0.019634954084936207,-0.050885677491927184,-0.27448040832630843,0.6034552768970242,0,0,0,0,0,0,1500,1500,1500,1500,1500,1500
1748736547.5604322,0.0,-0.16,-0.14,0.03381575425739013,-0.020725784867432664,-0.017453292519943295,-0.04221701792288233,-0.26230051382461417,0.5985878831575063,0,0,0,0,0,0,1500,1500,1500,1500,1500,1500
1748736547.6607835,-0.02,-0.17,-0.16,0.04036073895236887,-0.002181661564992912,-0.015271630954950384,-0.03745120905611346,-0.26370718504125357,0.5963349837348594,0,0,0,0,0,0,1500,1500,1500,1500,1500,1500
1748736547.7612045,-0.02,-0.17,-0.16,0.04036073895236887,-0.002181661564992912,-0.015271630954950384,-0.03745120905611346,-0.26370718504125357,0.5963349837348594,0,0,0,0,0,0,1500,1500,1500,1500,1500,1500
1748736547.8612993,-0.01,-0.13,-0.18,0.038179077387375956,0.009817477042468103,-0.01090830782496456,-0.03232284716485438,-0.2640814345538988,0.5947638561397381,0,0,0,0,0,0,1500,1500,1500,1500,1500,1500
1748736547.9438674,-0.04,-0.12,-0.17,0.0272707695624114,0.008726646259971648,-0.003272492347489368,-0.02830589768299726,-0.263879101115446,0.5949467582408949,0,0,0,0,0,0,1500,1500,1500,1500,1500,1500
1748736548.0446708,-0.04,-0.12,-0.17,0.0272707695624114,0.008726646259971648,-0.003272492347489368,-0.02830589768299726,-0.263879101115446,0.5949467582408949,0,0,0,0,0,0,1500,1500,1500,1500,1500,1500
1748736548.1493287,-0.01,-0.13,-0.16,0.009817477042468103,0.011999138607461015,0.006544984694978736,-0.026387483313261597,-0.2625517355015556,0.5952803941318098,0,0,0,0,0,0,1500,1500,1500,1500,1500,1500
1748736548.244698,-0.01,-0.13,-0.16,0.009817477042468103,0.011999138607461015,0.006544984694978736,-0.026387483313261597,-0.2625517355015556,0.5952803941318098,0,0,0,0,0,0,1500,1500,1500,1500,1500,1500
1748736548.344648,-0.04,-0.15,-0.11,-0.004363323129985824,0.008726646259971648,0.011999138607461015,-0.02772277238927172,-0.2616698032657345,0.5967080049041277,0,0,0,0,0,0,1500,1500,1500,1500,1500,1500
1748736548.4288568,-0.04,-0.16,-0.06,-0.020725784867432664,0.007635815477475192,0.017453292519943295,-0.030531834891766387,-0.261649995972512,0.5994019457371703,0,0,0,0,0,0,1500,1500,1500,1500,1500,1500
1748736548.527528,-0.04,-0.16,-0.06,-0.020725784867432664,0.007635815477475192,0.017453292519943295,-0.030531834891766387,-0.261649995972512,0.5994019457371703,0,0,0,0,0,0,1500,1500,1500,1500,1500,1500
1748736548.628247,-0.04,-0.17,-0.07,-0.030543261909900768,0.002181661564992912,0.016362461737446838,-0.03570024272424832,-0.2615454155144135,0.6025332289905669,0,0,0,0,0,0,1500,1500,1500,1500,1500,1500
1748736548.711015,-0.04,-0.17,-0.07,-0.030543261909900768,0.002181661564992912,0.016362461737446838,-0.03570024272424832,-0.2615454155144135,0.6025332289905669,0,0,0,0,0,0,1500,1500,1500,1500,1500,1500
1748736548.8121545,0.02,-0.24,-0.14,0.00545415391248228,-0.00545415391248228,-0.02945243112740431,-0.039870913494505264,-0.26157854249805784,0.6037591167487256,0,0,0,0,0,0,1500,1500,1500,1500,1500,1500
1748736548.8982038,0.0,-0.2,-0.1,0.001090830782496456,-0.017453292519943295,-0.02181661564992912,-0.04069809174335839,-0.2636966740013246,0.6002545639922475,0,0,0,0,0,0,1500,1500,1500,1500,1500,1500
1748736548.9945462,0.0,-0.2,-0.1,0.001090830782496456,-0.017453292519943295,-0.02181661564992912,-0.04069809174335839,-0.2636966740013246,0.6002545639922475,0,0,0,0,0,0,1500,1500,1500,1500,1500,1500
1748736549.0947394,-0.05,-0.17,-0.1,0.002181661564992912,-0.013089969389957472,-0.020725784867432664,-0.04159889738540186,-0.26621177238713817,0.5974632791581,0,0,0,0,0,0,1500,1500,1500,1500,1500,1500
1748736549.177591,-0.05,-0.17,-0.1,0.002181661564992912,-0.013089969389957472,-0.020725784867432664,-0.04159889738540186,-0.26621177238713817,0.5974632791581,0,0,0,0,0,0,1500,1500,1500,1500,1500,1500
1748736549.2779713,-0.02,-0.11,-0.13,0.006544984694978736,-0.004363323129985824,-0.013089969389957472,-0.042246329341651914,-0.2672501864547382,0.595158145649937,0,0,0,0,0,0,1500,1500,1500,1500,1500,1500
1748736549.3665652,-0.04,-0.1,-0.12,0.009817477042468103,0.002181661564992912,-0.009817477042468103,-0.04268972865793777,-0.26721265181676285,0.5937935360957766,0,0,0,0,0,0,1500,1500,1500,1500,1500,1500
1748736549.46133,-0.04,-0.1,-0.12,0.009817477042468103,0.002181661564992912,-0.009817477042468103,-0.04268972865793777,-0.26721265181676285,0.5937935360957766,0,0,0,0,0,0,1500,1500,1500,1500,1500,1500
1748736549.5617683,-0.08,-0.09,-0.16,0.01090830782496456,0.007635815477475192,-0.008726646259971648,-0.04215800801491415,-0.2668729727643448,0.5936039790769333,0,0,0,0,0,0,1500,1500,1500,1500,1500,1500
1748736549.661598,-0.08,-0.09,-0.16,0.01090830782496456,0.007635815477475192,-0.008726646259971648,-0.04215800801491415,-0.2668729727643448,0.5936039790769333,0,0,0,0,0,0,1500,1500,1500,1500,1500,1500
1748736549.761031,-0.05,-0.11,-0.14,0.008726646259971648,0.013089969389957472,-0.007635815477475192,-0.04205799046715338,-0.26522554938795867,0.5937372433203085,0,0,0,0,0,0,1500,1500,1500,1500,1500,1500
1748736549.860661,-0.05,-0.13,-0.12,-0.002181661564992912,0.011999138607461015,-0.001090830782496456,-0.042488599011318476,-0.26406693990007496,0.5938564325302433,0,0,0,0,0,0,1500,1500,1500,1500,1500,1500
1748736549.9458945,-0.05,-0.13,-0.12,-0.002181661564992912,0.011999138607461015,-0.001090830782496456,-0.042488599011318476,-0.26406693990007496,0.5938564325302433,0,0,0,0,0,0,1500,1500,1500,1500,1500,1500
1748736550.0446193,-0.06,-0.15,-0.09,-0.015271630954950384,-0.004363323129985824,0.00545415391248228,-0.04307010742996648,-0.26388301400463193,0.593785552792795,0,0,0,0,0,0,1500,1500,1500,1500,1500,1500
1748736550.1445315,-0.06,-0.15,-0.09,-0.015271630954950384,-0.004363323129985824,0.00545415391248228,-0.04307010742996648,-0.26388301400463193,0.593785552792795,0,0,0,0,0,0,1500,1500,1500,1500,1500,1500
1748736550.2281775,-0.04,-0.14,-0.09,-0.02181661564992912,-0.008726646259971648,0.002181661564992912,-0.046029523745675156,-0.2642770716308956,0.5938395372327415,0,0,0,0,0,0,1500,1500,1500,1500,1500,1500
1748736550.3196318,-0.06,-0.14,-0.11,-0.015271630954950384,-0.014180800172453928,0.004363323129985824,-0.04935359031236636,-0.2658531748774736,0.5939001121550321,0,0,0,0,0,0,1500,1500,1500,1500,1500,1500
1748736550.42742,-0.06,-0.14,-0.11,-0.015271630954950384,-0.014180800172453928,0.004363323129985824,-0.04935359031236636,-0.2658531748774736,0.5939001121550321,0,0,0,0,0,0,1500,1500,1500,1500,1500,1500
1748736550.5285366,-0.09,-0.13,-0.11,-0.013089969389957472,-0.008726646259971648,0.004363323129985824,-0.051583275755838355,-0.2676221547987342,0.5939349263276286,0,0,0,0,0,0,1500,1500,1500,1500,1500,1500
1748736550.6279624,-0.09,-0.13,-0.11,-0.013089969389957472,-0.008726646259971648,0.004363323129985824,-0.051583275755838355,-0.2676221547987342,0.5939349263276286,0,0,0,0,0,0,1500,1500,1500,1500,1500,1500
1748736550.7114782,0.02,-0.14,-0.17,0.015271630954950384,0.001090830782496456,-0.0272707695624114,-0.05106874999387112,-0.2678817671447365,0.5924594428586087,0,0,0,0,0,0,1500,1500,1500,1500,1500,1500
1748736550.8116114,-0.05,-0.21,-0.13,0.022907446432425576,-0.003272492347489368,-0.02181661564992912,-0.04702603795386799,-0.2681410734704083,0.5888213684957782,0,0,0,0,0,0,1500,1500,1500,1500,1500,1500
1748736550.9120328,-0.05,-0.21,-0.13,0.022907446432425576,-0.003272492347489368,-0.02181661564992912,-0.04702603795386799,-0.2681410734704083,0.5888213684957782,0,0,0,0,0,0,1500,1500,1500,1500,1500,1500
1748736551.01143,-0.05,-0.18,-0.11,0.019634954084936207,0.0,-0.020725784867432664,-0.04466772707296894,-0.2680205854062728,0.5860285285241331,0,0,0,0,0,0,1500,1500,1500,1500,1500,1500
1748736551.1108303,-0.03,-0.19,-0.11,0.017453292519943295,-0.002181661564992912,-0.017453292519943295,-0.042960521999508616,-0.26772339237517834,0.5837287643603623,0,0,0,0,0,0,1500,1500,1500,1500,1500,1500
1748736551.1947012,-0.03,-0.19,-0.11,0.017453292519943295,-0.002181661564992912,-0.017453292519943295,-0.042960521999508616,-0.26772339237517834,0.5837287643603623,0,0,0,0,0,0,1500,1500,1500,1500,1500,1500
1748736551.2944946,-0.07,-0.16,-0.08,0.008726646259971648,-0.004363323129985824,-0.011999138607461015,-0.043346926359191,-0.2674529064329487,0.58247537327778,0,0,0,0,0,0,1500,1500,1500,1500,1500,1500
1748736551.3948967,-0.07,-0.16,-0.08,0.008726646259971648,-0.004363323129985824,-0.011999138607461015,-0.043346926359191,-0.2674529064329487,0.58247537327778,0,0,0,0,0,0,1500,1500,1500,1500,1500,1500
1748736551.494467,-0.05,-0.17,-0.1,-0.003272492347489368,-0.006544984694978736,-0.001090830782496456,-0.045116994477980926,-0.2671962831583931,0.5828467921961196,0,0,0,0,0,0,1500,1500,1500,1500,1500,1500
1748736551.5864286,-0.02,-0.14,-0.12,-0.01090830782496456,-0.006544984694978736,0.001090830782496456,-0.04727771384567789,-0.2673320162381802,0.5832852465778546,0,0,0,0,0,0,1500,1500,1500,1500,1500,1500
1748736551.6775103,-0.02,-0.14,-0.12,-0.01090830782496456,-0.006544984694978736,0.001090830782496456,-0.04727771384567789,-0.2673320162381802,0.5832852465778546,0,0,0,0,0,0,1500,1500,1500,1500,1500,1500
1748736551.7773964,-0.03,-0.16,-0.11,-0.009817477042468103,-0.007635815477475192,0.002181661564992912,-0.049456097550823704,-0.26874263858266895,0.5837955105271997,0,0,0,0,0,0,1500,1500,1500,1500,1500,1500
1748736551.8780046,-0.03,-0.16,-0.11,-0.009817477042468103,-0.007635815477475192,0.002181661564992912,-0.049456097550823704,-0.26874263858266895,0.5837955105271997,0,0,0,0,0,0,1500,1500,1500,1500,1500,1500
1748736551.9609473,-0.02,-0.19,-0.12,0.001090830782496456,-0.002181661564992912,0.003272492347489368,-0.05121312172875198,-0.2692609288678743,0.5842162588174383,0,0,0,0,0,0,1500,1500,1500,1500,1500,1500
1748736552.0629616,-0.02,-0.17,-0.13,0.0272707695624114,0.002181661564992912,-0.026179938779914945,-0.04824092838659546,-0.2694656392422877,0.5818822837454236,0,0,0,0,0,0,1500,1500,1500,1500,1500,1500
1748736552.146488,-0.02,-0.17,-0.13,0.0272707695624114,0.002181661564992912,-0.026179938779914945,-0.04824092838659546,-0.2694656392422877,0.5818822837454236,0,0,0,0,0,0,1500,1500,1500,1500,1500,1500
1748736552.2459269,-0.06,-0.18,-0.16,0.028361600344907856,0.011999138607461015,-0.016362461737446838,-0.04303570314067184,-0.2694006423482383,0.5788146468086135,0,0,0,0,0,0,1500,1500,1500,1500,1500,1500
1748736552.3456666,-0.06,-0.18,-0.16,0.028361600344907856,0.011999138607461015,-0.016362461737446838,-0.04303570314067184,-0.2694006423482383,0.5788146468086135,0,0,0,0,0,0,1500,1500,1500,1500,1500,1500
1748736552.429174,-0.02,-0.21,-0.14,0.026179938779914945,0.018544123302439753,-0.009817477042468103,-0.03841694141415423,-0.26827038198333225,0.5766726835013923,0,0,0,0,0,0,1500,1500,1500,1500,1500,1500
1748736552.5294871,-0.02,-0.21,-0.14,0.026179938779914945,0.018544123302439753,-0.009817477042468103,-0.03841694141415423,-0.26827038198333225,0.5766726835013923,0,0,0,0,0,0,1500,1500,1500,1500,1500,1500
1748736552.6320367,0.02,-0.22,-0.11,0.015271630954950384,0.016362461737446838,-0.006544984694978736,-0.03496540455234009,-0.2656728816023288,0.5759179736327634,0,0,0,0,0,0,1500,1500,1500,1500,1500,1500
1748736552.729561,0.02,-0.23,-0.12,0.001090830782496456,0.00545415391248228,0.0,-0.03422634388984075,-0.2640955973828755,0.5758663929064952,0,0,0,0,0,0,1500,1500,1500,1500,1500,1500
1748736552.8311667,0.02,-0.23,-0.12,0.001090830782496456,0.00545415391248228,0.0,-0.03422634388984075,-0.2640955973828755,0.5758663929064952,0,0,0,0,0,0,1500,1500,1500,1500,1500,1500
1748736552.9302025,0.0,-0.24,-0.12,-0.006544984694978736,-0.003272492347489368,0.004363323129985824,-0.03588444305161133,-0.2642616113943504,0.5763617662613654,0,0,0,0,0,0,1500,1500,1500,1500,1500,1500
1748736553.0297308,0.08,-0.21,-0.14,0.004363323129985824,-0.008726646259971648,-0.02399827721492203,-0.038052124198027726,-0.26499472014697706,0.5746354338414438,0,0,0,0,0,0,1500,1500,1500,1500,1500,1500
1748736553.1319118,0.08,-0.21,-0.14,0.004363323129985824,-0.008726646259971648,-0.02399827721492203,-0.038052124198027726,-0.26499472014697706,0.5746354338414438,0,0,0,0,0,0,1500,1500,1500,1500,1500,1500
1748736553.2299812,0.05,-0.2,-0.14,-0.001090830782496456,0.003272492347489368,-0.015271630954950384,-0.040166880929531745,-0.265875043248972,0.5722926559306368,0,0,0,0,0,0,1500,1500,1500,1500,1500,1500
1748736553.3314085,0.02,-0.19,-0.15,0.0,0.011999138607461015,-0.006544984694978736,-0.04252034160479883,-0.26659250931682094,0.5711458265935513,0,0,0,0,0,0,1500,1500,1500,1500,1500,1500
1748736553.4295673,0.02,-0.19,-0.15,0.0,0.011999138607461015,-0.006544984694978736,-0.04252034160479883,-0.26659250931682094,0.5711458265935513,0,0,0,0,0,0,1500,1500,1500,1500,1500,1500
1748736553.5411031,0.01,-0.21,-0.15,-0.002181661564992912,0.007635815477475192,-0.006544984694978736,-0.04504005769137762,-0.266635498105904,0.5716248152206788,0,0,0,0,0,0,1500,1500,1500,1500,1500,1500
1748736553.6331396,0.01,-0.21,-0.15,-0.002181661564992912,0.007635815477475192,-0.006544984694978736,-0.04504005769137762,-0.266635498105904,0.5716248152206788,0,0,0,0,0,0,1500,1500,1500,1500,1500,1500
1748736553.7312214,0.0,-0.19,-0.13,-0.003272492347489368,0.006544984694978736,-0.003272492347489368,-0.04763229761954464,-0.26678529087075786,0.5723712362568617,0,0,0,0,0,0,1500,1500,1500,1500,1500,1500
1748736553.8314633,0.03,-0.18,-0.11,-0.003272492347489368,0.003272492347489368,0.007635815477475192,-0.05019606286627335,-0.26734553497609387,0.57304690641996,0,0,0,0,0,0,1500,1500,1500,1500,1500,1500
1748736553.913579,0.03,-0.18,-0.11,-0.003272492347489368,0.003272492347489368,0.007635815477475192,-0.05019606286627335,-0.26734553497609387,0.57304690641996,0,0,0,0,0,0,1500,1500,1500,1500,1500,1500
1748736554.0193205,-0.03,-0.18,-0.11,0.004363323129985824,0.00545415391248228,0.009817477042468103,-0.05263787206442287,-0.2675372901465402,0.5744066129150087,0,0,0,0,0,0,1500,1500,1500,1500,1500,1500
1748736554.1119683,-0.03,-0.18,-0.11,0.004363323129985824,0.00545415391248228,0.009817477042468103,-0.05263787206442287,-0.2675372901465402,0.5744066129150087,0,0,0,0,0,0,1500,1500,1500,1500,1500,1500
1748736554.1957564,-0.02,-0.17,-0.12,0.009817477042468103,0.008726646259971648,0.008726646259971648,-0.054429178806025616,-0.26730117052815555,0.5758221557640807,0,0,0,0,0,0,1500,1500,1500,1500,1500,1500
1748736554.2898426,-0.02,-0.17,-0.16,0.04799655442984406,0.003272492347489368,-0.02181661564992912,-0.05028750214880295,-0.26733335265975583,0.5745850747761256,0,0,0,0,0,0,1500,1500,1500,1500,1500,1500
1748736554.3816416,-0.02,-0.17,-0.16,0.04799655442984406,0.003272492347489368,-0.02181661564992912,-0.05028750214880295,-0.26733335265975583,0.5745850747761256,0,0,0,0,0,0,1500,1500,1500,1500,1500,1500
1748736554.4815586,0.0,-0.14,-0.18,0.04145156973486533,0.0,-0.011999138607461015,-0.04550156285225613,-0.2679305348875713,0.5730384320051018,0,0,0,0,0,0,1500,1500,1500,1500,1500,1500
1748736554.5799797,0.0,-0.14,-0.18,0.04145156973486533,0.0,-0.011999138607461015,-0.04550156285225613,-0.2679305348875713,0.5730384320051018,0,0,0,0,0,0,1500,1500,1500,1500,1500,1500
1748736554.6634624,0.0,-0.14,-0.15,0.03490658503988659,-0.006544984694978736,-0.00545415391248228,-0.04138863038694866,-0.26835782913225925,0.5729948671535642,0,0,0,0,0,0,1500,1500,1500,1500,1500,1500
1748736554.761343,-0.03,-0.14,-0.17,0.019634954084936207,-0.007635815477475192,0.0,-0.03862018918546968,-0.26880205944715785,0.5734240271356964,0,0,0,0,0,0,1500,1500,1500,1500,1500,1500
1748736554.8622537,-0.03,-0.14,-0.17,0.019634954084936207,-0.007635815477475192,0.0,-0.03862018918546968,-0.26880205944715785,0.5734240271356964,0,0,0,0,0,0,1500,1500,1500,1500,1500,1500
1748736554.9458282,0.0,-0.13,-0.15,0.004363323129985824,-0.007635815477475192,0.00545415391248228,-0.03878538538965405,-0.2691368174827812,0.5738319368622465,0,0,0,0,0,0,1500,1500,1500,1500,1500,1500
1748736555.0465982,0.0,-0.13,-0.15,0.004363323129985824,-0.007635815477475192,0.00545415391248228,-0.03878538538965405,-0.2691368174827812,0.5738319368622465,0,0,0,0,0,0,1500,1500,1500,1500,1500,1500
1748736555.146597,-0.01,-0.17,-0.13,-0.009817477042468103,-0.013089969389957472,0.011999138607461015,-0.040657274716540424,-0.2702737187172544,0.5746720613806292,0,0,0,0,0,0,1500,1500,1500,1500,1500,1500
1748736555.2478483,-0.04,-0.18,-0.08,-0.018544123302439753,-0.015271630954950384,0.015271630954950384,-0.044943041396835234,-0.2727756450028316,0.5760839187634491,0,0,0,0,0,0,1500,1500,1500,1500,1500,1500
1748736555.345895,-0.04,-0.18,-0.08,-0.018544123302439753,-0.015271630954950384,0.015271630954950384,-0.044943041396835234,-0.2727756450028316,0.5760839187634491,0,0,0,0,0,0,1500,1500,1500,1500,1500,1500
1748736555.4293509,-0.04,-0.19,-0.12,-0.026179938779914945,-0.025089107997418487,0.00545415391248228,-0.04905386975637984,-0.2759696511867108,0.5766547454160941,0,0,0,0,0,0,1500,1500,1500,1500,1500,1500
1748736555.528851,-0.04,-0.19,-0.12,-0.026179938779914945,-0.025089107997418487,0.00545415391248228,-0.04905386975637984,-0.2759696511867108,0.5766547454160941,0,0,0,0,0,0,1500,1500,1500,1500,1500,1500
1748736555.6285977,-0.02,-0.17,-0.08,-0.015271630954950384,-0.020725784867432664,0.001090830782496456,-0.05206367396358308,-0.2790647458550185,0.5767645336284,0,0,0,0,0,0,1500,1500,1500,1500,1500,1500
1748736555.7120838,0.0,-0.33,-0.03,0.05235987755982989,-0.026179938779914945,-0.03599741582238305,-0.04899660508900237,-0.283017638250244,0.5741471425110153,0,0,0,0,0,0,1500,1500,1500,1500,1500,1500
1748736555.812123,0.0,-0.33,-0.03,0.05235987755982989,-0.026179938779914945,-0.03599741582238305,-0.04899660508900237,-0.283017638250244,0.5741471425110153,0,0,0,0,0,0,1500,1500,1500,1500,1500,1500
1748736555.8976715,-0.06,-0.22,-0.11,0.04908738521234052,-0.02181661564992912,-0.026179938779914945,-0.04167504734339287,-0.2869976625729822,0.5697189609226037,0,0,0,0,0,0,1500,1500,1500,1500,1500,1500
1748736555.9968889,-0.06,-0.22,-0.11,0.04908738521234052,-0.02181661564992912,-0.026179938779914945,-0.04167504734339287,-0.2869976625729822,0.5697189609226037,0,0,0,0,0,0,1500,1500,1500,1500,1500,1500
1748736556.096827,-0.05,-0.14,-0.17,0.04690572364734761,-0.009817477042468103,-0.020725784867432664,-0.035116026780256646,-0.28905934306073255,0.5663903217237007,0,0,0,0,0,0,1500,1500,1500,1500,1500,1500
1748736556.1802933,-0.05,-0.16,-0.13,0.04145156973486533,-0.004363323129985824,-0.013089969389957472,-0.02993455347611697,-0.28897887724220706,0.5646060036525422,0,0,0,0,0,0,1500,1500,1500,1500,1500,1500
1748736556.2779596,-0.05,-0.16,-0.13,0.04145156973486533,-0.004363323129985824,-0.013089969389957472,-0.02993455347611697,-0.28897887724220706,0.5646060036525422,0,0.24991,0,0,0,-0.440859,1473,1526,1500,1500,1500,1500
1748736556.3784194,-0.03,-0.17,-0.13,0.025089107997418487,0.007635815477475192,-0.00545415391248228,-0.026527304959661543,-0.28878718793135566,0.5644493248994773,0,1.238486,0,0,0,-0.7,1446,1552,1526,1500,1500,1500
1748736556.462521,-0.03,-0.17,-0.13,0.025089107997418487,0.007635815477475192,-0.00545415391248228,-0.026527304959661543,-0.28878718793135566,0.5644493248994773,0,0.722797,0,0,0,-0.7,1419,1578,1539,1500,1500,1500
1748736556.56234,-0.05,-0.15,-0.13,0.009817477042468103,-0.002181661564992912,0.002181661564992912,-0.0262718754842739,-0.28849318500481475,0.5650383407669958,0,0.495941,0,0,0,-0.7,1392,1604,1538,1500,1500,1500
1748736556.645681,-0.05,-0.15,-0.13,0.009817477042468103,-0.002181661564992912,0.002181661564992912,-0.0262718754842739,-0.28849318500481475,0.5650383407669958,0,0.495941,0,0,0,-0.7,1381,1612,1538,1500,1500,1500
1748736556.7458298,-0.02,-0.18,-0.03,-0.02945243112740431,0.007635815477475192,-0.07308566242726255,-0.02738459086592078,-0.28850458619442765,0.5630296803832416,0,0.495941,0,0,0,-0.7,1381,1612,1538,1500,1500,1500
1748736556.8459642,-0.12,0.02,-0.09,-0.11235557059713497,0.019634954084936207,-0.4112432050011639,-0.027176008572669892,-0.2872723925757162,0.5295119629647371,0,0.495941,0,0,0,-0.7,1381,1612,1538,1500,1500,1500
1748736556.9291003,-0.12,0.02,-0.09,-0.11235557059713497,0.019634954084936207,-0.4112432050011639,-0.027176008572669892,-0.2872723925757162,0.5295119629647371,0,0.495941,0,0,0,-0.7,1381,1612,1538,1500,1500,1500
1748736557.0279596,-0.01,-0.13,-0.07,-0.19962203319685143,0.044724062082354694,-0.7363107781851078,-0.025162366001219797,-0.28432470271906224,0.43183774211815024,0,0.495941,0,0,0,-0.7,1381,1612,1538,1500,1500,1500
1748736557.1220558,0.0,-0.25,-0.07,-0.1908953869368798,0.04145156973486533,-0.8868454261696187,-0.021070673086246244,-0.28144345653339936,0.3074577662429373,0,0.495941,0,0,0,-0.7,1381,1612,1538,1500,1500,1500
1748736557.211598,0.0,-0.25,-0.07,-0.1908953869368798,0.04145156973486533,-0.8868454261696187,-0.021070673086246244,-0.28144345653339936,0.3074577662429373,0,0.495941,0,0,0,-0.7,1381,1612,1538,1500,1500,1500
1748736557.3124976,0.08,-0.19,-0.08,-0.1734420944169365,0.055632369907319255,-0.954476934684399,-0.010627700005265936,-0.2774182163611004,0.1590435358499146,0,0,0,0,0,0,1407,1585,1511,1500,1500,1500
1748736557.4072764,0.08,-0.19,-0.08,-0.1734420944169365,0.055632369907319255,-0.954476934684399,-0.010627700005265936,-0.2774182163611004,0.1590435358499146,0,0,0,0,0,0,1433,1558,1500,1500,1500,1500
1748736557.496938,0.1,-0.36,-0.17,-0.14835298641951802,0.050178215994836975,-0.940296134511945,0.003594256980681684,-0.2714654855791276,0.0034515673119318926,0,0,0,0,0,0,1459,1531,1500,1500,1500,1500
1748736557.5919645,0.16,-0.3,-0.16,-0.1265363707695889,0.04145156973486533,-0.7461282552275759,0.01325782360460248,-0.2656166156035287,-0.12401921116907386,0,0,0,0,0,0,1485,1504,1500,1500,1500,1500
1748736557.6798394,0.16,-0.3,-0.16,-0.1265363707695889,0.04145156973486533,-0.7461282552275759,0.01325782360460248,-0.2656166156035287,-0.12401921116907386,0,0,0,0,0,0,1500,1500,1500,1500,1500,1500
1748736557.779408,0.17,-0.14,-0.16,-0.0916297857297023,0.02945243112740431,-0.4690572364734761,0.01712597765114425,-0.2605655756650643,-0.2177436666248221,0,0,0,0,0,0,1500,1500,1500,1500,1500,1500
1748736557.8791502,0.17,-0.14,-0.16,-0.0916297857297023,0.02945243112740431,-0.4690572364734761,0.01712597765114425,-0.2605655756650643,-0.2177436666248221,0,0,0,0,0,0,1500,1500,1500,1500,1500,1500
1748736557.9785209,0.07,-0.15,-0.14,-0.09926560120717749,0.017453292519943295,-0.2879793265790644,0.015561776389697904,-0.2571398928553073,-0.2762567287773933,0,0,0,0,0,0,1500,1500,1500,1500,1500,1500
1748736558.0794642,-0.01,-0.13,-0.14,-0.11562806294462433,-0.004363323129985824,-0.15707963267948966,0.006129570779898693,-0.2568733712650738,-0.3102308787058146,0,0,0,0,0,0,1500,1500,1500,1500,1500,1500
1748736558.1632001,-0.01,-0.13,-0.14,-0.11562806294462433,-0.004363323129985824,-0.15707963267948966,0.006129570779898693,-0.2568733712650738,-0.3102308787058146,0,0,0,0,0,0,1500,1500,1500,1500,1500,1500
1748736558.2630053,-0.02,-0.13,-0.14,-0.12871803233458182,-0.011999138607461015,-0.06435901616729091,-0.009535826062622037,-0.2578758073508318,-0.32667613848190563,0,0,0,0,0,0,1500,1500,1500,1500,1500,1500
1748736558.3626819,-0.02,-0.13,-0.14,-0.12871803233458182,-0.011999138607461015,-0.06435901616729091,-0.009535826062622037,-0.2578758073508318,-0.32667613848190563,0,0,0,0,0,0,1500,1500,1500,1500,1500,1500
1748736558.4468899,0.0,-0.11,-0.15,-0.11017390903214205,-0.016362461737446838,0.025089107997418487,-0.027276231710492885,-0.2607671508127907,-0.3286703584614133,0,0,0,0,0,0,1500,1500,1500,1500,1500,1500
1748736558.547104,-0.05,-0.13,-0.11,-0.09926560120717749,-0.018544123302439753,0.08508480103472356,-0.04697898876845929,-0.26338555454857787,-0.31877545145878816,0,0,0,0,0,0,1500,1500,1500,1500,1500,1500
1748736558.647096,-0.05,-0.13,-0.11,-0.09926560120717749,-0.018544123302439753,0.08508480103472356,-0.04697898876845929,-0.26338555454857787,-0.31877545145878816,0,0,0,0,0,0,1500,1500,1500,1500,1500,1500
1748736558.7471077,-0.02,-0.14,-0.13,-0.10035643198967395,-0.026179938779914945,0.11671889372712078,-0.04697898876845929,-0.26338555454857787,-0.31877545145878816,0,0,0,0,0,0,1500,1500,1500,1500,1500,1500
1748736558.846642,-0.02,-0.14,-0.13,-0.10035643198967395,-0.026179938779914945,0.11671889372712078,-0.04697898876845929,-0.26338555454857787,-0.31877545145878816,0,0,0,0,0,0,1500,1500,1500,1500,1500,1500
1748736558.9284635,-0.03,-0.13,-0.15,-0.08726646259971647,-0.02181661564992912,0.1461713248545251,-0.0881633168712231,-0.26772863820227066,-0.28062283393470194,0,0,0,0,0,0,1500,1500,1500,1500,1500,1500
1748736559.0305812,-0.04,-0.17,-0.14,-0.06872233929727672,-0.016362461737446838,0.1636246173744684,-0.10742480865473826,-0.2682502455602498,-0.2552198543318353,0,0,0,0,0,0,1500,1500,1500,1500,1500,1500
1748736559.117134,-0.04,-0.17,-0.14,-0.06872233929727672,-0.016362461737446838,0.1636246173744684,-0.10742480865473826,-0.2682502455602498,-0.2552198543318353,0,0,0,0,0,0,1500,1500,1500,1500,1500,1500
1748736559.2137263,-0.06,-0.16,-0.1,-0.04908738521234052,-0.015271630954950384,0.17671458676442586,-0.12410678488934265,-0.2677036452645941,-0.22734750046120036,0,0,0,0,0,0,1500,1500,1500,1500,1500,1500
1748736559.314493,-0.06,-0.16,-0.1,-0.04908738521234052,-0.015271630954950384,0.17671458676442586,-0.12410678488934265,-0.2677036452645941,-0.22734750046120036,0,0,0,0,0,0,1500,1500,1500,1500,1500,1500
1748736559.3984385,-0.09,-0.12,-0.11,-0.018544123302439753,-0.009817477042468103,0.18762289458939044,-0.1364700082717455,-0.26644199846705197,-0.1996277728914997,0,0,0,0,0,0,1500,1500,1500,1500,1500,1500
1748736559.4969647,-0.08,-0.16,-0.12,0.009817477042468103,-0.009817477042468103,0.19198621771937624,-0.145421025926998,-0.2634577989791733,-0.16912621557491514,0,0,0,0,0,0,1500,1500,1500,1500,1500,1500
1748736559.597003,-0.08,-0.16,-0.12,0.009817477042468103,-0.009817477042468103,0.19198621771937624,-0.145421025926998,-0.2634577989791733,-0.16912621557491514,0,0,0,0,0,0,1500,1500,1500,1500,1500,1500
1748736559.681084,-0.1,-0.16,-0.15,0.032724923474893676,-0.00545415391248228,0.19853120241435498,-0.15036688589501365,-0.25991319291289205,-0.1396041254563574,0,0,0,0,0,0,1500,1500,1500,1500,1500,1500
1748736559.778784,-0.1,-0.16,-0.15,0.032724923474893676,-0.00545415391248228,0.19853120241435498,-0.15036688589501365,-0.25991319291289205,-0.1396041254563574,0,0,0,0,0,0,1500,1500,1500,1500,1500,1500
1748736559.8801916,-0.09,-0.16,-0.15,0.05781403147231216,-0.003272492347489368,0.20507618710933373,-0.1515283435052514,-0.25533576439892747,-0.10747168944343055,0,0,0,0,0,0,1500,1500,1500,1500,1500,1500
1748736559.9804504,-0.09,-0.17,-0.13,0.07744898555724837,-0.003272492347489368,0.20616701789183017,-0.14906036805824152,-0.25057762393861144,-0.07486211282124915,0,0,0,0,0,0,1500,1500,1500,1500,1500,1500
1748736560.0787747,-0.09,-0.17,-0.13,0.07744898555724837,-0.003272492347489368,0.20616701789183017,-0.14906036805824152,-0.25057762393861144,-0.07486211282124915,0,0,0,0,0,0,1500,1500,1500,1500,1500,1500
1748736560.1621525,-0.12,-0.16,-0.17,0.09381144729469522,-0.008726646259971648,0.20616701789183017,-0.14555815306237235,-0.2451734485005465,-0.041849580500697724,0,0,0,0,0,0,1500,1500,1500,1500,1500,1500
1748736560.2655528,-0.12,-0.16,-0.17,0.09381144729469522,-0.008726646259971648,0.20616701789183017,-0.14555815306237235,-0.2451734485005465,-0.041849580500697724,0,0,0,0,0,0,1500,1500,1500,1500,1500,1500
1748736560.3628578,-0.14,-0.16,-0.13,0.11453723216212788,-0.013089969389957472,0.20398535632683726,-0.13932523049230783,-0.240441330886515,-0.009027683612923328,0,0,0,0,0,0,1500,1500,1500,1500,1500,1500
1748736560.449195,-0.11,-0.15,-0.15,0.11562806294462433,-0.011999138607461015,0.20398535632683726,-0.13205590082084595,-0.23731653044553422,0.02204889349466961,0,0,0,0,0,0,1500,1500,1500,1500,1500,1500
1748736560.5486329,-0.11,-0.15,-0.15,0.11562806294462433,-0.011999138607461015,0.20398535632683726,-0.13205590082084595,-0.23731653044553422,0.02204889349466961,0,0,0,0,0,0,1500,1500,1500,1500,1500,1500
1748736560.6488736,-0.12,-0.14,-0.1,0.11780972450961724,-0.019634954084936207,0.20507618710933373,-0.12328925828432205,-0.23524804103683206,0.055229673902139696,0,0,0,0,0,0,1500,1500,1500,1500,1500,1500
1748736560.748458,-0.1,-0.14,-0.11,0.11453723216212788,-0.02945243112740431,0.20289452554434081,-0.1149398576282323,-0.23461353957313552,0.0864603153770559,0,0,0,0,0,0,1500,1500,1500,1500,1500,1500
1748736560.8513763,-0.1,-0.14,-0.11,0.11453723216212788,-0.02945243112740431,0.20289452554434081,-0.1149398576282323,-0.23461353957313552,0.0864603153770559,0,0,0,0,0,0,1500,1500,1500,1500,1500,1500
1748736560.948064,-0.1,-0.14,-0.12,0.11126473981463851,-0.04254240051736178,0.19962203319685143,-0.10643019121409174,-0.23546515366372137,0.11962105101091257,0,0,0,0,0,0,1500,1500,1500,1500,1500,1500
1748736561.0526836,-0.12,-0.12,-0.11,0.10362892433716332,-0.04036073895236887,0.2007128639793479,-0.09840360065625707,-0.23775285411335442,0.15244295086003912,0,0,0,0,0,0,1500,1500,1500,1500,1500,1500
1748736561.148863,-0.12,-0.12,-0.11,0.10362892433716332,-0.04036073895236887,0.2007128639793479,-0.09840360065625707,-0.23775285411335442,0.15244295086003912,0,0,0,0,0,0,1500,1500,1500,1500,1500,1500
1748736561.2479854,-0.11,-0.13,-0.09,0.09708393964218458,-0.04908738521234052,0.19525871006686563,-0.09129597564591038,-0.24155515069242162,0.18487002431893657,0,0,0,0,0,0,1500,1500,1500,1500,1500,1500
1748736561.3477857,-0.11,-0.13,-0.09,0.09708393964218458,-0.04908738521234052,0.19525871006686563,-0.09129597564591038,-0.24155515069242162,0.18487002431893657,0,0,0,0,0,0,1500,1500,1500,1500,1500,1500
1748736561.4464252,-0.1,-0.12,-0.11,0.08944812416470939,-0.05235987755982989,0.19416787928436915,-0.08564653351451401,-0.24637141814289726,0.2171863845427681,0,0,0,0,0,0,1500,1500,1500,1500,1500,1500
1748736561.5550034,-0.12,-0.11,-0.12,0.07853981633974483,-0.06217735460229799,0.1930770485018727,-0.08236789167861802,-0.2519814033476622,0.24768017167307455,0,0,0,0,0,0,1500,1500,1500,1500,1500,1500
1748736561.6627512,-0.12,-0.11,-0.12,0.07853981633974483,-0.06217735460229799,0.1930770485018727,-0.08236789167861802,-0.2519814033476622,0.24768017167307455,0,0,0,0,0,0,1500,1500,1500,1500,1500,1500
1748736561.7721515,-0.14,-0.14,-0.1,0.07417649320975901,-0.05890486225480862,0.18544123302439752,-0.07855478059814872,-0.258954989939041,0.2788598693635467,0,0,0,0,0,0,1500,1500,1500,1500,1500,1500
1748736561.8789077,-0.12,-0.14,-0.12,0.06872233929727672,-0.05781403147231216,0.17780541754692233,-0.07503232139127472,-0.2654069016588564,0.3067497046066995,0,0,0,0,0,0,1500,1500,1500,1500,1500,1500
1748736561.963018,-0.12,-0.14,-0.12,0.06872233929727672,-0.05781403147231216,0.17780541754692233,-0.07503232139127472,-0.2654069016588564,0.3067497046066995,0,0,0,0,0,0,1500,1500,1500,1500,1500,1500
1748736562.0625021,-0.16,-0.12,-0.06,0.06654067773228381,-0.05672320068981571,0.17453292519943295,-0.07257973223529751,-0.2717434723223058,0.33586252047872267,0,0,0,0,0,0,1500,1500,1500,1500,1500,1500
1748736562.1472201,-0.16,-0.1,-0.1,0.06326818538479445,-0.0545415391248228,0.1712604328519436,-0.07218230529189999,-0.2769874369850552,0.36464956372441787,0,0,0,0,0,0,1500,1500,1500,1500,1500,1500
1748736562.246467,-0.16,-0.1,-0.1,0.06326818538479445,-0.0545415391248228,0.1712604328519436,-0.07218230529189999,-0.2769874369850552,0.36464956372441787,0,0,0,0,0,0,1500,1500,1500,1500,1500,1500
1748736562.346081,-0.27,0.2,-0.16,0.05781403147231216,-0.044724062082354694,0.16035212502697901,-0.07225761850478252,-0.28251205055347905,0.39097920403796094,0,0,0,0,0,0,1500,1500,1500,1500,1500,1500
1748736562.4295905,-0.27,0.2,-0.16,0.05781403147231216,-0.044724062082354694,0.16035212502697901,-0.07225761850478252,-0.28251205055347905,0.39097920403796094,0,0,0,0,0,0,1500,1500,1500,1500,1500,1500
1748736562.5287766,-0.06,0.12,-0.25,0.07090400086226964,-0.05999569303730508,0.14289883250703572,-0.07061667011545734,-0.2883412738570807,0.41702284121934247,0,0,0,0,0,0,1500,1500,1500,1500,1500,1500
1748736562.6201453,-0.11,-0.18,1.34,0.13526301702956053,-0.05781403147231216,0.13199052468207118,-0.06441260297590402,-0.29456562431353195,0.4407233048530119,0,0,0,0,0,-0.000465,1500,1500,1500,1500,1500,1500
1748736562.7130606,-0.11,-0.18,1.34,0.13526301702956053,-0.05781403147231216,0.13199052468207118,-0.06441260297590402,-0.29456562431353195,0.4407233048530119,0,0,0,0,0,0,1500,1500,1500,1500,1500,1500
1748736562.8133109,0.1,-0.21,-0.23,0.17671458676442586,-0.050178215994836975,0.10690141668465268,-0.045855907148368825,-0.3006471423607321,0.46109239036778227,0,0,0,0,0,0,1500,1500,1500,1500,1500,1500
1748736562.8956876,0.1,-0.21,-0.23,0.17671458676442586,-0.050178215994836975,0.10690141668465268,-0.045855907148368825,-0.3006471423607321,0.46109239036778227,0,1.051254,0,0,0,-0.557803,1473,1526,1526,1500,1500,1500
1748736562.9947937,-0.15,-0.02,-0.1,0.23671027980173096,-0.038179077387375956,0.11235557059713497,-0.0217989362569171,-0.3059273996118877,0.47842227395833914,0,1.812745,0,0,0,-0.7,1446,1552,1551,1500,1500,1500
1748736563.0892575,-0.14,-0.1,-0.04,0.23671027980173096,-0.020725784867432664,0.09272061651219876,0.009558696189460147,-0.3097363428663999,0.49571242239419755,0,1.812745,0,0,0,-0.7,1419,1578,1551,1500,1500,1500
1748736563.1789458,-0.14,-0.1,-0.04,0.23671027980173096,-0.020725784867432664,0.09272061651219876,0.009558696189460147,-0.3097363428663999,0.49571242239419755,0,1.812745,0,0,0,-0.7,1396,1604,1551,1500,1500,1500
1748736563.2791467,-0.06,-0.1,-0.02,0.22689280275926285,0.011999138607461015,0.032724923474893676,0.03936897708860435,-0.31111669077227433,0.5088040168924313,0,1.812745,0,0,0,-0.7,1396,1623,1551,1500,1500,1500
1748736563.3784504,-0.06,-0.1,-0.02,0.22689280275926285,0.011999138607461015,0.032724923474893676,0.03936897708860435,-0.31111669077227433,0.5088040168924313,0,1.812745,0,0,0,-0.507407,1418,1607,1551,1500,1500,1500
1748736563.4631498,0.01,0.13,-0.26,0.12435470920459599,0.017453292519943295,-0.28688849579656794,0.07269182175538474,-0.3057093984480887,0.49305830733843053,0,0,0,0,0,0,1444,1580,1524,1500,1500,1500
1748736563.5646272,-0.2,0.15,-0.09,0.07090400086226964,-0.004363323129985824,-0.5465062220307244,0.10844163006230435,-0.2977549519901586,0.4175253632081142,0,0,0,0,0,0,1470,1553,1500,1500,1500,1500
1748736563.664527,-0.2,0.15,-0.09,0.07090400086226964,-0.004363323129985824,-0.5465062220307244,0.10844163006230435,-0.2977549519901586,0.4175253632081142,0,0,0,0,0,0,1496,1526,1500,1500,1500,1500
1748736563.7650788,-0.38,-0.7000000000000001,-0.26,0.05672320068981571,-0.06435901616729091,-0.4385139745635753,0.13660084650158072,-0.29285350532548504,0.33652454852804614,0,0,0,0,0,0,1500,1500,1500,1500,1500,1500
1748736563.8620052,-0.38,-0.7000000000000001,-0.26,0.05672320068981571,-0.06435901616729091,-0.4385139745635753,0.13660084650158072,-0.29285350532548504,0.33652454852804614,0,0,0,0,0,0,1500,1500,1500,1500,1500,1500
1748736563.9469898,-0.1,-0.27,0.03,0.061086523819801536,-0.0719948316447661,-0.28034351110158917,0.1576401298458434,-0.29549661880186234,0.28357792717007074,0,0,0,0,0,0,1500,1500,1500,1500,1500,1500
1748736564.0488164,-0.45,-0.42,0.04,0.022907446432425576,-0.05235987755982989,-0.19416787928436915,0.17238429668252145,-0.299750735350968,0.24685419726105617,0,0,0,0,0,0,1500,1500,1500,1500,1500,1500
1748736564.1458447,-0.45,-0.42,0.04,0.022907446432425576,-0.05235987755982989,-0.19416787928436915,0.17238429668252145,-0.299750735350968,0.24685419726105617,0,0,0,0,0,0,1500,1500,1500,1500,1500,1500
1748736564.2456784,0.19,-0.04,0.06,-0.018544123302439753,-0.0719948316447661,-0.12871803233458182,0.17752009713841901,-0.30482190668072895,0.22363327191777974,0,0,0,0,0,0,1500,1500,1500,1500,1500,1500
1748736564.3409445,0.22,0.35000000000000003,0.09,-0.02399827721492203,-0.05672320068981571,-0.05781403147231216,0.17606913248123104,-0.30981429842397473,0.208867073134899,0,0,0,0,0,0,1500,1500,1500,1500,1500,1500
1748736564.429408,0.22,0.35000000000000003,0.09,-0.02399827721492203,-0.05672320068981571,-0.05781403147231216,0.17606913248123104,-0.30981429842397473,0.208867073134899,0,0,0,0,0,0,1500,1500,1500,1500,1500,1500
1748736564.5292933,-0.32,-0.45,0.07,-0.0719948316447661,-0.04145156973486533,-0.038179077387375956,0.17028422311251618,-0.3155286809608808,0.20071234075905434,0,0,0,0,0,0,1500,1500,1500,1500,1500,1500
1748736564.6167197,-0.32,-0.45,0.07,-0.0719948316447661,-0.04145156973486533,-0.038179077387375956,0.17028422311251618,-0.3155286809608808,0.20071234075905434,0,0,0,0,0,0,1500,1500,1500,1500,1500,1500
1748736564.7135005,-0.1,-0.05,-0.11,-0.08617563181722002,-0.044724062082354694,0.007635815477475192,0.1577866816463156,-0.3214653229042658,0.1982302597923289,0,0,0,0,0,0,1500,1500,1500,1500,1500,1500
1748736564.813319,-0.26,-0.22,-0.17,-0.09381144729469522,-0.02945243112740431,0.04145156973486533,0.1416103187548374,-0.32684271021202377,0.20206356205228526,0,0,0,0,0,0,1500,1500,1500,1500,1500,1500
1748736564.8978217,-0.26,-0.22,-0.17,-0.09381144729469522,-0.02945243112740431,0.04145156973486533,0.1416103187548374,-0.32684271021202377,0.20206356205228526,0,0,0,0,0,0,1500,1500,1500,1500,1500,1500
1748736564.993238,0.03,0.04,-0.24,-0.11562806294462433,-0.016362461737446838,0.05672320068981571,0.12185989260552506,-0.3299059280058644,0.2106707749684093,0,0,0,0,0,0,1500,1500,1500,1500,1500,1500
1748736565.0984802,0.03,0.04,-0.24,-0.11562806294462433,-0.016362461737446838,0.05672320068981571,0.12185989260552506,-0.3299059280058644,0.2106707749684093,0,0,0,0,0,0,1500,1500,1500,1500,1500,1500
1748736565.1960735,0.13,0.06,-0.3,-0.10690141668465268,-0.020725784867432664,0.08290313946973066,0.1016414877815159,-0.33272009844511274,0.22205763463814757,0,0,0,0,0,0,1500,1500,1500,1500,1500,1500
1748736565.2936785,-0.19,-0.31,-0.12,-0.08944812416470939,-0.008726646259971648,0.10253809355466686,0.0787455791427837,-0.3345535883792791,0.2379920031465694,0,0,0,0,0,0,1500,1500,1500,1500,1500,1500
1748736565.394617,-0.19,-0.31,-0.12,-0.08944812416470939,-0.008726646259971648,0.10253809355466686,0.0787455791427837,-0.3345535883792791,0.2379920031465694,0,0,0,0,0,0,1500,1500,1500,1500,1500,1500
1748736565.5095966,-0.11,-0.31,0.0,-0.09381144729469522,-0.004363323129985824,0.10471975511965978,0.0572346358182842,-0.33631278408301196,0.2550080646632118,0,0,0,0,0,0,1500,1500,1500,1500,1500,1500
1748736565.6113148,-0.16,-0.23,0.09,-0.08835729338221293,-0.013089969389957472,0.1189005552921137,0.03655768796900317,-0.3382515936996261,0.27471193429024954,0,0,0,0,0,0,1500,1500,1500,1500,1500,1500
1748736565.7031646,-0.16,-0.23,0.09,-0.08835729338221293,-0.013089969389957472,0.1189005552921137,0.03655768796900317,-0.3382515936996261,0.27471193429024954,0,0,0,0,0,0,1500,1500,1500,1500,1500,1500
1748736565.7917836,-0.04,-0.13,0.0,-0.02945243112740431,0.006544984694978736,0.13526301702956053,0.01954031813193545,-0.3382391778865365,0.29624947499997334,0,0,0,0,0,0,1500,1500,1500,1500,1500,1500
1748736565.882485,-0.04,-0.13,0.0,-0.02945243112740431,0.006544984694978736,0.13526301702956053,0.01954031813193545,-0.3382391778865365,0.29624947499997334,0,0,0,0,0,0,1500,1500,1500,1500,1500,1500
1748736565.979588,-0.15,-0.35000000000000003,-0.17,-0.007635815477475192,0.01090830782496456,0.10799224746714914,0.00925139381436791,-0.3379460240660879,0.31653881449742577,0,0,0,0,0,0,1500,1500,1500,1500,1500,1500
1748736566.0763614,-0.16,-0.1,-0.12,0.026179938779914945,0.003272492347489368,0.09926560120717749,0.004286688155268935,-0.3360656569981115,0.3350203133758166,0,0,0,0,0,0,1500,1500,1500,1500,1500,1500
1748736566.1674337,-0.16,-0.1,-0.12,0.026179938779914945,0.003272492347489368,0.09926560120717749,0.004286688155268935,-0.3360656569981115,0.3350203133758166,0,0,0,0,0,0,1500,1500,1500,1500,1500,1500
1748736566.2638624,-0.38,-0.5,0.12,0.06981317007977318,0.018544123302439753,0.09926560120717749,0.00616415749772428,-0.3337602370364133,0.3508566491174569,0,0,0,0,0,0,1500,1500,1500,1500,1500,1500
1748736566.3644707,-0.38,-0.5,0.12,0.06981317007977318,0.018544123302439753,0.09926560120717749,0.00616415749772428,-0.3337602370364133,0.3508566491174569,0,0,0,0,0,0,1500,1500,1500,1500,1500,1500
1748736566.482334,0.12,0.17,-0.13,0.09817477042468103,0.025089107997418487,0.09490227807719166,0.013048706949204233,-0.33052559654561414,0.3665975861981397,0,0,0,0,0,0,1500,1500,1500,1500,1500,1500
1748736566.5805917,-0.04,-0.14,-0.21,0.09381144729469522,0.022907446432425576,0.08072147790473774,0.018672178735730738,-0.34347395796248936,0.38184977380240664,0,0,0,0,0,0,1500,1500,1500,1500,1500,1500
1748736566.6664042,-0.04,-0.14,-0.21,0.09381144729469522,0.022907446432425576,0.08072147790473774,0.018672178735730738,-0.34347395796248936,0.38184977380240664,0,0,0,0,0,0,1500,1500,1500,1500,1500,1500
1748736566.7646017,0.06,-0.18,0.01,0.08617563181722002,0.0,0.08508480103472356,0.03109280754560973,-0.3249081417795253,0.3946697652575078,0,0,0,0,0,0,1500,1500,1500,1500,1500,1500
1748736566.8587146,-0.27,-0.45,0.08,0.0818123086872342,-0.004363323129985824,0.09272061651219876,0.03803401203516242,-0.32405643315832006,0.40921859698308793,0,0,0,0,0,0,1500,1500,1500,1500,1500,1500
1748736566.9454975,-0.27,-0.45,0.08,0.0818123086872342,-0.004363323129985824,0.09272061651219876,0.03803401203516242,-0.32405643315832006,0.40921859698308793,0,0,0,0,0,0,1500,1500,1500,1500,1500,1500
1748736567.045753,0.03,-0.12,0.05,0.07853981633974483,-0.006544984694978736,0.09490227807719166,0.04441657649465973,-0.3245939648038467,0.42401818468616886,0,0,0,0,0,0,1500,1500,1500,1500,1500,1500
1748736567.1452777,0.03,-0.12,0.05,0.07853981633974483,-0.006544984694978736,0.09490227807719166,0.04441657649465973,-0.3245939648038467,0.42401818468616886,0,0,0,0,0,0,1500,1500,1500,1500,1500,1500
1748736567.247889,-0.32,-0.22,-0.16,0.05126904677733343,-0.013089969389957472,0.07853981633974483,0.04896392103368761,-0.3258265793056812,0.43839810993276745,0,0,0,0,0,-0.000465,1500,1500,1500,1500,1500,1500
1748736567.347014,-0.1,-0.09,0.19,0.02945243112740431,-0.028361600344907856,0.07963064712224129,0.05035840923417847,-0.3278550360280069,0.45154294892524727,0,0.01451,0,0,0,-0.688489,1473,1526,1500,1500,1500,1500
1748736567.4446712,-0.1,-0.09,0.19,0.02945243112740431,-0.028361600344907856,0.07963064712224129,0.05035840923417847,-0.3278550360280069,0.45154294892524727,0,0,0,0,0,-0.7,1446,1552,1500,1500,1500,1500
1748736567.547785,-0.17,-0.29,0.03,0.02399827721492203,-0.0272707695624114,0.07635815477475191,0.05046824546843691,-0.3316700264685592,0.46518411482608185,0,0,0,0,0,-0.7,1419,1578,1500,1500,1500,1500
1748736567.6383655,-0.14,-0.09,-0.18,0.02181661564992912,-0.013089969389957472,0.044724062082354694,0.04922714932455736,-0.3350880834113718,0.4773006955832703,0,0,0,0,0,-0.7,1392,1604,1500,1500,1500,1500
1748736567.727791,-0.14,-0.09,-0.18,0.02181661564992912,-0.013089969389957472,0.044724062082354694,0.04922714932455736,-0.3350880834113718,0.4773006955832703,0,0,0,0,0,-0.7,1377,1608,1500,1500,1500,1500
1748736567.828753,-0.05,0.31,-0.11,-0.03599741582238305,0.002181661564992912,-0.24980024919168842,0.05158178669897612,-0.33605611550447667,0.46775445754695866,0,0,0,0,0,-0.7,1377,1608,1500,1500,1500,1500
1748736567.9148133,-0.05,0.31,-0.11,-0.03599741582238305,0.002181661564992912,-0.24980024919168842,0.05158178669897612,-0.33605611550447667,0.46775445754695866,0,0,0,0,0,-0.7,1377,1608,1500,1500,1500,1500
1748736568.01951,-0.31,-0.2,0.0,-0.11344640137963143,-0.00545415391248228,-0.5977752688080579,0.06306376917135403,-0.331911488940978,0.3962923128549597,0,0,0,0,0,-0.7,1377,1608,1500,1500,1500,1500
1748736568.1116357,-0.31,-0.2,0.0,-0.11344640137963143,-0.00545415391248228,-0.5977752688080579,0.06306376917135403,-0.331911488940978,0.3962923128549597,0,0,0,0,0,-0.7,1377,1608,1500,1500,1500,1500
1748736568.1962514,0.12,0.09,-0.13,-0.11126473981463851,0.004363323129985824,-0.7755806863549802,0.08193182227038248,-0.32371080093085547,0.28167756944303046,0,0,0,0,0,-0.7,1377,1608,1500,1500,1500,1500
1748736568.294524,-0.03,-0.25,0.1,-0.10253809355466686,0.019634954084936207,-0.866119641302186,0.10642177120521606,-0.3097165355022492,0.14785702631262576,0,0,0,0,0,-0.7,1377,1608,1500,1500,1500,1500
1748736568.3949516,-0.03,-0.25,0.1,-0.10253809355466686,0.019634954084936207,-0.866119641302186,0.10642177120521606,-0.3097165355022492,0.14785702631262576,0,0,0,0,0,-0.7,1377,1608,1500,1500,1500,1500
1748736568.4944286,0.0,-0.15,0.08,-0.10253809355466686,0.019634954084936207,-0.866119641302186,0.12940337292391024,-0.29076920801946965,0.012553031705607056,0,-0.345023,0,0,0,-0.7,1373,1605,1500,1500,1500,1500
1748736568.5945842,0.22,-0.3,-0.19,-0.08835729338221293,-0.020725784867432664,-0.9337511498169663,0.15269719603399937,-0.27343198026860477,-0.13504167643630177,0,-1.440882,0,0,0,-0.7,1361,1596,1473,1500,1500,1500
1748736568.6784446,0.22,-0.3,-0.19,-0.08835729338221293,-0.020725784867432664,-0.9337511498169663,0.15269719603399937,-0.27343198026860477,-0.13504167643630177,0,-1.440882,0,0,0,-0.7,1361,1596,1448,1500,1500,1500
1748736568.7788665,-0.02,-0.4,-0.26,-0.10035643198967395,-0.05126904677733343,-0.9315694882519734,0.17515966510894904,-0.26013941262858153,-0.27361390878194725,0,-2.22685,0,0,0,-0.7,1354,1589,1439,1500,1500,1500
1748736568.8707592,-0.02,-0.4,-0.26,-0.10035643198967395,-0.05126904677733343,-0.9315694882519734,0.17515966510894904,-0.26013941262858153,-0.27361390878194725,0,-3.725313,0,0,0,-0.589187,1350,1562,1422,1500,1500,1500
1748736568.9671648,0.16,0.0,-0.07,-0.07853981633974483,-0.06544984694978735,-0.9435686268594344,0.19755479490116779,-0.24202144922681146,-0.42124185420023996,0,-4.681267,0,0,0,-0.537358,1346,1542,1414,1500,1500,1500
1748736569.0581603,-0.16,-0.43,-0.15,-0.07853981633974483,-0.07526732399225546,-0.8279405639148101,0.21752601961319257,-0.22329092367779776,-0.5645493714080122,0,-5.746281,0,0,0,-0.440859,1345,1515,1405,1500,1500,1500
1748736569.1457448,-0.16,-0.43,-0.15,-0.07853981633974483,-0.07526732399225546,-0.8279405639148101,0.21752601961319257,-0.22329092367779776,-0.5645493714080122,0,-7.074784,0,0,0,-0.337656,1342,1488,1394,1500,1500,1500
1748736569.2445827,-0.25,-0.18,-0.36,-0.19744037163185854,-0.07853981633974483,-0.6468626540203984,0.21875464974874545,-0.21119721981763506,-0.6775006662437054,0,-8.37155,0,0,0,-0.214975,1341,1461,1384,1500,1500,1500
1748736569.345528,-0.25,-0.18,-0.36,-0.19744037163185854,-0.07853981633974483,-0.6468626540203984,0.21875464974874545,-0.21119721981763506,-0.6775006662437054,0,-5.887076,0,0,0,-0.144981,1367,1434,1404,1500,1500,1500
1748736569.430437,-0.28,-0.12,-0.14,-0.26398104936414235,-0.14180800172453928,-0.607592745850526,0.2008940498638846,-0.20888938885781472,-0.7774224544865493,0,0,0,0,0,0,1393,1460,1430,1500,1500,1500
1748736569.5284944,0.73,0.15,-0.25,-0.27379852640661045,-0.1712604328519436,-0.533416252640767,0.18033619907808401,-0.21627059535196752,-0.8663899716110838,0,0,0,0,0,0,1419,1486,1456,1500,1500,1500
1748736569.6278574,0.73,0.15,-0.25,-0.27379852640661045,-0.1712604328519436,-0.533416252640767,0.18033619907808401,-0.21627059535196752,-0.8663899716110838,0,0,0,0,0,0,1445,1500,1482,1500,1500,1500
1748736569.7290962,0.41000000000000003,-0.33,-0.26,-0.25089107997418486,-0.08399397025222712,-0.35561083509384467,0.1558021839102362,-0.22412207888183167,-0.9376574410263988,0,0,0,0,0,0,1471,1500,1500,1500,1500,1500
1748736569.828239,0.41000000000000003,-0.33,-0.26,-0.25089107997418486,-0.08399397025222712,-0.35561083509384467,0.1558021839102362,-0.22412207888183167,-0.9376574410263988,0,8.371664,0,0,0,0.190128,1497,1526,1526,1500,1500,1500
1748736569.9119925,0.37,-0.31,-0.29,-0.2454369260617026,-0.0272707695624114,-0.20507618710933373,0.12778762059259763,-0.22867305640740218,-0.9810594479348893,0,10.521246,0,0,0,0.214986,1523,1552,1552,1500,1500,1500
1748736570.015889,0.33,-0.01,-0.08,-0.23452861823673804,-0.001090830782496456,-0.07635815477475191,0.09313923337038346,-0.23363866996151128,-1.0012862104289773,0,10.903366,0,0,0,0.221439,1549,1578,1578,1500,1500,1500
1748736570.1138775,0.33,-0.01,-0.08,-0.23452861823673804,-0.001090830782496456,-0.07635815477475191,0.09313923337038346,-0.23363866996151128,-1.0012862104289773,0,12.090617,0,0,0,0.065765,1575,1604,1604,1500,1500,1500
1748736570.2145064,0.44,0.08,-0.5700000000000001,-0.2519819107566813,0.06654067773228381,-0.02181661564992912,0.056107589489446594,-0.23057201471804475,-1.0047066068797148,0,12.5,0,0,0,0.010917,1601,1630,1627,1500,1500,1500
1748736570.3148487,0.96,0.02,-0.17,-0.2203478180642841,0.09708393964218458,-0.09053895494720585,0.022452289051846416,-0.22647452983870361,-1.0115005774414976,0,12.5,0,0,0,-0.001252,1627,1651,1627,1500,1500,1500
1748736570.4131045,0.96,0.02,-0.17,-0.2203478180642841,0.09708393964218458,-0.09053895494720585,0.022452289051846416,-0.22647452983870361,-1.0115005774414976,0,2.496058,0,0,0,-0.665754,1600,1625,1600,1500,1500,1500
1748736570.5113745,0.68,-0.02,-0.33,-0.10471975511965978,0.03599741582238305,-0.17671458676442586,0.0006646576174720836,-0.22721574878301604,-1.0323912531351258,0,1.11196,0,0,0,-0.7,1573,1618,1573,1500,1500,1500
1748736570.6118655,0.68,-0.02,-0.33,-0.10471975511965978,0.03599741582238305,-0.17671458676442586,0.0006646576174720836,-0.22721574878301604,-1.0323912531351258,0,1.11196,0,0,0,-0.7,1546,1618,1546,1500,1500,1500
1748736570.6947565,-0.28,0.18,0.04,-0.01090830782496456,-0.10799224746714914,-0.20616701789183017,0.0008504012014788525,-0.23638550836348335,-1.0628459839156021,0,1.051254,0,0,0,-0.7,1519,1617,1543,1500,1500,1500
1748736570.794869,-0.58,-0.45,-0.11,0.055632369907319255,-0.18544123302439752,-0.26398104936414235,0.012918136499489447,-0.25327666560154616,-1.0999209704706174,0,0.77328,0,0,0,-0.7,1492,1615,1539,1500,1500,1500
1748736570.894733,-0.58,-0.45,-0.11,0.055632369907319255,-0.18544123302439752,-0.26398104936414235,0.012918136499489447,-0.25327666560154616,-1.0999209704706174,0,0.77328,0,0,0,-0.7,1465,1615,1539,1500,1500,1500
1748736570.99456,-0.31,-0.48,0.03,0.08508480103472356,-0.23234695667174513,-0.3392483733563978,0.03506414757402333,-0.27803377469214396,-1.14728846404423,0,0.722797,0,0,0,-0.7,1438,1615,1539,1500,1500,1500
1748736571.095429,-0.31,-0.48,0.03,0.08508480103472356,-0.23234695667174513,-0.3392483733563978,0.03506414757402333,-0.27803377469214396,-1.14728846404423,0,0,0,0,0,-0.7,1411,1608,1512,1500,1500,1500
1748736571.1791644,-0.09,-0.26,-0.06,0.10799224746714914,-0.27379852640661045,-0.36106498900632694,0.0660846867243226,-0.3096661649707791,-1.2063525192082045,0,0,0,0,0,-0.7,1384,1608,1500,1500,1500,1500
1748736571.2783074,-0.28,0.0,-0.03,0.11017390903214205,-0.24980024919168842,-0.3196134192714616,0.10137392161927575,-0.34421098645963044,-1.2642968362569582,0,-0.014485,0,0,0,-0.7,1376,1608,1500,1500,1500,1500
1748736571.3784194,-0.28,0.0,-0.03,0.11017390903214205,-0.24980024919168842,-0.3196134192714616,0.10137392161927575,-0.34421098645963044,-1.2642968362569582,0,-0.031945,0,0,0,-0.7,1376,1608,1500,1500,1500,1500
1748736571.4621778,-0.58,-0.14,0.09,0.06326818538479445,-0.06981317007977318,-0.3436116964863836,0.13094959884455876,-0.3590328292947508,-1.319608248241942,0,-0.105417,0,0,0,-0.7,1376,1607,1500,1500,1500,1500
1748736571.5609503,-0.58,-0.14,0.09,0.06326818538479445,-0.06981317007977318,-0.3436116964863836,0.13094959884455876,-0.3590328292947508,-1.319608248241942,0,-1.440882,0,0,0,-0.7,1361,1596,1473,1500,1500,1500
1748736571.645035,-0.33,0.03,-0.23,0.05126904677733343,0.044724062082354694,-0.32070425005395803,0.15455568495806407,-0.3477101826552822,-1.3734100935272793,0,-2.056024,0,0,0,-0.7,1355,1591,1446,1500,1500,1500
1748736571.7459564,-0.16,-0.27,-0.27,0.08399397025222712,0.07417649320975901,-0.34033920413889424,0.18204187539592226,-0.3293653484795356,-1.4236560516347192,0,-2.056024,0,0,0,-0.7,1355,1591,1441,1500,1500,1500
1748736571.8446949,-0.16,-0.27,-0.27,0.08399397025222712,0.07417649320975901,-0.34033920413889424,0.18204187539592226,-0.3293653484795356,-1.4236560516347192,0,-2.056024,0,0,0,-0.7,1355,1591,1441,1500,1500,1500
1748736571.9289205,-0.1,0.0,0.13,0.08835729338221293,0.07744898555724837,-0.4014257279586958,0.21203185711237382,-0.30684111775841966,-1.4748964301296972,0,-2.056024,0,0,0,-0.7,1355,1591,1441,1500,1500,1500
1748736572.0291114,-0.1,0.0,0.13,0.08835729338221293,0.07744898555724837,-0.4014257279586958,0.21203185711237382,-0.30684111775841966,-1.4748964301296972,0,-2.056024,0,0,0,-0.7,1355,1591,1441,1500,1500,1500
1748736572.130128,0.29,0.08,-0.25,0.03599741582238305,0.06544984694978735,-0.5115996369908379,0.23958844099277357,-0.28167637657079253,-1.5387595581776177,0,-2.056024,0,0,0,-0.7,1355,1591,1441,1500,1500,1500
1748736572.2298172,0.05,-0.42,-0.06,0.00545415391248228,0.04363323129985824,-0.5683228376806536,0.264193018127318,-0.2531157509238556,-1.620809155915954,0,-2.056024,0,0,0,-0.7,1355,1591,1441,1500,1500,1500
1748736572.329258,0.05,-0.42,-0.06,0.00545415391248228,0.04363323129985824,-0.5683228376806536,0.264193018127318,-0.2531157509238556,-1.620809155915954,0,-2.056024,0,0,0,-0.7,1355,1591,1441,1500,1500,1500
1748736572.4122124,0.51,0.33,-0.13,-0.0545415391248228,0.014180800172453928,-0.5770494839406252,0.27949147460165485,-0.22512843095693547,-1.7085808872899682,0,-2.056024,0,0,0,-0.7,1355,1591,1441,1500,1500,1500
1748736572.5122921,0.51,0.33,-0.13,-0.0545415391248228,0.014180800172453928,-0.5770494839406252,0.27949147460165485,-0.22512843095693547,-1.7085808872899682,0,-2.140585,0,0,0,-0.7,1355,1590,1440,1500,1500,1500
1748736572.611919,0.14,-0.26,0.0,-0.1090830782496456,0.007635815477475192,-0.6174102228929941,0.28382569159399396,-0.19986117815778567,-1.7990604537468258,0,-2.140585,0,0,0,-0.7,1355,1590,1440,1500,1500,1500
1748736572.694895,0.41000000000000003,0.27,-0.23,-0.14180800172453928,0.014180800172453928,-0.6741334235828098,0.28197389676185713,-0.1718047949902798,-1.896404915440648,0,-2.140585,0,0,0,-0.7,1355,1590,1440,1500,1500,1500
1748736572.7947881,0.41000000000000003,0.27,-0.23,-0.14180800172453928,0.014180800172453928,-0.6741334235828098,0.28197389676185713,-0.1718047949902798,-1.896404915440648,0,-2.140585,0,0,0,-0.7,1355,1590,1440,1500,1500,1500
1748736572.8952177,0.04,-0.19,0.21,-0.16580627893946132,0.002181661564992912,-0.7210391472301574,0.27457084525832476,-0.14305027916393212,-1.9947335942944326,0,-1.511811,0,0,0,-0.7,1360,1595,1447,1500,1500,1500
1748736572.9953063,0.35000000000000003,0.36,-0.34,-0.1538071403320003,0.006544984694978736,-0.7581273938350369,0.26404208028954856,-0.11249474351868875,-2.106437996948785,0,-1.511811,0,0,0,-0.7,1360,1595,1447,1500,1500,1500
1748736573.0945907,0.35000000000000003,0.36,-0.34,-0.1538071403320003,0.006544984694978736,-0.7581273938350369,0.26404208028954856,-0.11249474351868875,-2.106437996948785,0,-9.060832,0,0,0,-0.234621,1333,1568,1420,1500,1500,1500
1748736573.1816463,0.44,0.19,-0.36,-0.16035212502697901,-0.007635815477475192,-0.791943148092427,0.2522327542477655,-0.08645788884947915,-2.2166176260346884,0,-12.5,0,0,0,-0.043296,1321,1541,1393,1500,1500,1500
1748736573.280257,0.44,0.19,-0.36,-0.16035212502697901,-0.007635815477475192,-0.791943148092427,0.2522327542477655,-0.08645788884947915,-2.2166176260346884,0,-12.5,0,0,0,-0.010913,1321,1514,1366,1500,1500,1500
1748736573.3802004,-0.37,-0.28,-0.06,-0.1832595714594046,0.004363323129985824,-0.8148505945248526,0.23565859248936655,-0.05937631350786538,-2.3394013228103527,0,-12.5,0,0,0,-0.001789,1321,1487,1354,1500,1500,1500
1748736573.480123,0.2,0.23,0.19,-0.20507618710933373,-0.09926560120717749,-0.7286749627076325,0.21108190732657622,-0.039560816483841355,-2.458877407443413,0,-12.5,0,0,0,0,1321,1460,1354,1500,1500,1500
1748736573.5831976,0.2,0.23,0.19,-0.20507618710933373,-0.09926560120717749,-0.7286749627076325,0.21108190732657622,-0.039560816483841355,-2.458877407443413,0,-12.5,0,0,0,0,1321,1433,1354,1500,1500,1500
1748736573.6799872,0.07,0.38,-0.23,-0.2596177262341565,-0.19525871006686563,-0.6217735460229799,0.17966836605977826,-0.04186000421068369,-2.564179546044823,0,-12.5,0,0,0,0,1321,1406,1354,1500,1500,1500
1748736573.7766404,-0.14,0.0,-0.13,-0.2999784651865254,-0.21271200258680892,-0.5159629601208237,0.1413709741500305,-0.058818841525963936,-2.658602796198163,0,-12.5,0,0,0,0,1321,1379,1354,1500,1500,1500
1748736573.8804638,-0.14,0.0,-0.13,-0.2999784651865254,-0.21271200258680892,-0.5159629601208237,0.1413709741500305,-0.058818841525963936,-2.658602796198163,0,-12.5,0,0,0,0,1321,1352,1354,1500,1500,1500
1748736573.9804146,0.19,-0.01,-0.1,-0.35452000431134817,-0.14835298641951802,-0.346884188833873,0.09632312742630184,-0.078754000344861,-2.726493761245296,0,-12.5,0,0,0,0,1321,1325,1354,1500,1500,1500
