time,ax,ay,az,gx,gy,gz,roll,pitch,yaw,cmd_fx,cmd_fy,cmd_fz,cmd_tx,cmd_ty,cmd_tz,pwm_1,pwm_2,pwm_3,pwm_4,pwm_5,pwm_6
1747444458.5345662,0.0,0.0,0.0,0.0,0.0,0.0,0.0,0.0,0.0,0,0,0,0,0,0,1500,1500,1500,1500,1500,1500
1747444458.6318653,0.0,0.0,0.0,0.007635815477475192,-0.002181661564992912,-0.001090830782496456,-0.22410888851617702,0.021064408663303277,-0.05962606498511783,0,0,0,0,0,0,1500,1500,1500,1500,1500,1500
1747444458.7158592,0.0,0.0,0.0,0.007635815477475192,-0.002181661564992912,-0.001090830782496456,-0.22410888851617702,0.021064408663303277,-0.05962606498511783,0,0,0,0,0,0,1500,1500,1500,1500,1500,1500
1747444458.815813,0.0,0.0,0.0,-0.00545415391248228,0.001090830782496456,0.001090830782496456,-0.22410888851617702,0.021064408663303277,-0.05962606498511783,0,0,0,0,0,0,1500,1500,1500,1500,1500,1500
1747444458.9046683,0.0,0.0,0.0,0.004363323129985824,-0.004363323129985824,0.001090830782496456,-0.22410888851617702,0.021064408663303277,-0.05962606498511783,0,0,0,0,0,0,1500,1500,1500,1500,1500,1500
1747444458.9991426,0.0,0.0,0.0,0.004363323129985824,-0.004363323129985824,0.001090830782496456,-0.22410888851617702,0.021064408663303277,-0.05962606498511783,0,0,0,0,0,0,1500,1500,1500,1500,1500,1500
1747444459.0998554,0.0,0.0,0.0,0.001090830782496456,-0.004363323129985824,-0.001090830782496456,-0.22410888851617702,0.021064408663303277,-0.05962606498511783,0,0,0,0,0,0,1500,1500,1500,1500,1500,1500
1747444459.2199712,0.0,0.0,0.0,0.001090830782496456,-0.004363323129985824,-0.001090830782496456,-0.22410888851617702,0.021064408663303277,-0.05962606498511783,0,0,0,0,0,0,1500,1500,1500,1500,1500,1500
1747444459.315532,0.0,0.0,0.0,-0.00545415391248228,-0.001090830782496456,0.0,-0.22410888851617702,0.021064408663303277,-0.05962606498511783,0,0,0,0,0,0,1500,1500,1500,1500,1500,1500
1747444459.4155195,0.0,0.0,0.0,-0.003272492347489368,0.002181661564992912,0.0,-0.22410888851617702,0.021064408663303277,-0.05962606498511783,0,0,0,0,0,0,1500,1500,1500,1500,1500,1500
1747444459.499451,0.0,0.0,0.0,-0.003272492347489368,0.002181661564992912,0.0,-0.22410888851617702,0.021064408663303277,-0.05962606498511783,0,0,0,0,0,0,1500,1500,1500,1500,1500,1500
1747444459.599847,0.0,0.0,0.0,0.0,-0.002181661564992912,0.0,-0.22410888851617702,0.021064408663303277,-0.05962606498511783,0,0,0,0,0,0,1500,1500,1500,1500,1500,1500
1747444459.6988285,0.0,0.0,0.0,0.00545415391248228,0.002181661564992912,0.001090830782496456,-0.22410888851617702,0.021064408663303277,-0.05962606498511783,0,0,0,0,0,0,1500,1500,1500,1500,1500,1500
1747444459.7826083,0.0,0.0,0.0,0.00545415391248228,0.002181661564992912,0.001090830782496456,-0.22410888851617702,0.021064408663303277,-0.05962606498511783,0,0,0,0,0,0,1500,1500,1500,1500,1500,1500
1747444459.8825815,0.0,0.0,0.0,-0.001090830782496456,-0.001090830782496456,-0.001090830782496456,-0.22410888851617702,0.021064408663303277,-0.05962606498511783,0,0,0,0,0,0,1500,1500,1500,1500,1500,1500
1747444459.9830673,0.0,0.0,0.0,-0.001090830782496456,-0.001090830782496456,-0.001090830782496456,-0.22410888851617702,0.021064408663303277,-0.05962606498511783,0,0,0,0,0,0,1500,1500,1500,1500,1500,1500
1747444460.082308,0.0,0.0,0.0,0.003272492347489368,-0.001090830782496456,0.001090830782496456,-0.22410888851617702,0.021064408663303277,-0.05962606498511783,0,0,0,0,0,0,1500,1500,1500,1500,1500,1500
1747444460.1830723,0.0,0.0,0.0,0.0,-0.001090830782496456,0.0,-0.22410888851617702,0.021064408663303277,-0.05962606498511783,0,0,0,0,0,0,1500,1500,1500,1500,1500,1500
1747444460.2832406,0.0,0.0,0.0,0.0,-0.001090830782496456,0.0,-0.22410888851617702,0.021064408663303277,-0.05962606498511783,0,0,0,0,0,0,1500,1500,1500,1500,1500,1500
1747444460.3829772,0.0,0.0,0.0,0.0,-0.001090830782496456,0.0,-0.22410888851617702,0.021064408663303277,-0.05962606498511783,0,0,0,0,0,0,1500,1500,1500,1500,1500,1500
1747444460.4822533,0.0,0.0,0.0,-0.006544984694978736,0.0,0.0,-0.22410888851617702,0.021064408663303277,-0.05962606498511783,0,0,0,0,0,0,1500,1500,1500,1500,1500,1500
1747444460.582269,0.0,0.0,0.0,-0.006544984694978736,0.0,0.0,-0.22410888851617702,0.021064408663303277,-0.05962606498511783,0,0,0,0,0,0,1500,1500,1500,1500,1500,1500
1747444460.682867,0.0,0.0,0.0,0.003272492347489368,0.001090830782496456,0.001090830782496456,-0.22410888851617702,0.021064408663303277,-0.05962606498511783,0,0,0,0,0,0,1500,1500,1500,1500,1500,1500
1747444460.7829847,0.0,0.0,0.0,-0.003272492347489368,-0.002181661564992912,-0.001090830782496456,-0.22410888851617702,0.021064408663303277,-0.05962606498511783,0,0,0,0,0,0,1500,1500,1500,1500,1500,1500
1747444460.8829806,0.0,0.0,0.0,-0.003272492347489368,-0.002181661564992912,-0.001090830782496456,-0.22410888851617702,0.021064408663303277,-0.05962606498511783,0,0,0,0,0,0,1500,1500,1500,1500,1500,1500
1747444460.9829433,0.0,0.0,0.0,0.001090830782496456,-0.002181661564992912,-0.002181661564992912,-0.22410888851617702,0.021064408663303277,-0.05962606498511783,0,0,0,0,0,0,1500,1500,1500,1500,1500,1500
1747444461.0826235,0.0,0.0,0.0,0.003272492347489368,0.001090830782496456,0.002181661564992912,-0.22410888851617702,0.021064408663303277,-0.05962606498511783,0,0,0,0,0,0,1500,1500,1500,1500,1500,1500
1747444461.1819725,0.0,0.0,0.0,0.003272492347489368,0.001090830782496456,0.002181661564992912,-0.22410888851617702,0.021064408663303277,-0.05962606498511783,0,0,0,0,0,0,1500,1500,1500,1500,1500,1500
1747444461.2652123,0.0,0.0,0.0,-0.007635815477475192,0.003272492347489368,0.003272492347489368,-0.22410888851617702,0.021064408663303277,-0.05962606498511783,0,0,0,0,0,0,1500,1500,1500,1500,1500,1500
1747444461.3665013,0.0,0.0,0.0,-0.007635815477475192,0.003272492347489368,0.003272492347489368,-0.22410888851617702,0.021064408663303277,-0.05962606498511783,0,0,0,0,0,0,1500,1500,1500,1500,1500,1500
1747444461.4654033,0.0,0.0,0.0,0.003272492347489368,0.002181661564992912,0.001090830782496456,-0.22410888851617702,0.021064408663303277,-0.05962606498511783,0,0,0,0,0,0,1500,1500,1500,1500,1500,1500
1747444461.5646691,0.0,0.0,0.0,0.002181661564992912,-0.004363323129985824,0.001090830782496456,-0.22410888851617702,0.021064408663303277,-0.05962606498511783,0,0,0,0,0,0,1500,1500,1500,1500,1500,1500
1747444461.6656225,0.0,0.0,0.0,0.002181661564992912,-0.004363323129985824,0.001090830782496456,-0.22410888851617702,0.021064408663303277,-0.05962606498511783,0,0,0,0,0,0,1500,1500,1500,1500,1500,1500
1747444461.7472153,0.0,0.0,0.0,-0.001090830782496456,0.002181661564992912,0.002181661564992912,-0.22410888851617702,0.021064408663303277,-0.05962606498511783,0,0,0,0,0,0,1500,1500,1500,1500,1500,1500
1747444461.8477545,0.0,0.0,0.0,-0.001090830782496456,0.002181661564992912,0.002181661564992912,-0.22410888851617702,0.021064408663303277,-0.05962606498511783,0,0,0,0,0,0,1500,1500,1500,1500,1500,1500
1747444461.9485455,0.0,0.0,0.0,0.002181661564992912,-0.001090830782496456,-0.002181661564992912,-0.22410888851617702,0.021064408663303277,-0.05962606498511783,0,0,0,0,0,0,1500,1500,1500,1500,1500,1500
1747444462.0341296,0.0,0.0,0.0,0.003272492347489368,-0.002181661564992912,0.002181661564992912,-0.22410888851617702,0.021064408663303277,-0.05962606498511783,0,0,0,0,0,0,1500,1500,1500,1500,1500,1500
1747444462.1324625,0.0,0.0,0.0,0.003272492347489368,-0.002181661564992912,0.002181661564992912,-0.22410888851617702,0.021064408663303277,-0.05962606498511783,0,0,0,0,0,0,1500,1500,1500,1500,1500,1500
1747444462.2169867,0.0,0.0,0.0,-0.003272492347489368,0.0,0.002181661564992912,-0.22410888851617702,0.021064408663303277,-0.05962606498511783,0,0,0,0,0,0,1500,1500,1500,1500,1500,1500
1747444462.3155131,0.0,0.0,0.0,-0.003272492347489368,0.0,0.002181661564992912,-0.22410888851617702,0.021064408663303277,-0.05962606498511783,0,0,0,0,0,0,1500,1500,1500,1500,1500,1500
1747444462.4158282,0.0,0.0,0.0,0.002181661564992912,-0.002181661564992912,-0.001090830782496456,-0.22410888851617702,0.021064408663303277,-0.05962606498511783,0,0,0,0,0,0,1500,1500,1500,1500,1500,1500
1747444462.4990413,0.0,0.0,0.0,0.003272492347489368,0.001090830782496456,0.002181661564992912,-0.22410888851617702,0.021064408663303277,-0.05962606498511783,0,0,0,0,0,0,1500,1500,1500,1500,1500,1500
1747444462.5988097,0.0,0.0,0.0,0.003272492347489368,0.001090830782496456,0.002181661564992912,-0.22410888851617702,0.021064408663303277,-0.05962606498511783,0,0,0,0,0,0,1500,1500,1500,1500,1500,1500
1747444462.6989238,0.0,0.0,0.0,-0.002181661564992912,0.0,0.001090830782496456,-0.22410888851617702,0.021064408663303277,-0.05962606498511783,0,0,0,0,0,0,1500,1500,1500,1500,1500,1500
1747444462.7817397,0.0,0.0,0.0,-0.002181661564992912,0.0,0.001090830782496456,-0.22410888851617702,0.021064408663303277,-0.05962606498511783,0,0,0,0,0,0,1500,1500,1500,1500,1500,1500
1747444462.8817756,0.0,0.0,0.0,0.001090830782496456,-0.00545415391248228,0.002181661564992912,-0.22410888851617702,0.021064408663303277,-0.05962606498511783,0,0,0,0,0,0,1500,1500,1500,1500,1500,1500
1747444462.9664705,0.0,0.0,0.0,0.002181661564992912,0.001090830782496456,0.001090830782496456,-0.22410888851617702,0.021064408663303277,-0.05962606498511783,0,0,0,0,0,0,1500,1500,1500,1500,1500,1500
1747444463.0656743,0.0,0.0,0.0,0.002181661564992912,0.001090830782496456,0.001090830782496456,-0.22410888851617702,0.021064408663303277,-0.05962606498511783,0,0,0,0,0,0,1500,1500,1500,1500,1500,1500
1747444463.1665611,0.0,0.0,0.0,-0.002181661564992912,0.0,0.0,-0.22410888851617702,0.021064408663303277,-0.05962606498511783,0,0,0,0,0,0,1500,1500,1500,1500,1500,1500
1747444463.2485328,0.0,0.0,0.0,-0.002181661564992912,0.0,0.0,-0.22410888851617702,0.021064408663303277,-0.05962606498511783,0,0,0,0,0,0,1500,1500,1500,1500,1500,1500
1747444463.3493607,0.0,0.0,0.0,-0.003272492347489368,0.004363323129985824,0.004363323129985824,-0.22410888851617702,0.021064408663303277,-0.05962606498511783,0,0,0,0,0,0,1500,1500,1500,1500,1500,1500
1747444463.4498436,0.0,0.0,0.0,-0.001090830782496456,-0.001090830782496456,-0.002181661564992912,-0.22410888851617702,0.021064408663303277,-0.05962606498511783,0,0,0,0,0,0,1500,1500,1500,1500,1500,1500
1747444463.5827765,0.0,0.0,0.0,-0.001090830782496456,-0.001090830782496456,-0.002181661564992912,-0.22410888851617702,0.021064408663303277,-0.05962606498511783,0,0,0,0,0,0,1500,1500,1500,1500,1500,1500
1747444463.6820982,0.0,0.0,0.0,0.002181661564992912,-0.001090830782496456,-0.002181661564992912,-0.22410888851617702,0.021064408663303277,-0.05962606498511783,0,0,0,0,0,0,1500,1500,1500,1500,1500,1500
1747444463.765598,0.0,0.0,0.0,-0.001090830782496456,0.002181661564992912,-0.001090830782496456,-0.22410888851617702,0.021064408663303277,-0.05962606498511783,0,0,0,0,0,0,1500,1500,1500,1500,1500,1500
1747444463.8657973,0.0,0.0,0.0,-0.001090830782496456,0.002181661564992912,-0.001090830782496456,-0.22410888851617702,0.021064408663303277,-0.05962606498511783,0,0,0,0,0,0,1500,1500,1500,1500,1500,1500
1747444463.9656324,0.0,0.0,0.0,0.003272492347489368,-0.001090830782496456,-0.001090830782496456,-0.22410888851617702,0.021064408663303277,-0.05962606498511783,0,0,0,0,0,0,1500,1500,1500,1500,1500,1500
1747444464.0680103,0.0,0.0,0.0,0.0,0.003272492347489368,-0.001090830782496456,-0.22410888851617702,0.021064408663303277,-0.05962606498511783,0,0,0,0,0,0,1500,1500,1500,1500,1500,1500
1747444464.1676757,0.0,0.0,0.0,0.0,0.003272492347489368,-0.001090830782496456,-0.22410888851617702,0.021064408663303277,-0.05962606498511783,0,0,0,0,0,0,1500,1500,1500,1500,1500,1500
1747444464.2501116,0.0,0.0,0.0,0.006544984694978736,-0.004363323129985824,-0.001090830782496456,-0.22410888851617702,0.021064408663303277,-0.05962606498511783,0,0,0,0,0,0,1500,1500,1500,1500,1500,1500
1747444464.3497405,0.0,0.0,0.0,0.006544984694978736,-0.004363323129985824,-0.001090830782496456,-0.22410888851617702,0.021064408663303277,-0.05962606498511783,0,0,0,0,0,0,1500,1500,1500,1500,1500,1500
1747444464.4506223,0.0,0.0,0.0,-0.003272492347489368,0.002181661564992912,0.0,-0.22410888851617702,0.021064408663303277,-0.05962606498511783,0,0,0,0,0,0,1500,1500,1500,1500,1500,1500
1747444464.55074,0.0,0.0,0.0,0.002181661564992912,0.0,-0.002181661564992912,-0.22410888851617702,0.021064408663303277,-0.05962606498511783,0,0,0,0,0,0,1500,1500,1500,1500,1500,1500
1747444464.6497476,0.0,0.0,0.0,0.002181661564992912,0.0,-0.002181661564992912,-0.22410888851617702,0.021064408663303277,-0.05962606498511783,0,0,0,0,0,0,1500,1500,1500,1500,1500,1500
1747444464.733152,0.0,0.0,0.0,0.003272492347489368,-0.001090830782496456,-0.002181661564992912,-0.22410888851617702,0.021064408663303277,-0.05962606498511783,0,0,0,0,0,0,1500,1500,1500,1500,1500,1500
1747444464.8335733,0.0,0.0,0.0,-0.001090830782496456,0.0,-0.001090830782496456,-0.22410888851617702,0.021064408663303277,-0.05962606498511783,0,0,0,0,0,0,1500,1500,1500,1500,1500,1500
1747444464.932939,0.0,0.0,0.0,-0.001090830782496456,0.0,-0.001090830782496456,-0.22410888851617702,0.021064408663303277,-0.05962606498511783,0,0,0,0,0,0,1500,1500,1500,1500,1500,1500
1747444465.0340703,0.0,0.0,0.0,0.002181661564992912,0.001090830782496456,-0.002181661564992912,-0.22410888851617702,0.021064408663303277,-0.05962606498511783,0,0,0,0,0,0,1500,1500,1500,1500,1500,1500
1747444465.1278534,0.0,0.0,0.0,0.003272492347489368,-0.001090830782496456,0.0,-0.22410888851617702,0.021064408663303277,-0.05962606498511783,0,0,0,0,0,0,1500,1500,1500,1500,1500,1500
1747444465.217832,0.0,0.0,0.0,0.003272492347489368,-0.001090830782496456,0.0,-0.22410888851617702,0.021064408663303277,-0.05962606498511783,0,0,0,0,0,0,1500,1500,1500,1500,1500,1500
1747444465.31672,0.0,0.0,0.0,-0.002181661564992912,-0.004363323129985824,0.002181661564992912,-0.22410475570274843,0.020943131164287365,-0.059612281142757476,0,0,0,0,0,0,1500,1500,1500,1500,1500,1500
1747444465.4169316,0.0,0.0,0.0,-0.002181661564992912,-0.004363323129985824,0.002181661564992912,-0.22410475570274843,0.020943131164287365,-0.059612281142757476,0,0,0,0,0,0,1500,1500,1500,1500,1500,1500
1747444465.4999163,0.0,0.0,0.0,-0.001090830782496456,0.001090830782496456,0.001090830782496456,-0.22410475570274843,0.020943131164287365,-0.059612281142757476,0,0,0,0,0,0,1500,1500,1500,1500,1500,1500
1747444465.5926743,0.0,0.0,0.0,0.0,-0.002181661564992912,0.0,-0.22410475570274843,0.020943131164287365,-0.059612281142757476,0,0,0,0,0,0,1500,1500,1500,1500,1500,1500
1747444465.699494,0.0,0.0,0.0,0.0,-0.002181661564992912,0.0,-0.22410475570274843,0.020943131164287365,-0.059612281142757476,0,0,0,0,0,0,1500,1500,1500,1500,1500,1500
1747444465.8004022,0.0,0.0,0.0,0.003272492347489368,0.0,0.001090830782496456,-0.22410475570274843,0.020943131164287365,-0.059612281142757476,0,0,0,0,0,0,1500,1500,1500,1500,1500,1500
1747444465.900154,0.0,0.0,0.0,0.003272492347489368,0.0,0.001090830782496456,-0.22410475570274843,0.020943131164287365,-0.059612281142757476,0,0,0,0,0,0,1500,1500,1500,1500,1500,1500
1747444465.9834828,0.0,0.0,0.0,0.0,-0.003272492347489368,0.001090830782496456,-0.22410475570274843,0.020943131164287365,-0.059612281142757476,0,0,0,0,0,0,1500,1500,1500,1500,1500,1500
1747444466.0831642,0.0,0.0,0.0,0.001090830782496456,0.001090830782496456,0.001090830782496456,-0.22410475570274843,0.020943131164287365,-0.059612281142757476,0,0,0,0,0,0,1500,1500,1500,1500,1500,1500
1747444466.1838155,0.0,0.0,0.0,0.001090830782496456,0.001090830782496456,0.001090830782496456,-0.22410475570274843,0.020943131164287365,-0.059612281142757476,0,0,0,0,0,0,1500,1500,1500,1500,1500,1500
1747444466.2839777,0.0,0.0,0.0,0.001090830782496456,0.00545415391248228,-0.003272492347489368,-0.22410475570274843,0.020943131164287365,-0.059612281142757476,0,0,0,0,0,0,1500,1500,1500,1500,1500,1500
1747444466.3840938,0.0,0.0,0.0,0.0,0.003272492347489368,0.0,-0.22410475570274843,0.020943131164287365,-0.059612281142757476,0,0,0,0,0,0,1500,1500,1500,1500,1500,1500
1747444466.4661183,0.0,0.0,0.0,0.0,0.003272492347489368,0.0,-0.22410475570274843,0.020943131164287365,-0.059612281142757476,0,0,0,0,0,0,1500,1500,1500,1500,1500,1500
1747444466.567243,0.0,0.0,0.0,0.002181661564992912,0.003272492347489368,0.0,-0.22410475570274843,0.020943131164287365,-0.059612281142757476,0,0,0,0,0,0,1500,1500,1500,1500,1500,1500
1747444466.6663086,0.0,0.0,0.0,0.002181661564992912,0.003272492347489368,0.0,-0.22410475570274843,0.020943131164287365,-0.059612281142757476,0,0,0,0,0,0,1500,1500,1500,1500,1500,1500
1747444466.7502599,0.0,0.0,0.0,0.003272492347489368,-0.003272492347489368,0.0,-0.22410475570274843,0.020943131164287365,-0.059612281142757476,0,0,0,0,0,0,1500,1500,1500,1500,1500,1500
1747444466.8435633,0.0,0.0,0.0,-0.008726646259971648,-0.001090830782496456,0.002181661564992912,-0.22410475570274843,0.020943131164287365,-0.059612281142757476,0,0,0,0,0,0,1500,1500,1500,1500,1500,1500
1747444466.9499245,0.0,0.0,0.0,-0.008726646259971648,-0.001090830782496456,0.002181661564992912,-0.22410475570274843,0.020943131164287365,-0.059612281142757476,0,0,0,0,0,0,1500,1500,1500,1500,1500,1500
1747444467.0519133,0.0,0.0,0.0,0.00545415391248228,0.004363323129985824,0.001090830782496456,-0.22410475570274843,0.020943131164287365,-0.059612281142757476,0,0,0,0,0,0,1500,1500,1500,1500,1500,1500
1747444467.1465054,0.0,0.0,0.0,-0.002181661564992912,0.1407171709420428,0.0,-0.22398046460715051,0.02094660389653976,-0.05961060737275104,0,0,0,0,0,0,1500,1500,1500,1500,1500,1500
1747444467.2331338,0.0,0.0,0.0,-0.002181661564992912,0.1407171709420428,0.0,-0.22398046460715051,0.02094660389653976,-0.05961060737275104,0,0,0,0,0,0,1500,1500,1500,1500,1500,1500
1747444467.3341877,0.0,0.0,0.0,0.002181661564992912,0.001090830782496456,0.0,-0.22398046460715051,0.02094660389653976,-0.05961060737275104,0,0,0,0,0,0,1500,1500,1500,1500,1500,1500
1747444467.430927,0.0,0.0,0.0,0.002181661564992912,0.001090830782496456,0.0,-0.22398046460715051,0.02094660389653976,-0.05961060737275104,0,0,0,0,0,0,1500,1500,1500,1500,1500,1500
1747444467.514158,0.0,0.0,0.0,0.003272492347489368,-0.002181661564992912,-0.004363323129985824,-0.22398046460715051,0.02094660389653976,-0.05961060737275104,0,0,0,0,0,0,1500,1500,1500,1500,1500,1500
1747444467.6154435,0.0,0.0,0.0,0.003272492347489368,-0.002181661564992912,-0.004363323129985824,-0.22398046460715051,0.02094660389653976,-0.05961060737275104,0,0,0,0,0,0,1500,1500,1500,1500,1500,1500
1747444467.7153397,0.0,0.0,0.0,0.001090830782496456,0.002181661564992912,-0.003272492347489368,-0.22398046460715051,0.02094660389653976,-0.05961060737275104,0,0,0,0,0,0,1500,1500,1500,1500,1500,1500
1747444467.8153226,0.0,0.0,0.0,-0.00545415391248228,0.001090830782496456,0.00545415391248228,-0.22398046460715051,0.02094660389653976,-0.05961060737275104,0,0,0,0,0,0,1500,1500,1500,1500,1500,1500
1747444467.9154956,0.0,0.0,0.0,-0.00545415391248228,0.001090830782496456,0.00545415391248228,-0.22398046460715051,0.02094660389653976,-0.05961060737275104,0,0,0,0,0,0,1500,1500,1500,1500,1500,1500
1747444467.9983242,0.0,0.0,0.0,0.00545415391248228,0.002181661564992912,-0.003272492347489368,-0.22335905720316082,0.020963967561592328,-0.059602238517703125,0,0,0,0,0,0,1500,1500,1500,1500,1500,1500
1747444468.101127,0.0,0.0,0.0,0.001090830782496456,0.001090830782496456,0.003272492347489368,-0.22335905720316082,0.020963967561592328,-0.059602238517703125,0,0,0,0,0,0,1500,1500,1500,1500,1500,1500
1747444468.1996412,0.0,0.0,0.0,0.001090830782496456,0.001090830782496456,0.003272492347489368,-0.22335905720316082,0.020963967561592328,-0.059602238517703125,0,0,0,0,0,0,1500,1500,1500,1500,1500,1500
1747444468.3005621,0.0,0.0,0.0,0.01090830782496456,-0.004363323129985824,0.003272492347489368,-0.22312536414229567,0.020959041645671396,-0.05972384116659287,0,0,0,0,0,0,1500,1500,1500,1500,1500,1500
1747444468.3945506,0.0,0.0,0.0,0.003272492347489368,0.0,-0.003272492347489368,-0.22115049119805405,0.021016401397109485,-0.05970053496729135,0,0,0,0,0,0,1500,1500,1500,1500,1500,1500
1747444468.48235,0.0,0.0,0.0,0.003272492347489368,0.0,-0.003272492347489368,-0.22115049119805405,0.021016401397109485,-0.05970053496729135,0,0,0,0,0,0,1500,1500,1500,1500,1500,1500
1747444468.5817764,0.0,0.0,0.0,-0.020725784867432664,0.002181661564992912,0.006544984694978736,-0.22212963931182353,0.021000371660994943,-0.059588967356205835,0,0,0,0,0,0,1500,1500,1500,1500,1500,1500
1747444468.6824746,0.0,0.0,0.0,-0.020725784867432664,0.002181661564992912,0.006544984694978736,-0.22212963931182353,0.021000371660994943,-0.059588967356205835,0,0,0,0,0,0,1500,1500,1500,1500,1500,1500
1747444468.7656555,0.0,0.0,0.0,-0.002181661564992912,-0.006544984694978736,-0.006544984694978736,-0.16868481454187753,0.48288628795721217,2.6177056356935884,0,0,0,0,0,0,1500,1500,1500,1500,1500,1500
1747444468.8656552,0.0,0.0,0.0,0.011999138607461015,0.0,0.002181661564992912,-0.2210246269188222,0.021033303049406368,-0.05957736995067282,0,0,0,0,0,0,1500,1500,1500,1500,1500,1500
1747444468.9656396,0.0,0.0,0.0,0.011999138607461015,0.0,0.002181661564992912,-0.2210246269188222,0.021033303049406368,-0.05957736995067282,0,0,0,0,0,0,1500,1500,1500,1500,1500,1500
1747444469.0655224,0.0,0.0,0.0,-0.011999138607461015,-0.004363323129985824,-0.003272492347489368,-0.22127308681237987,0.021026357572514975,-0.059580717503628686,0,0,0,0,0,0,1500,1500,1500,1500,1500,1500
1747444469.1652894,0.0,0.0,0.0,-0.011999138607461015,-0.004363323129985824,-0.003272492347489368,-0.22127308681237987,0.021026357572514975,-0.059580717503628686,0,0,0,0,0,0,1500,1500,1500,1500,1500,1500
1747444469.2491813,0.0,0.0,0.0,0.007635815477475192,0.0,-0.001090830782496456,-0.22152155939011642,0.02101941209663804,-0.05958406505524763,0,0,0,0,0,0,1500,1500,1500,1500,1500,1500
1747444469.3485672,0.0,0.0,0.0,0.006544984694978736,-0.001090830782496456,-0.001090830782496456,-0.22127308681237987,0.021026357572514975,-0.059580717503628686,0,0,0,0,0,0,1500,1500,1500,1500,1500,1500
1747444469.448281,0.0,0.0,0.0,0.006544984694978736,-0.001090830782496456,-0.001090830782496456,-0.22127308681237987,0.021026357572514975,-0.059580717503628686,0,0,0,0,0,0,1500,1500,1500,1500,1500,1500
1747444469.5310962,0.0,0.0,0.0,0.004363323129985824,0.001090830782496456,-0.001090830782496456,-0.22127308681237987,0.021026357572514975,-0.059580717503628686,0,0,0,0,0,0,1500,1500,1500,1500,1500,1500
1747444469.631831,0.0,0.0,0.0,0.004363323129985824,0.001090830782496456,-0.001090830782496456,-0.22127308681237987,0.021026357572514975,-0.059580717503628686,0,0,0,0,0,0,1500,1500,1500,1500,1500,1500
1747444469.7316396,0.0,0.0,0.0,0.001090830782496456,0.001090830782496456,-0.004363323129985824,-0.22127308681237987,0.021026357572514975,-0.059580717503628686,0,0,0,0,0,0,1500,1500,1500,1500,1500,1500
1747444469.8341088,0.0,0.0,0.0,-0.002181661564992912,0.0,-0.002181661564992912,-0.22127308681237987,0.021026357572514975,-0.059580717503628686,0,0,0,0,0,0,1500,1500,1500,1500,1500,1500
1747444469.9315662,0.0,0.0,0.0,-0.002181661564992912,0.0,-0.002181661564992912,-0.22127308681237987,0.021026357572514975,-0.059580717503628686,0,0,0,0,0,0,1500,1500,1500,1500,1500,1500
1747444470.0153236,0.0,0.0,0.0,-0.002181661564992912,-0.004363323129985824,0.003272492347489368,-0.2213973215149354,0.021022884834449723,-0.059582391279605275,0,0,0,0,0,0,1500,1500,1500,1500,1500,1500
1747444470.115564,0.0,0.0,0.0,0.011999138607461015,0.004363323129985824,-0.00545415391248228,-0.22029237674999788,0.021055816238453474,-0.059570793864973715,0,0,0,0,0,0,1500,1500,1500,1500,1500,1500
1747444470.2152793,0.0,0.0,0.0,0.011999138607461015,0.004363323129985824,-0.00545415391248228,-0.22029237674999788,0.021055816238453474,-0.059570793864973715,0,0,0,0,0,0,1500,1500,1500,1500,1500,1500
1747444470.3154292,0.0,0.0,0.0,-0.01090830782496456,0.004363323129985824,0.00545415391248228,-0.22041659303207986,0.02105234349823553,-0.05957246764293178,0,0,0,0,0,0,1500,1500,1500,1500,1500,1500
1747444470.4152343,0.0,0.0,0.0,0.006544984694978736,-0.001090830782496456,-0.01090830782496456,-0.22066667116860447,0.02103199890935475,-0.05969731390112463,0,0,0,0,0,0,1500,1500,1500,1500,1500,1500
1747444470.4986353,0.0,0.0,0.0,0.006544984694978736,-0.001090830782496456,-0.01090830782496456,-0.22066667116860447,0.02103199890935475,-0.05969731390112463,0,0,0,0,0,0,1500,1500,1500,1500,1500,1500
1747444470.599133,0.0,0.0,0.0,0.00545415391248228,-0.002181661564992912,0.001090830782496456,-0.22028988573597613,0.020921139683290402,-0.059678740096464,0,0,0,0,0,0,1500,1500,1500,1500,1500,1500
1747444470.6983616,0.0,0.0,0.0,0.00545415391248228,-0.002181661564992912,0.001090830782496456,-0.22028988573597613,0.020921139683290402,-0.059678740096464,0,0,0,0,0,0,1500,1500,1500,1500,1500,1500
1747444470.7818356,0.0,0.0,0.0,-0.002181661564992912,0.002181661564992912,0.001090830782496456,-0.22054244861249697,0.021035479100315006,-0.05969564013646056,0,0,0,0,0,0,1500,1500,1500,1500,1500,1500
1747444470.8814416,0.0,0.0,0.0,-0.002181661564992912,0.002181661564992912,0.001090830782496456,-0.22054244861249697,0.021035479100315006,-0.05969564013646056,0,0,0,0,0,0,1500,1500,1500,1500,1500,1500
1747444470.9815266,0.0,0.0,0.0,0.008726646259971648,-0.003272492347489368,-0.00545415391248228,-0.22054244861249697,0.021035479100315006,-0.05969564013646056,0,0,0,0,0,0,1500,1500,1500,1500,1500,1500
1747444471.0811517,0.0,0.0,0.0,-0.007635815477475192,0.004363323129985824,0.001090830782496456,-0.23621574046440888,0.020475678354060552,-0.05989202680318506,0,0,0,0,0,0,1500,1500,1500,1500,1500,1500
1747444471.1818757,0.0,0.0,0.0,-0.007635815477475192,0.004363323129985824,0.001090830782496456,-0.23621574046440888,0.020475678354060552,-0.05989202680318506,0,0,0,0,0,0,1500,1500,1500,1500,1500,1500
1747444471.265281,0.0,0.0,0.0,0.0,-0.002181661564992912,-0.003272492347489368,-0.2204182292172828,0.02103895929153007,-0.05969396637146162,0,0,0,0,0,0,1500,1500,1500,1500,1500,1500
1747444471.3655834,0.0,0.0,0.0,0.0,0.001090830782496456,-0.004363323129985824,-0.2204182292172828,0.02103895929153007,-0.05969396637146162,0,0,0,0,0,0,1500,1500,1500,1500,1500,1500
1747444471.4652622,0.0,0.0,0.0,0.0,0.001090830782496456,-0.004363323129985824,-0.2204182292172828,0.02103895929153007,-0.05969396637146162,0,0,0,0,0,0,1500,1500,1500,1500,1500,1500
1747444471.5644498,0.0,0.0,0.0,-0.00545415391248228,0.001090830782496456,0.003272492347489368,-0.2204182292172828,0.02103895929153007,-0.05969396637146162,0,0,0,0,0,0,1500,1500,1500,1500,1500,1500
1747444471.6608331,0.0,0.0,0.0,-0.007635815477475192,0.0,-0.01090830782496456,-0.22041735948025312,0.02089089116665635,-0.05992340572657308,0,0,0,0,0,0,1500,1500,1500,1500,1500,1500
1747444471.747911,0.0,0.0,0.0,-0.007635815477475192,0.0,-0.01090830782496456,-0.22041735948025312,0.02089089116665635,-0.05992340572657308,0,0,0,0,0,0,1500,1500,1500,1500,1500,1500
1747444471.8484523,0.0,0.0,0.0,-0.004363323129985824,0.002181661564992912,0.002181661564992912,-0.22090279516422723,0.02086182756927424,-0.060048075530677265,0,0,0,0,0,0,1500,1500,1500,1500,1500,1500
1747444471.9489863,0.0,0.0,0.0,-0.004363323129985824,0.002181661564992912,0.002181661564992912,-0.22090279516422723,0.02086182756927424,-0.060048075530677265,0,0,0,0,0,0,1500,1500,1500,1500,1500,1500
1747444472.0486388,0.0,0.0,0.0,0.008726646259971648,0.00545415391248228,0.0,-0.22067157943968568,0.020991801604384592,-0.060061814932314196,0,0,0,0,0,0,1500,1500,1500,1500,1500,1500
1747444472.1493728,0.0,0.0,0.0,-0.014180800172453928,0.003272492347489368,-0.002181661564992912,-0.2205473570222847,0.02099530414907377,-0.06006014120567452,0,0,0,0,0,0,1500,1500,1500,1500,1500,1500
1747444472.232211,0.0,0.0,0.0,-0.014180800172453928,0.003272492347489368,-0.002181661564992912,-0.2205473570222847,0.02099530414907377,-0.06006014120567452,0,0,0,0,0,0,1500,1500,1500,1500,1500,1500
1747444472.3322601,0.0,0.0,0.0,0.019634954084936207,0.001090830782496456,0.0,-0.22005213526381703,0.02099595249248066,-0.06017494834965706,0,0,0,0,0,0,1500,1500,1500,1500,1500,1500
1747444472.4329655,0.0,0.0,0.0,0.019634954084936207,0.001090830782496456,0.0,-0.22005213526381703,0.02099595249248066,-0.06017494834965706,0,0,0,0,0,0,1500,1500,1500,1500,1500,1500
1747444472.5164235,0.0,0.0,0.0,-0.019634954084936207,0.003272492347489368,-0.006544984694978736,-0.2205473570222847,0.02099530414907377,-0.06006014120567452,0,0,0,0,0,0,1500,1500,1500,1500,1500,1500
1747444472.6155918,0.0,0.0,0.0,0.008726646259971648,-0.001090830782496456,-0.001090830782496456,-0.22238884201537865,0.021060697450991765,-0.06009193551322188,0,0,0,0,0,0,1500,1500,1500,1500,1500,1500
1747444472.7156298,0.0,0.0,0.0,0.008726646259971648,-0.001090830782496456,-0.001090830782496456,-0.22238884201537865,0.021060697450991765,-0.06009193551322188,0,0,0,0,0,0,1500,1500,1500,1500,1500,1500
1747444472.8154485,0.0,0.0,0.0,0.015271630954950384,-0.003272492347489368,-0.004363323129985824,-0.22190247024808848,0.020941625816908803,-0.06019655040875018,0,0,0,0,0,0,1500,1500,1500,1500,1500,1500
1747444472.9037242,0.0,0.0,0.0,-0.014180800172453928,-0.002181661564992912,0.001090830782496456,-0.2217782230780678,0.02094513581012756,-0.060194876697503986,0,0,0,0,0,0,1500,1500,1500,1500,1500,1500
1747444472.9987361,0.0,0.0,0.0,-0.014180800172453928,-0.002181661564992912,0.001090830782496456,-0.2217782230780678,0.02094513581012756,-0.060194876697503986,0,0,0,0,0,0,1500,1500,1500,1500,1500,1500
1747444473.0995603,0.0,0.0,0.0,0.01090830782496456,0.002181661564992912,0.002181661564992912,-0.22202672059691483,0.020938115823948087,-0.060198224119658715,0,0,0,0,0,0,1500,1500,1500,1500,1500,1500
1747444473.1979897,0.0,0.0,0.0,0.01090830782496456,0.002181661564992912,0.002181661564992912,-0.22202672059691483,0.020938115823948087,-0.060198224119658715,0,0,0,0,0,0,1500,1500,1500,1500,1500,1500
1747444473.2976816,0.0,0.0,0.0,-0.025089107997418487,-0.003272492347489368,-0.00545415391248228,-0.2217782230780678,0.02094513581012756,-0.060194876697503986,0,0,0,0,0,0,1500,1500,1500,1500,1500,1500
1747444473.39872,0.0,0.0,0.0,0.013089969389957472,0.00545415391248228,0.003272492347489368,-0.22167386027608874,0.02109701964983281,-0.06107096589298679,0,0,0,0,0,0,1500,1500,1500,1500,1500,1500
1747444473.4819076,0.0,0.0,0.0,0.013089969389957472,0.00545415391248228,0.003272492347489368,-0.22167386027608874,0.02109701964983281,-0.06107096589298679,0,0,0,0,0,0,1500,1500,1500,1500,1500,1500
1747444473.581684,0.0,0.0,0.0,-0.004363323129985824,0.004363323129985824,-0.006544984694978736,-0.220804239095901,0.02112195484799692,-0.061059146353778126,0,0,0,0,0,0,1500,1500,1500,1500,1500,1500
1747444473.6814058,0.0,0.0,0.0,0.0,0.007635815477475192,0.003272492347489368,-0.22130114646421215,0.021107706161724363,-0.061065900378274876,0,0,0,0,0,0,1500,1500,1500,1500,1500,1500
1747444473.7653403,0.0,0.0,0.0,0.0,0.007635815477475192,0.003272492347489368,-0.22130114646421215,0.021107706161724363,-0.061065900378274876,0,0,0,0,0,0,1500,1500,1500,1500,1500,1500
1747444473.8653507,0.0,0.0,0.0,0.019634954084936207,0.003272492347489368,0.001090830782496456,-0.22018359191760845,0.02077755814082218,-0.06101361118499234,0,0,0,0,0,0,1500,1500,1500,1500,1500,1500
1747444473.964782,0.0,0.0,0.0,0.019634954084936207,0.003272492347489368,0.001090830782496456,-0.22018359191760845,0.02077755814082218,-0.06101361118499234,0,0,0,0,0,0,1500,1500,1500,1500,1500,1500
1747444474.065352,0.0,0.0,0.0,-0.006544984694978736,-0.001090830782496456,-0.011999138607461015,-0.21822154151042586,0.02069007697214875,-0.06122368195728782,0,0,0,0,0,0,1500,1500,1500,1500,1500,1500
1747444474.1643367,0.0,0.0,0.0,-0.037088246604879506,0.001090830782496456,0.007635815477475192,-0.22104589435076683,0.020858824331883193,-0.061156820648463193,0,0,0,0,0,0,1500,1500,1500,1500,1500,1500
1747444474.2480938,0.0,0.0,0.0,-0.037088246604879506,0.001090830782496456,0.007635815477475192,-0.22104589435076683,0.020858824331883193,-0.061156820648463193,0,0,0,0,0,0,1500,1500,1500,1500,1500,1500
1747444474.347659,0.0,0.0,0.0,0.016362461737446838,-0.001090830782496456,-0.011999138607461015,-0.2237416559681544,0.020089047806923412,-0.061846626931451425,0,0,0,0,0,0,1500,1500,1500,1500,1500,1500
1747444474.4480317,0.0,0.0,0.0,0.016362461737446838,-0.001090830782496456,-0.011999138607461015,-0.2237416559681544,0.020089047806923412,-0.061846626931451425,0,0,0,0,0,0,1500,1500,1500,1500,1500,1500
1747444474.5314064,0.0,0.0,0.0,0.00545415391248228,-0.001090830782496456,0.003272492347489368,-0.22142047104936657,0.020363248006181542,-0.06221451551913344,0,0,0,0,0,0,1500,1500,1500,1500,1500,1500
1747444474.6321712,0.0,0.0,0.0,-0.007635815477475192,0.00545415391248228,-0.002181661564992912,-0.22252125591785873,0.020207580800658757,-0.062212056645869394,0,0,0,0,0,0,1500,1500,1500,1500,1500,1500
1747444474.7319913,0.0,0.0,0.0,-0.007635815477475192,0.00545415391248228,-0.002181661564992912,-0.22252125591785873,0.020207580800658757,-0.062212056645869394,0,0,0,0,0,0,1500,1500,1500,1500,1500,1500
1747444474.832078,0.0,0.0,0.0,0.006544984694978736,0.0,-0.004363323129985824,-0.22300937612774568,0.020312663003645974,-0.06222872152715356,0,0,0,0,0,0,1500,1500,1500,1500,1500,1500
1747444474.9325037,0.0,0.0,0.0,0.009817477042468103,0.003272492347489368,-0.002181661564992912,-0.22252125591785873,0.020207580800658757,-0.062212056645869394,0,0,0,0,0,0,1500,1500,1500,1500,1500,1500
1747444475.0138478,0.0,0.0,0.0,0.009817477042468103,0.003272492347489368,-0.002181661564992912,-0.22252125591785873,0.020207580800658757,-0.062212056645869394,0,0,0,0,0,0,1500,1500,1500,1500,1500,1500
1747444475.1154354,0.0,0.0,0.0,-0.001090830782496456,0.00545415391248228,0.003272492347489368,-0.22239700172912388,0.020211217426599825,-0.0622104129173617,0,0,0,0,0,0,1500,1500,1500,1500,1500,1500
1747444475.213973,0.0,0.0,0.0,-0.001090830782496456,0.00545415391248228,0.003272492347489368,-0.22239700172912388,0.020211217426599825,-0.0622104129173617,0,0,0,0,0,0,1500,1500,1500,1500,1500,1500
1747444475.3156965,0.0,0.0,0.0,0.00545415391248228,0.001090830782496456,-0.00545415391248228,-0.22263232883544296,0.02020229726057718,-0.06221007078378384,0,0,0,0,0,0,1500,1500,1500,1500,1500,1500
1747444475.4152374,0.0,0.0,0.0,0.0,-0.003272492347489368,-0.001090830782496456,-0.22263232883544296,0.02020229726057718,-0.06221007078378384,0,0,0,0,0,0,1500,1500,1500,1500,1500,1500
1747444475.499081,0.0,0.0,0.0,0.0,-0.003272492347489368,-0.001090830782496456,-0.22263232883544296,0.02020229726057718,-0.06221007078378384,0,0,0,0,0,0,1500,1500,1500,1500,1500,1500
1747444475.5983582,0.0,0.0,0.0,0.0,0.001090830782496456,0.002181661564992912,-0.22263232883544296,0.02020229726057718,-0.06221007078378384,0,0,0,0,0,0,1500,1500,1500,1500,1500,1500
1747444475.6976783,0.0,0.0,0.0,0.006544984694978736,0.004363323129985824,0.0,-0.22263232883544296,0.02020229726057718,-0.06221007078378384,0,0,0,0,0,0,1500,1500,1500,1500,1500,1500
1747444475.7842207,0.0,0.0,0.0,0.006544984694978736,0.004363323129985824,0.0,-0.22263232883544296,0.02020229726057718,-0.06221007078378384,0,0,0,0,0,0,1500,1500,1500,1500,1500,1500
1747444475.882331,0.0,0.0,0.0,0.008726646259971648,0.002181661564992912,-0.14180800172453928,-0.22165154343768678,0.020233037187861864,-0.06220055053924725,0,0,0,0,0,0,1500,1500,1500,1500,1500,1500
1747444475.9818513,0.0,0.0,0.0,0.008726646259971648,0.002181661564992912,-0.14180800172453928,-0.22165154343768678,0.020233037187861864,-0.06220055053924725,0,0,0,0,0,0,1500,1500,1500,1500,1500,1500
1747444476.0815966,0.0,0.0,0.0,-0.001090830782496456,0.004363323129985824,0.007635815477475192,-0.22300937612774568,0.020312663003645974,-0.06222872152715356,0,0,0,0,0,0,1500,1500,1500,1500,1500,1500
1747444476.1818252,0.0,0.0,0.0,0.017453292519943295,0.0,-0.007635815477475192,-0.22129196572177942,0.020245593987900316,-0.06219924894243721,0,0,0,0,0,0,1500,1500,1500,1500,1500,1500
1747444476.265437,0.0,0.0,0.0,0.017453292519943295,0.0,-0.007635815477475192,-0.22129196572177942,0.020245593987900316,-0.06219924894243721,0,0,0,0,0,0,1500,1500,1500,1500,1500,1500
1747444476.3656197,0.0,0.0,0.0,0.00545415391248228,-0.002181661564992912,0.004363323129985824,-0.22104351028380587,0.02025286724564379,-0.06219596147984028,0,0,0,0,0,0,1500,1500,1500,1500,1500,1500
1747444476.4656134,0.0,0.0,0.0,0.00545415391248228,-0.002181661564992912,0.004363323129985824,-0.22104351028380587,0.02025286724564379,-0.06219596147984028,0,0,0,0,0,0,1500,1500,1500,1500,1500,1500
1747444476.5640733,0.0,0.0,0.0,-0.001090830782496456,0.002181661564992912,-0.003272492347489368,-0.22116773641824228,0.020249230616638136,-0.06219760521130701,0,0,0,0,0,0,1500,1500,1500,1500,1500,1500
1747444476.6652925,0.0,0.0,0.0,-0.009817477042468103,-0.001090830782496456,0.0,-0.22031127318471275,0.020276333942125982,-0.062189728685067565,0,0,0,0,0,0,1500,1500,1500,1500,1500,1500
1747444476.7475789,0.0,0.0,0.0,-0.009817477042468103,-0.001090830782496456,0.0,-0.22031127318471275,0.020276333942125982,-0.062189728685067565,0,0,0,0,0,0,1500,1500,1500,1500,1500,1500
1747444476.8483484,0.0,0.0,0.0,0.038179077387375956,0.001090830782496456,0.001090830782496456,-0.2199343839476053,0.02016594592392995,-0.06217126491024558,0,0,0,0,0,0,1500,1500,1500,1500,1500,1500
1747444476.9407952,0.0,0.0,0.0,-0.013089969389957472,0.003272492347489368,-0.004363323129985824,2.5933926406201513,0.1399005698909168,-0.008185951082213858,0,0,0,0,0,0,1500,1500,1500,1500,1500,1500
1747444477.0317914,0.0,0.0,0.0,-0.013089969389957472,0.003272492347489368,-0.004363323129985824,2.5933926406201513,0.1399005698909168,-0.008185951082213858,0,0,0,0,0,0,1500,1500,1500,1500,1500,1500
1747444477.1317272,0.0,0.0,0.0,0.006544984694978736,0.003272492347489368,0.001090830782496456,-0.22005858823854366,0.02016230930131279,-0.062172901203658565,0,0,0,0,0,0,1500,1500,1500,1500,1500,1500
1747444477.2309837,0.0,0.0,0.0,0.006544984694978736,0.003272492347489368,0.001090830782496456,-0.22005858823854366,0.02016230930131279,-0.062172901203658565,0,0,0,0,0,0,1500,1500,1500,1500,1500,1500
1747444477.3320682,0.0,0.0,0.0,-0.001090830782496456,-0.001090830782496456,-0.003272492347489368,-0.21931340975180086,0.020184129041017684,-0.06216308343818053,0,0,0,0,0,0,1500,1500,1500,1500,1500,1500
1747444477.4319255,0.0,0.0,0.0,0.004363323129985824,0.002181661564992912,0.007635815477475192,-0.21896237069059896,0.020439289554755692,-0.062188751260335864,0,0,0,0,0,0,1500,1500,1500,1500,1500,1500
1747444477.514164,0.0,0.0,0.0,0.004363323129985824,0.002181661564992912,0.007635815477475192,-0.21896237069059896,0.020439289554755692,-0.062188751260335864,0,0,0,0,0,0,1500,1500,1500,1500,1500,1500
1747444477.6152983,0.0,0.0,0.0,0.00545415391248228,-0.001090830782496456,-0.013089969389957472,-0.21857484668395433,0.019790585270496687,-0.0626026438342377,0,0,0,0,0,0,1500,1500,1500,1500,1500,1500
1747444477.7146688,0.0,0.0,0.0,0.00545415391248228,-0.001090830782496456,-0.013089969389957472,-0.21857484668395433,0.019790585270496687,-0.0626026438342377,0,0,0,0,0,0,1500,1500,1500,1500,1500,1500
1747444477.8155508,0.0,0.0,0.0,-0.002181661564992912,0.003272492347489368,0.008726646259971648,-0.2190897869653445,0.020409048791494383,-0.06243345094957431,0,0,0,0,0,0,1500,1500,1500,1500,1500,1500
1747444477.9152617,0.0,0.0,0.0,0.018544123302439753,0.001090830782496456,-0.009817477042468103,-0.21858388645739957,0.019872073392711923,-0.06298067383570191,0,0,0,0,0,0,1500,1500,1500,1500,1500,1500
1747444477.9981475,0.0,0.0,0.0,0.018544123302439753,0.001090830782496456,-0.009817477042468103,-0.21858388645739957,0.019872073392711923,-0.06298067383570191,0,0,0,0,0,0,1500,1500,1500,1500,1500,1500
1747444478.0990708,0.0,0.0,0.0,-0.002181661564992912,0.00545415391248228,0.002181661564992912,-0.218211378135345,0.019883139691080135,-0.06297580985493965,0,0,0,0,0,0,1500,1500,1500,1500,1500,1500
1747444478.1992435,0.0,0.0,0.0,0.001090830782496456,-0.001090830782496456,-0.002181661564992912,-0.2184597138842591,0.019875762158564157,-0.0629790525091127,0,0,0,0,0,0,1500,1500,1500,1500,1500,1500
1747444478.2981365,0.0,0.0,0.0,0.001090830782496456,-0.001090830782496456,-0.002181661564992912,-0.2184597138842591,0.019875762158564157,-0.0629790525091127,0,0,0,0,0,0,1500,1500,1500,1500,1500,1500
1747444478.3979986,0.0,0.0,0.0,0.002181661564992912,0.0,0.0,-0.21797597659831283,0.01989214177262636,-0.06297624865454983,0,0,0,0,0,0,1500,1500,1500,1500,1500,1500
1747444478.489851,0.0,0.0,0.0,0.001090830782496456,0.004363323129985824,-0.004363323129985824,-0.21760349445072513,0.01990320807541186,-0.06297138467107298,0,0,0,0,0,0,1500,1500,1500,1500,1500,1500
1747444478.5824165,0.0,0.0,0.0,0.001090830782496456,0.004363323129985824,-0.004363323129985824,-0.21760349445072513,0.01990320807541186,-0.06297138467107298,0,0,0,0,0,0,1500,1500,1500,1500,1500,1500
1747444478.6810727,0.0,0.0,0.0,0.003272492347489368,-0.003272492347489368,0.002181661564992912,-0.21760349445072513,0.01990320807541186,-0.06297138467107298,0,0,0,0,0,0,1500,1500,1500,1500,1500,1500
1747444478.7640605,0.0,0.0,0.0,0.003272492347489368,-0.003272492347489368,0.002181661564992912,-0.21760349445072513,0.01990320807541186,-0.06297138467107298,0,0,0,0,0,0,1500,1500,1500,1500,1500,1500
1747444478.8646598,0.0,0.0,0.0,0.004363323129985824,0.003272492347489368,-0.002181661564992912,-0.21735518862785924,0.019910585611956404,-0.06296814201376422,0,0,0,0,0,0,1500,1500,1500,1500,1500,1500
1747444478.9652178,0.0,0.0,0.0,0.003272492347489368,-0.001090830782496456,-0.002181661564992912,-0.21697845313307018,0.01980033999167987,-0.06294992495272682,0,0,0,0,0,0,1500,1500,1500,1500,1500,1500
1747444479.0652275,0.0,0.0,0.0,0.003272492347489368,-0.001090830782496456,-0.002181661564992912,-0.21697845313307018,0.01980033999167987,-0.06294992495272682,0,0,0,0,0,0,1500,1500,1500,1500,1500,1500
1747444479.1647978,0.0,0.0,0.0,0.03381575425739013,0.01090830782496456,0.016362461737446838,-0.2168795677105921,0.02033042885600268,-0.06264075238127086,0,0,0,0,0,0,1500,1500,1500,1500,1500,1500
1747444479.2477913,0.0,0.0,0.0,0.03381575425739013,0.01090830782496456,0.016362461737446838,-0.2168795677105921,0.02033042885600268,-0.06264075238127086,0,0,0,0,0,0,1500,1500,1500,1500,1500,1500
1747444479.347813,0.0,0.0,0.0,0.00545415391248228,-0.001090830782496456,-0.011999138607461015,-0.21464852696393816,0.02000802136057993,-0.0628182851089845,0,0,0,0,0,0,1500,1500,1500,1500,1500,1500
1747444479.4479454,0.0,0.0,0.0,0.018544123302439753,0.002181661564992912,0.006544984694978736,-0.21491983524041625,0.020594249540959474,-0.06300922638011248,0,0,0,0,0,0,1500,1500,1500,1500,1500,1500
1747444479.531312,0.0,0.0,0.0,0.018544123302439753,0.002181661564992912,0.006544984694978736,-0.21491983524041625,0.020594249540959474,-0.06300922638011248,0,0,0,0,0,0,1500,1500,1500,1500,1500,1500
1747444479.631208,0.0,0.0,0.0,-0.025089107997418487,-0.001090830782496456,-0.007635815477475192,-0.21638783700956837,0.020305680369638958,-0.06299880648698448,0,0,0,0,0,0,1500,1500,1500,1500,1500,1500
1747444479.7233734,0.0,0.0,0.0,0.00545415391248228,-0.002181661564992912,0.002181661564992912,-0.2176250510512372,0.020509771918869275,-0.06303835107860374,0,0,0,0,0,0,1500,1500,1500,1500,1500,1500
1747444479.8147955,0.0,0.0,0.0,0.00545415391248228,-0.002181661564992912,0.002181661564992912,-0.2176250510512372,0.020509771918869275,-0.06303835107860374,0,0,0,0,0,0,1500,1500,1500,1500,1500,1500
1747444479.920078,0.0,0.0,0.0,0.025089107997418487,0.003272492347489368,-0.004363323129985824,-0.2174852380873707,0.02001500395267925,-0.06310468375987811,0,0,0,0,0,0,1500,1500,1500,1500,1500,1500
1747444480.0145383,0.0,0.0,0.0,0.025089107997418487,0.003272492347489368,-0.004363323129985824,-0.2174852380873707,0.02001500395267925,-0.06310468375987811,0,0,0,0,0,0,1500,1500,1500,1500,1500,1500
1747444480.1140504,0.0,0.0,0.0,-0.018544123302439753,0.001090830782496456,-0.002181661564992912,-0.21664203652386677,0.020406470353696915,-0.06313697352309218,0,0,0,0,0,0,1500,1500,1500,1500,1500,1500
1747444480.214301,0.0,0.0,0.0,-0.016362461737446838,0.00545415391248228,-0.001090830782496456,-0.21749387145240393,0.020257629143455837,-0.06313145502398357,0,0,0,0,0,0,1500,1500,1500,1500,1500,1500
1747444480.3152628,0.0,0.0,0.0,-0.016362461737446838,0.00545415391248228,-0.001090830782496456,-0.21749387145240393,0.020257629143455837,-0.06313145502398357,0,0,0,0,0,0,1500,1500,1500,1500,1500,1500
1747444480.4152582,0.0,0.0,0.0,0.022907446432425576,0.0,0.00545415391248228,-0.21847857596516315,0.020347717778887168,-0.06315436187196931,0,0,0,0,0,0,1500,1500,1500,1500,1500,1500
1747444480.497146,0.0,0.0,0.0,0.022907446432425576,0.0,0.00545415391248228,-0.21847857596516315,0.020347717778887168,-0.06315436187196931,0,0,0,0,0,0,1500,1500,1500,1500,1500,1500
1747444480.59817,0.0,0.0,0.0,-0.014180800172453928,-0.007635815477475192,-0.004363323129985824,-0.21651789889779421,0.020410166611390945,-0.06313532244606154,0,0,0,0,0,0,1500,1500,1500,1500,1500,1500
1747444480.6978862,0.0,0.0,0.0,-0.04908738521234052,-0.002181661564992912,0.001090830782496456,-0.2165308757128148,0.02077413013394913,-0.06317531136771272,0,0,0,0,0,0,1500,1500,1500,1500,1500,1500
1747444480.781319,0.0,0.0,0.0,-0.04908738521234052,-0.002181661564992912,0.001090830782496456,-0.2165308757128148,0.02077413013394913,-0.06317531136771272,0,0,0,0,0,0,1500,1500,1500,1500,1500,1500
1747444480.8822508,0.0,0.0,0.0,-0.001090830782496456,0.0,0.001090830782496456,-0.21971609932032843,0.02055169772109519,-0.06319422882663073,0,0,0,0,0,0,1500,1500,1500,1500,1500,1500
1747444480.9714198,0.0,0.0,0.0,0.026179938779914945,0.004363323129985824,-0.00545415391248228,-0.21809197315827086,0.019847101572809805,-0.06333877761201473,0,0,0,0,0,0,1500,1500,1500,1500,1500,1500
1747444481.0647092,0.0,0.0,0.0,0.026179938779914945,0.004363323129985824,-0.00545415391248228,-0.21809197315827086,0.019847101572809805,-0.06333877761201473,0,0,0,0,0,0,1500,1500,1500,1500,1500,1500
1747444481.1644413,0.0,0.0,0.0,0.017453292519943295,0.004363323129985824,0.007635815477475192,-0.21295929327494834,0.0203492603684228,-0.06357167380569725,0,0,0,0,0,0,1500,1500,1500,1500,1500,1500
1747444481.2477942,0.0,0.0,0.0,0.017453292519943295,0.004363323129985824,0.007635815477475192,-0.21295929327494834,0.0203492603684228,-0.06357167380569725,0,0,0,0,0,0,1500,1500,1500,1500,1500,1500
1747444481.3486075,0.0,0.0,0.0,-0.04145156973486533,0.0,0.007635815477475192,-0.21775083271716345,0.020492862998175463,-0.06316154734180575,0,0,0,0,0,0,1500,1500,1500,1500,1500,1500
1747444481.44886,0.0,0.0,0.0,0.018544123302439753,0.006544984694978736,-0.014180800172453928,-0.21822205763058414,0.019951445260756803,-0.06347535996141838,0,0,0,0,0,0,1500,1500,1500,1500,1500,1500
1747444481.5320864,0.0,0.0,0.0,0.018544123302439753,0.006544984694978736,-0.014180800172453928,-0.21822205763058414,0.019951445260756803,-0.06347535996141838,0,0,0,0,0,0,1500,1500,1500,1500,1500,1500
1747444481.6311579,0.0,0.0,0.0,-0.019634954084936207,-0.001090830782496456,0.001090830782496456,-0.21430798082436,0.020387273664995265,-0.06396018481561727,0,0,0,0,0,0,1500,1500,1500,1500,1500,1500
1747444481.732014,0.0,0.0,0.0,-0.019634954084936207,-0.001090830782496456,0.001090830782496456,-0.21430798082436,0.020387273664995265,-0.06396018481561727,0,0,0,0,0,0,1500,1500,1500,1500,1500,1500
1747444481.8313763,0.0,0.0,0.0,-0.014180800172453928,-0.001090830782496456,0.013089969389957472,-0.2176347868111559,0.020430496033694626,-0.06376759069909996,0,0,0,0,0,0,1500,1500,1500,1500,1500,1500
1747444481.9319048,0.0,0.0,0.0,0.008726646259971648,-0.002181661564992912,-0.013089969389957472,-0.2182263962832931,0.020072750101304375,-0.0634887905976553,0,0,0,0,0,0,1500,1500,1500,1500,1500,1500
1747444482.0142984,0.0,0.0,0.0,0.008726646259971648,-0.002181661564992912,-0.013089969389957472,-0.2182263962832931,0.020072750101304375,-0.0634887905976553,0,0,0,0,0,0,1500,1500,1500,1500,1500,1500
1747444482.1152658,0.0,0.0,0.0,0.003272492347489368,0.0,0.003272492347489368,-0.21663176330119885,0.020070119516489467,-0.06395739883955451,0,0,0,0,0,0,1500,1500,1500,1500,1500,1500
1747444482.2152455,0.0,0.0,0.0,-0.001090830782496456,0.003272492347489368,-0.001090830782496456,-0.21749639296977372,0.019922568522108504,-0.06395546440569494,0,0,0,0,0,0,1500,1500,1500,1500,1500,1500
1747444482.3145807,0.0,0.0,0.0,-0.001090830782496456,0.003272492347489368,-0.001090830782496456,-0.21749639296977372,0.019922568522108504,-0.06395546440569494,0,0,0,0,0,0,1500,1500,1500,1500,1500,1500
1747444482.4147837,0.0,0.0,0.0,0.00545415391248228,0.002181661564992912,-0.003272492347489368,-0.21835696511654948,0.02001600253049787,-0.06397656356786985,0,0,0,0,0,0,1500,1500,1500,1500,1500,1500
1747444482.4984555,0.0,0.0,0.0,0.00545415391248228,0.002181661564992912,-0.003272492347489368,-0.21835696511654948,0.02001600253049787,-0.06397656356786985,0,0,0,0,0,0,1500,1500,1500,1500,1500,1500
1747444482.5979228,0.0,0.0,0.0,0.006544984694978736,-0.001090830782496456,-0.001090830782496456,-0.2176136135762445,0.020025280362677537,-0.0640882834433932,0,0,0,0,0,0,1500,1500,1500,1500,1500,1500
1747444482.6980379,0.0,0.0,0.0,0.001090830782496456,0.003272492347489368,0.002181661564992912,-0.21786191842861027,0.020017768671912507,-0.06409155562458586,0,0,0,0,0,0,1500,1500,1500,1500,1500,1500
1747444482.7812839,0.0,0.0,0.0,0.001090830782496456,0.003272492347489368,0.002181661564992912,-0.21786191842861027,0.020017768671912507,-0.06409155562458586,0,0,0,0,0,0,1500,1500,1500,1500,1500,1500
1747444482.8807573,0.0,0.0,0.0,0.006544984694978736,-0.002181661564992912,-0.002181661564992912,-0.21848711414877223,0.020120294406058198,-0.06411318405860442,0,0,0,0,0,0,1500,1500,1500,1500,1500,1500
1747444482.966191,0.0,0.0,0.0,0.006544984694978736,0.001090830782496456,0.0,-0.2186112872038953,0.020116538553371015,-0.06411482758630643,0,0,0,0,0,0,1500,1500,1500,1500,1500,1500
1747444483.0638359,0.0,0.0,0.0,0.006544984694978736,0.001090830782496456,0.0,-0.2186112872038953,0.020116538553371015,-0.06411482758630643,0,0,0,0,0,0,1500,1500,1500,1500,1500,1500
1747444483.1640768,0.0,0.0,0.0,0.002181661564992912,0.00545415391248228,0.0,-0.2188422928386224,0.019986082464962654,-0.06410089620697455,0,0,0,0,0,0,1500,1500,1500,1500,1500,1500
1747444483.2473264,0.0,0.0,0.0,0.002181661564992912,0.00545415391248228,0.0,-0.2188422928386224,0.019986082464962654,-0.06410089620697455,0,0,0,0,0,0,1500,1500,1500,1500,1500,1500
1747444483.3482368,0.0,0.0,0.0,0.00545415391248228,0.001090830782496456,-0.001090830782496456,-0.2193433936362793,0.020092356532446874,-0.06412094061390039,0,0,0,0,0,0,1500,1500,1500,1500,1500,1500
1747444483.4483542,0.0,0.0,0.0,0.001090830782496456,-0.001090830782496456,-0.003272492347489368,-0.2193433936362793,0.020092356532446874,-0.06412094061390039,0,0,0,0,0,0,1500,1500,1500,1500,1500,1500
1747444483.5309238,0.0,0.0,0.0,0.001090830782496456,-0.001090830782496456,-0.003272492347489368,-0.2193433936362793,0.020092356532446874,-0.06412094061390039,0,0,0,0,0,0,1500,1500,1500,1500,1500,1500
1747444483.6313632,0.0,0.0,0.0,0.006544984694978736,0.001090830782496456,0.001090830782496456,-0.2193433936362793,0.020092356532446874,-0.06412094061390039,0,0,0,0,0,0,1500,1500,1500,1500,1500,1500
1747444483.7311773,0.0,0.0,0.0,0.006544984694978736,0.001090830782496456,0.001090830782496456,-0.2193433936362793,0.020092356532446874,-0.06412094061390039,0,0,0,0,0,0,1500,1500,1500,1500,1500,1500
1747444483.8305042,0.0,0.0,0.0,-0.002181661564992912,-0.001090830782496456,-0.002181661564992912,-0.2193433936362793,0.020092356532446874,-0.06412094061390039,0,0,0,0,0,0,1500,1500,1500,1500,1500,1500
1747444483.9313912,0.0,0.0,0.0,0.004363323129985824,0.002181661564992912,0.001090830782496456,-0.2193433936362793,0.020092356532446874,-0.06412094061390039,0,0,0,0,0,0,1500,1500,1500,1500,1500,1500
1747444484.013937,0.0,0.0,0.0,0.004363323129985824,0.002181661564992912,0.001090830782496456,-0.2193433936362793,0.020092356532446874,-0.06412094061390039,0,0,0,0,0,0,1500,1500,1500,1500,1500,1500
1747444484.1140363,0.0,0.0,0.0,0.001090830782496456,0.003272492347489368,-0.00545415391248228,-0.2193433936362793,0.020092356532446874,-0.06412094061390039,0,0,0,0,0,0,1500,1500,1500,1500,1500,1500
1747444484.213938,0.0,0.0,0.0,0.008726646259971648,-0.007635815477475192,0.002181661564992912,-0.2193433936362793,0.020092356532446874,-0.06412094061390039,0,0,0,0,0,0,1500,1500,1500,1500,1500,1500
1747444484.2982163,0.0,0.0,0.0,0.008726646259971648,-0.007635815477475192,0.002181661564992912,-0.2193433936362793,0.020092356532446874,-0.06412094061390039,0,0,0,0,0,0,1500,1500,1500,1500,1500,1500
1747444484.397733,0.0,0.0,0.0,-0.008726646259971648,0.00545415391248228,0.002181661564992912,-0.2193433936362793,0.020092356532446874,-0.06412094061390039,0,0,0,0,0,0,1500,1500,1500,1500,1500,1500
1747444484.49355,0.0,0.0,0.0,-0.006544984694978736,0.002181661564992912,0.002181661564992912,-0.2198401649948117,0.020077333131837845,-0.06412751471607905,0,0,0,0,0,0,1500,1500,1500,1500,1500,1500
1747444484.5982423,0.0,0.0,0.0,-0.006544984694978736,0.002181661564992912,0.002181661564992912,-0.2198401649948117,0.020077333131837845,-0.06412751471607905,0,0,0,0,0,0,1500,1500,1500,1500,1500,1500
1747444484.6977127,0.0,0.0,0.0,0.004363323129985824,0.003272492347489368,-0.001090830782496456,-0.21946758175552566,0.020088600681869545,-0.0641225841399654,0,0,0,0,0,0,1500,1500,1500,1500,1500,1500
1747444484.7814062,0.0,0.0,0.0,0.004363323129985824,0.003272492347489368,-0.001090830782496456,-0.21946758175552566,0.020088600681869545,-0.0641225841399654,0,0,0,0,0,0,1500,1500,1500,1500,1500,1500
1747444484.8810635,0.0,0.0,0.0,-0.003272492347489368,0.003272492347489368,0.002181661564992912,-0.21946758175552566,0.020088600681869545,-0.0641225841399654,0,0,0,0,0,0,1500,1500,1500,1500,1500,1500
1747444484.980795,0.0,0.0,0.0,0.002181661564992912,0.0,-0.002181661564992912,-0.21946758175552566,0.020088600681869545,-0.0641225841399654,0,0,0,0,0,0,1500,1500,1500,1500,1500,1500
1747444485.081158,0.0,0.0,0.0,0.002181661564992912,0.0,-0.002181661564992912,-0.21946758175552566,0.020088600681869545,-0.0641225841399654,0,0,0,0,0,0,1500,1500,1500,1500,1500,1500
1747444485.1807218,0.0,0.0,0.0,0.002181661564992912,-0.002181661564992912,0.002181661564992912,-0.21946758175552566,0.020088600681869545,-0.0641225841399654,0,0,0,0,0,0,1500,1500,1500,1500,1500,1500
1747444485.2646525,0.0,0.0,0.0,-0.009817477042468103,-0.003272492347489368,0.0,-0.21946758175552566,0.020088600681869545,-0.0641225841399654,0,0,0,0,0,0,1500,1500,1500,1500,1500,1500
1747444485.3640888,0.0,0.0,0.0,-0.009817477042468103,-0.003272492347489368,0.0,-0.21946758175552566,0.020088600681869545,-0.0641225841399654,0,0,0,0,0,0,1500,1500,1500,1500,1500,1500
1747444485.4646566,0.0,0.0,0.0,0.007635815477475192,0.0,0.002181661564992912,-0.21946758175552566,0.020088600681869545,-0.0641225841399654,0,0,0,0,0,0,1500,1500,1500,1500,1500,1500
1747444485.5652895,0.0,0.0,0.0,0.007635815477475192,0.0,0.002181661564992912,-0.21946758175552566,0.020088600681869545,-0.0641225841399654,0,0,0,0,0,0,1500,1500,1500,1500,1500,1500
1747444485.6641703,0.0,0.0,0.0,-0.003272492347489368,0.0,-0.00545415391248228,-0.21884667258626292,0.02010737993759141,-0.06411436650617164,0,0,0,0,0,0,1500,1500,1500,1500,1500,1500
1747444485.7481458,0.0,0.0,0.0,0.001090830782496456,0.001090830782496456,0.004363323129985824,-0.21897084813789341,0.020103624085879887,-0.06411601003362412,0,0,0,0,0,0,1500,1500,1500,1500,1500,1500
1747444485.8476498,0.0,0.0,0.0,0.001090830782496456,0.001090830782496456,0.004363323129985824,-0.21897084813789341,0.020103624085879887,-0.06411601003362412,0,0,0,0,0,0,1500,1500,1500,1500,1500,1500
1747444485.9473715,0.0,0.0,0.0,0.007635815477475192,0.004363323129985824,0.0,-0.21884667258626292,0.02010737993759141,-0.06411436650617164,0,0,0,0,0,0,1500,1500,1500,1500,1500,1500
1747444486.0319026,0.0,0.0,0.0,-0.003272492347489368,0.0,-0.004363323129985824,-0.21884667258626292,0.02010737993759141,-0.06411436650617164,0,0,0,0,0,0,1500,1500,1500,1500,1500,1500
1747444486.1308901,0.0,0.0,0.0,-0.003272492347489368,0.0,-0.004363323129985824,-0.21884667258626292,0.02010737993759141,-0.06411436650617164,0,0,0,0,0,0,1500,1500,1500,1500,1500,1500
1747444486.2313492,0.0,0.0,0.0,-0.003272492347489368,0.003272492347489368,-0.001090830782496456,-0.21884667258626292,0.02010737993759141,-0.06411436650617164,0,0,0,0,0,0,1500,1500,1500,1500,1500,1500
1747444486.331655,0.0,0.0,0.0,-0.003272492347489368,0.003272492347489368,-0.001090830782496456,-0.21884667258626292,0.02010737993759141,-0.06411436650617164,0,0,0,0,0,0,1500,1500,1500,1500,1500,1500
1747444486.4317877,0.0,0.0,0.0,0.0,0.003272492347489368,-0.001090830782496456,-0.21884667258626292,0.02010737993759141,-0.06411436650617164,0,0,0,0,0,0,1500,1500,1500,1500,1500,1500
1747444486.5140505,0.0,0.0,0.0,-0.003272492347489368,-0.001090830782496456,0.001090830782496456,-0.21884667258626292,0.02010737993759141,-0.06411436650617164,0,0,0,0,0,0,1500,1500,1500,1500,1500,1500
1747444486.6141949,0.0,0.0,0.0,-0.003272492347489368,-0.001090830782496456,0.001090830782496456,-0.21884667258626292,0.02010737993759141,-0.06411436650617164,0,0,0,0,0,0,1500,1500,1500,1500,1500,1500
1747444486.714733,0.0,0.0,0.0,-0.001090830782496456,-0.001090830782496456,-0.001090830782496456,-0.21884667258626292,0.02010737993759141,-0.06411436650617164,0,0,0,0,0,0,1500,1500,1500,1500,1500,1500
1747444486.8167937,0.0,0.0,0.0,0.0,0.001090830782496456,0.0,-0.21884667258626292,0.02010737993759141,-0.06411436650617164,0,0,0,0,0,0,1500,1500,1500,1500,1500,1500
1747444486.914359,0.0,0.0,0.0,0.0,0.001090830782496456,0.0,-0.21884667258626292,0.02010737993759141,-0.06411436650617164,0,0,0,0,0,0,1500,1500,1500,1500,1500,1500
1747444486.9992166,0.0,0.0,0.0,-0.003272492347489368,0.002181661564992912,0.001090830782496456,-0.21884667258626292,0.02010737993759141,-0.06411436650617164,0,0,0,0,0,0,1500,1500,1500,1500,1500,1500
1747444487.0985224,0.0,0.0,0.0,0.0,-0.003272492347489368,0.001090830782496456,-0.21884667258626292,0.02010737993759141,-0.06411436650617164,0,0,0,0,0,0,1500,1500,1500,1500,1500,1500
1747444487.198038,0.0,0.0,0.0,0.0,-0.003272492347489368,0.001090830782496456,-0.21884667258626292,0.02010737993759141,-0.06411436650617164,0,0,0,0,0,0,1500,1500,1500,1500,1500,1500
1747444487.2810757,0.0,0.0,0.0,-0.002181661564992912,-0.003272492347489368,0.002181661564992912,-0.21884667258626292,0.02010737993759141,-0.06411436650617164,0,0,0,0,0,0,1500,1500,1500,1500,1500,1500
1747444487.380961,0.0,0.0,0.0,-0.002181661564992912,-0.003272492347489368,0.002181661564992912,-0.21884667258626292,0.02010737993759141,-0.06411436650617164,0,0,0,0,0,0,1500,1500,1500,1500,1500,1500
1747444487.4813564,0.0,0.0,0.0,-0.003272492347489368,0.002181661564992912,0.001090830782496456,-0.21884667258626292,0.02010737993759141,-0.06411436650617164,0,0,0,0,0,0,1500,1500,1500,1500,1500,1500
1747444487.5818956,0.0,0.0,0.0,0.003272492347489368,-0.002181661564992912,-0.004363323129985824,-0.21884667258626292,0.02010737993759141,-0.06411436650617164,0,0,0,0,0,0,1500,1500,1500,1500,1500,1500
1747444487.6819043,0.0,0.0,0.0,0.003272492347489368,-0.002181661564992912,-0.004363323129985824,-0.21884667258626292,0.02010737993759141,-0.06411436650617164,0,0,0,0,0,0,1500,1500,1500,1500,1500,1500
1747444487.764074,0.0,0.0,0.0,0.002181661564992912,0.0,0.0,-0.21884667258626292,0.02010737993759141,-0.06411436650617164,0,0,0,0,0,0,1500,1500,1500,1500,1500,1500
1747444487.864046,0.0,0.0,0.0,0.002181661564992912,0.0,0.0,-0.21884667258626292,0.02010737993759141,-0.06411436650617164,0,0,0,0,0,0,1500,1500,1500,1500,1500,1500
1747444487.9644768,0.0,0.0,0.0,-0.006544984694978736,0.002181661564992912,0.002181661564992912,-0.21884667258626292,0.02010737993759141,-0.06411436650617164,0,0,0,0,0,0,1500,1500,1500,1500,1500,1500
1747444488.0640054,0.0,0.0,0.0,0.011999138607461015,0.004363323129985824,-0.003272492347489368,-0.21873546339315597,0.020112782700967644,-0.0641164711136616,0,0,0,0,0,0,1500,1500,1500,1500,1500,1500
1747444488.1648734,0.0,0.0,0.0,0.011999138607461015,0.004363323129985824,-0.003272492347489368,-0.21873546339315597,0.020112782700967644,-0.0641164711136616,0,0,0,0,0,0,1500,1500,1500,1500,1500,1500
1747444488.2480054,0.0,0.0,0.0,-0.003272492347489368,-0.001090830782496456,-0.002181661564992912,-0.2186112872038953,0.020116538553371015,-0.06411482758630643,0,0,0,0,0,0,1500,1500,1500,1500,1500,1500
