time,ay,ax,az,gy,gx,gz,roll,pitch,yaw,cmd_fx,cmd_fy,cmd_fz,cmd_tx,cmd_ty,cmd_tz,pwm_1,pwm_2,pwm_3,pwm_4,pwm_5,pwm_6
1748734885.8207726,0.0,0.0,0.0,0.0,0.0,0.0,0.0,0.0,0.0,0,0,0,0,0,0,1500,1500,1500,1500,1500,1500
1748734885.9210835,0.0,-0.03,0.04,0.002181661564992912,0.0,0.0,0.005965237268461105,0.7272968959676159,1.6119444496600848,0,0,0,0,0,0,1500,1500,1500,1500,1500,1500
1748734886.0051115,0.0,-0.03,0.04,0.002181661564992912,0.0,0.0,0.005965237268461105,0.7272968959676159,1.6119444496600848,0,0,0,0,0,0,1500,1500,1500,1500,1500,1500
1748734886.1056156,0.01,-0.02,0.0,0.0,-0.003272492347489368,-0.001090830782496456,0.005965237268461105,0.7272968959676159,1.6119444496600848,0,0,0,0,0,0,1500,1500,1500,1500,1500,1500
1748734886.2001314,0.01,0.01,0.02,0.002181661564992912,0.00545415391248228,-0.001090830782496456,0.005965237268461105,0.7272968959676159,1.6119444496600848,0,0,0,0,0,0,1500,1500,1500,1500,1500,1500
1748734886.2889473,0.01,0.01,0.02,0.002181661564992912,0.00545415391248228,-0.001090830782496456,0.005965237268461105,0.7272968959676159,1.6119444496600848,0,0,0,0,0,0,1500,1500,1500,1500,1500,1500
1748734886.3885348,0.0,-0.02,0.05,-0.001090830782496456,0.003272492347489368,0.0,0.005965237268461105,0.7272968959676159,1.6119444496600848,0,0,0,0,0,0,1500,1500,1500,1500,1500,1500
1748734886.4886558,0.0,-0.02,0.05,-0.001090830782496456,0.003272492347489368,0.0,0.005965237268461105,0.7272968959676159,1.6119444496600848,0,0,0,0,0,0,1500,1500,1500,1500,1500,1500
1748734886.5878282,0.0,-0.01,0.04,-0.001090830782496456,-0.001090830782496456,0.001090830782496456,0.005965237268461105,0.7272968959676159,1.6119444496600848,0,0,0,0,0,0,1500,1500,1500,1500,1500,1500
1748734886.688958,0.02,0.03,0.04,0.001090830782496456,-0.003272492347489368,0.002181661564992912,0.005965237268461105,0.7272968959676159,1.6119444496600848,0,0,0,0,0,0,1500,1500,1500,1500,1500,1500
1748734886.7723355,0.02,0.03,0.04,0.001090830782496456,-0.003272492347489368,0.002181661564992912,0.005965237268461105,0.7272968959676159,1.6119444496600848,0,0,0,0,0,0,1500,1500,1500,1500,1500,1500
1748734886.8727865,0.02,0.0,0.03,-0.002181661564992912,-0.002181661564992912,0.001090830782496456,0.005965237268461105,0.7272968959676159,1.6119444496600848,0,0,0,0,0,0,1500,1500,1500,1500,1500,1500
1748734886.9719374,0.02,0.0,0.03,-0.002181661564992912,-0.002181661564992912,0.001090830782496456,0.005965237268461105,0.7272968959676159,1.6119444496600848,0,0,0,0,0,0,1500,1500,1500,1500,1500,1500
1748734887.0552192,0.0,-0.03,0.02,0.0,-0.001090830782496456,0.0,0.005965237268461105,0.7272968959676159,1.6119444496600848,0,0,0,0,0,0,1500,1500,1500,1500,1500,1500
1748734887.1552832,0.0,-0.03,0.02,0.0,-0.001090830782496456,0.0,0.005965237268461105,0.7272968959676159,1.6119444496600848,0,0,0,0,0,0,1500,1500,1500,1500,1500,1500
1748734887.2550561,,,,-0.004363323129985824,0.001090830782496456,0.001090830782496456,0.005965237268461105,0.7272968959676159,1.6119444496600848,0,0,0,0,0,0,1500,1500,1500,1500,1500,1500
1748734887.3547864,0.01,-0.01,0.01,0.001090830782496456,0.0,-0.001090830782496456,0.005965237268461105,0.7272968959676159,1.6119444496600848,0,0,0,0,0,0,1500,1500,1500,1500,1500,1500
1748734887.4544628,0.01,-0.01,0.01,0.001090830782496456,0.0,-0.001090830782496456,0.005965237268461105,0.7272968959676159,1.6119444496600848,0,0,0,0,0,0,1500,1500,1500,1500,1500,1500
1748734887.5382628,0.0,0.0,0.02,0.0,-0.002181661564992912,0.13962634015954636,0.005965237268461105,0.7272968959676159,1.6119444496600848,0,0,0,0,0,0,1500,1500,1500,1500,1500,1500
1748734887.634083,0.0,-0.04,0.05,0.0,0.0,-0.001090830782496456,0.005965237268461105,0.7272968959676159,1.6119444496600848,0,0,0,0,0,0,1500,1500,1500,1500,1500,1500
1748734887.7379935,0.0,-0.04,0.05,0.0,0.0,-0.001090830782496456,0.005965237268461105,0.7272968959676159,1.6119444496600848,0,0,0,0,0,0,1500,1500,1500,1500,1500,1500
1748734887.8216121,0.0,-0.03,0.05,-0.001090830782496456,0.001090830782496456,0.001090830782496456,0.005965237268461105,0.7272968959676159,1.6119444496600848,0,0,0,0,0,0,1500,1500,1500,1500,1500,1500
1748734887.9215133,0.0,-0.03,0.05,-0.001090830782496456,0.001090830782496456,0.001090830782496456,0.005965237268461105,0.7272968959676159,1.6119444496600848,0,0,0,0,0,0,1500,1500,1500,1500,1500,1500
1748734888.0053477,0.0,-0.02,0.04,0.002181661564992912,-0.004363323129985824,0.001090830782496456,0.005965237268461105,0.7272968959676159,1.6119444496600848,0,0,0,0,0,0,1500,1500,1500,1500,1500,1500
1748734888.105606,0.0,-0.02,0.04,0.002181661564992912,-0.004363323129985824,0.001090830782496456,0.005965237268461105,0.7272968959676159,1.6119444496600848,0,0,0,0,0,0,1500,1500,1500,1500,1500,1500
1748734888.2055855,0.01,0.01,0.02,0.00545415391248228,-0.00545415391248228,0.001090830782496456,0.005965237268461105,0.7272968959676159,1.6119444496600848,0,0,0,0,0,0,1500,1500,1500,1500,1500,1500
1748734888.2877026,0.0,-0.03,0.03,0.004363323129985824,0.002181661564992912,-0.001090830782496456,0.005965237268461105,0.7272968959676159,1.6119444496600848,0,0,0,0,0,0,1500,1500,1500,1500,1500,1500
1748734888.388752,0.0,-0.03,0.03,0.004363323129985824,0.002181661564992912,-0.001090830782496456,0.005965237268461105,0.7272968959676159,1.6119444496600848,0,0,0,0,0,0,1500,1500,1500,1500,1500,1500
1748734888.4880927,0.0,-0.01,0.05,-0.002181661564992912,0.003272492347489368,0.001090830782496456,0.005965237268461105,0.7272968959676159,1.6119444496600848,0,0,0,0,0,0,1500,1500,1500,1500,1500,1500
1748734888.5716822,0.0,-0.01,0.05,-0.002181661564992912,0.003272492347489368,0.001090830782496456,0.005965237268461105,0.7272968959676159,1.6119444496600848,0,0,0,0,0,0,1500,1500,1500,1500,1500,1500
1748734888.6723113,0.01,0.01,0.02,0.001090830782496456,0.001090830782496456,0.002181661564992912,0.005965237268461105,0.7272968959676159,1.6119444496600848,0,0,0,0,0,0,1500,1500,1500,1500,1500,1500
1748734888.7558842,0.01,0.0,0.01,0.0,0.0,0.0,0.005965237268461105,0.7272968959676159,1.6119444496600848,0,0,0,0,0,0,1500,1500,1500,1500,1500,1500
1748734888.8553112,0.01,0.0,0.01,0.0,0.0,0.0,0.005965237268461105,0.7272968959676159,1.6119444496600848,0,0,0,0,0,0,1500,1500,1500,1500,1500,1500
1748734888.9556363,0.0,-0.03,0.02,-0.001090830782496456,0.001090830782496456,0.001090830782496456,0.005965237268461105,0.7272968959676159,1.6119444496600848,0,0,0,0,0,0,1500,1500,1500,1500,1500,1500
1748734889.0391479,0.0,-0.03,0.02,-0.001090830782496456,0.001090830782496456,0.001090830782496456,0.005965237268461105,0.7272968959676159,1.6119444496600848,0,0,0,0,0,0,1500,1500,1500,1500,1500,1500
1748734889.1383808,0.0,-0.04,0.03,-0.003272492347489368,0.001090830782496456,0.001090830782496456,0.005965237268461105,0.7272968959676159,1.6119444496600848,0,0,0,0,0,0,1500,1500,1500,1500,1500,1500
1748734889.2381175,0.0,-0.01,0.0,-0.004363323129985824,-0.001090830782496456,0.001090830782496456,0.005965237268461105,0.7272968959676159,1.6119444496600848,0,0,0,0,0,0,1500,1500,1500,1500,1500,1500
1748734889.3217547,0.0,-0.01,0.0,-0.004363323129985824,-0.001090830782496456,0.001090830782496456,0.005965237268461105,0.7272968959676159,1.6119444496600848,0,0,0,0,0,0,1500,1500,1500,1500,1500,1500
1748734889.421219,0.02,0.0,0.04,-0.003272492347489368,0.0,0.0,0.005965237268461105,0.7272968959676159,1.6119444496600848,0,0,0,0,0,0,1500,1500,1500,1500,1500,1500
1748734889.5219896,0.02,0.0,0.04,-0.003272492347489368,0.0,0.0,0.005965237268461105,0.7272968959676159,1.6119444496600848,0,0,0,0,0,0,1500,1500,1500,1500,1500,1500
1748734889.6215425,0.02,-0.01,0.01,-0.003272492347489368,-0.001090830782496456,-0.003272492347489368,0.005965237268461105,0.7272968959676159,1.6119444496600848,0,0,0,0,0,0,1500,1500,1500,1500,1500,1500
1748734889.7213848,0.0,-0.02,0.04,0.0,0.002181661564992912,0.0,0.005965237268461105,0.7272968959676159,1.6119444496600848,0,0,0,0,0,0,1500,1500,1500,1500,1500,1500
1748734889.8051085,0.0,-0.02,0.04,0.0,0.002181661564992912,0.0,0.005965237268461105,0.7272968959676159,1.6119444496600848,0,0,0,0,0,0,1500,1500,1500,1500,1500,1500
1748734889.9044864,0.0,-0.03,0.02,0.001090830782496456,0.002181661564992912,-0.001090830782496456,0.005965237268461105,0.7272968959676159,1.6119444496600848,0,0,0,0,0,0,1500,1500,1500,1500,1500,1500
1748734890.004811,0.0,-0.03,0.02,0.001090830782496456,0.002181661564992912,-0.001090830782496456,0.005965237268461105,0.7272968959676159,1.6119444496600848,0,0,0,0,0,0,1500,1500,1500,1500,1500,1500
1748734890.1053355,0.01,0.0,0.02,-0.001090830782496456,0.001090830782496456,0.001090830782496456,0.005965237268461105,0.7272968959676159,1.6119444496600848,0,0,0,0,0,0,1500,1500,1500,1500,1500,1500
1748734890.204314,0.02,-0.03,0.06,-0.002181661564992912,-0.001090830782496456,0.0,0.005965237268461105,0.7272968959676159,1.6119444496600848,0,0,0,0,0,0,1500,1500,1500,1500,1500,1500
1748734890.2881436,0.02,-0.03,0.06,-0.002181661564992912,-0.001090830782496456,0.0,0.005965237268461105,0.7272968959676159,1.6119444496600848,0,-2.495869,0,0,0,0,1473,1473,1473,1500,1500,1500
1748734890.3882525,0.01,-0.04,0.04,0.001090830782496456,0.002181661564992912,-0.001090830782496456,0.005965237268461105,0.7272968959676159,1.6119444496600848,0,-12.5,0,0,0,0,1446,1446,1446,1500,1500,1500
1748734890.4881413,0.01,-0.04,0.04,0.001090830782496456,0.002181661564992912,-0.001090830782496456,0.005965237268461105,0.7272968959676159,1.6119444496600848,0,-12.5,0,0,0,0.68849,1419,1419,1419,1500,1500,1500
1748734890.5710902,0.0,-0.02,0.01,0.002181661564992912,0.006544984694978736,0.001090830782496456,0.005965237268461105,0.7272968959676159,1.6119444496600848,0,0.674018,0,0.023353,-0.497142,0.7,1445,1392,1445,1500,1473,1473
1748734890.6703243,0.0,0.04,-0.02,-0.007635815477475192,0.004363323129985824,0.003272492347489368,0.006098978429336111,0.7272916694221053,1.611805453421176,0,12.5,0,0,-0.56,0.7,1471,1418,1471,1500,1446,1446
1748734890.755497,0.0,0.04,-0.02,-0.007635815477475192,0.004363323129985824,0.003272492347489368,0.006098978429336111,0.7272916694221053,1.611805453421176,0,0,0,0,0,0,1497,1444,1497,1500,1472,1472
1748734890.8547237,-1.11,0.12,0.48,-0.004363323129985824,0.013089969389957472,0.001090830782496456,0.006098978429336111,0.7272916694221053,1.611805453421176,0,0,0,0,0,0,1500,1470,1500,1500,1498,1498
1748734890.9544053,-1.11,0.12,0.48,-0.004363323129985824,0.013089969389957472,0.001090830782496456,0.006098978429336111,0.7272916694221053,1.611805453421176,0,0,0,0,0,0,1500,1496,1500,1500,1500,1500
1748734891.0379398,0.3,-0.33,0.04,-0.00545415391248228,-0.001090830782496456,0.014180800172453928,0.006010606803674823,0.7271568748391609,1.611711992687016,0,0,0,0,0,0,1500,1500,1500,1500,1500,1500
1748734891.1381478,-0.23,0.08,0.11,-0.006544984694978736,0.003272492347489368,-0.006544984694978736,0.005859526194737495,0.72700939228268,1.6114136726757282,0,0,0,0,0,0,1500,1500,1500,1500,1500,1500
1748734891.2383776,-0.23,0.08,0.11,-0.006544984694978736,0.003272492347489368,-0.006544984694978736,0.005859526194737495,0.72700939228268,1.6114136726757282,0,0,0,0,0,0,1500,1500,1500,1500,1500,1500
1748734891.3380518,0.07,-0.07,0.0,-0.002181661564992912,0.002181661564992912,0.0,0.005859526194737495,0.72700939228268,1.6114136726757282,0,0,0,0,0,0,1500,1500,1500,1500,1500,1500
1748734891.4380176,0.07,-0.07,0.0,-0.002181661564992912,0.002181661564992912,0.0,0.005859526194737495,0.72700939228268,1.6114136726757282,0,0,0,0,0,0,1500,1500,1500,1500,1500,1500
1748734891.5210583,-0.01,0.12,0.01,-0.002181661564992912,-0.004363323129985824,0.004363323129985824,0.005859526194737495,0.72700939228268,1.6114136726757282,0,0,0,0,0,0,1500,1500,1500,1500,1500,1500
1748734891.6213026,0.0,-0.04,0.02,-0.001090830782496456,-0.002181661564992912,0.001090830782496456,0.005859526194737495,0.72700939228268,1.6114136726757282,0,0,0,0,0,0,1500,1500,1500,1500,1500,1500
1748734891.7203393,0.0,-0.04,0.02,-0.001090830782496456,-0.002181661564992912,0.001090830782496456,0.005859526194737495,0.72700939228268,1.6114136726757282,0,0,0,0,0,0,1500,1500,1500,1500,1500,1500
1748734891.805219,0.0,-0.04,0.04,0.0,0.002181661564992912,0.002181661564992912,0.005859526194737495,0.72700939228268,1.6114136726757282,0,0,0,0,0,0,1500,1500,1500,1500,1500,1500
1748734891.9053984,0.0,-0.04,0.04,0.0,0.002181661564992912,0.002181661564992912,0.005859526194737495,0.72700939228268,1.6114136726757282,0,0,0,0,0,0,1500,1500,1500,1500,1500,1500
1748734892.004177,0.0,0.01,0.01,0.002181661564992912,0.0,0.001090830782496456,0.005859526194737495,0.72700939228268,1.6114136726757282,0,0,0,0,0,0,1500,1500,1500,1500,1500,1500
1748734892.1065903,0.01,-0.03,0.03,0.004363323129985824,-0.002181661564992912,0.0,0.005859526194737495,0.72700939228268,1.6114136726757282,0,0,0,0,0,0,1500,1500,1500,1500,1500,1500
1748734892.2056546,0.01,-0.03,0.03,0.004363323129985824,-0.002181661564992912,0.0,0.005859526194737495,0.72700939228268,1.6114136726757282,0,0,0,0,0,0,1500,1500,1500,1500,1500,1500
1748734892.2883337,0.0,-0.02,0.01,-0.001090830782496456,0.002181661564992912,0.0,0.005859526194737495,0.72700939228268,1.6114136726757282,0,0,0,0,0,0,1500,1500,1500,1500,1500,1500
1748734892.3888805,0.0,-0.02,0.01,-0.001090830782496456,0.002181661564992912,0.0,0.005859526194737495,0.72700939228268,1.6114136726757282,0,0,0,0,0,0,1500,1500,1500,1500,1500,1500
1748734892.488117,0.0,-0.04,0.02,-0.002181661564992912,0.0,-0.001090830782496456,0.005859526194737495,0.72700939228268,1.6114136726757282,0,0,0,0,0,0,1500,1500,1500,1500,1500,1500
1748734892.5720336,0.02,0.01,0.0,0.0,-0.001090830782496456,0.001090830782496456,0.005859526194737495,0.72700939228268,1.6114136726757282,0,0,0,0,0,0,1500,1500,1500,1500,1500,1500
1748734892.6715379,0.02,0.01,0.0,0.0,-0.001090830782496456,0.001090830782496456,0.005859526194737495,0.72700939228268,1.6114136726757282,0,0,0,0,0,0,1500,1500,1500,1500,1500,1500
1748734892.771361,0.0,-0.02,0.05,0.001090830782496456,0.004363323129985824,-0.001090830782496456,0.005859526194737495,0.72700939228268,1.6114136726757282,0,0,0,0,0,0,1500,1500,1500,1500,1500,1500
1748734892.8721168,0.0,-0.02,0.05,0.001090830782496456,0.004363323129985824,-0.001090830782496456,0.005859526194737495,0.72700939228268,1.6114136726757282,0,0,0,0,0,0,1500,1500,1500,1500,1500,1500
1748734892.971495,0.01,-0.02,0.02,0.0,0.004363323129985824,-0.001090830782496456,-2.6694812675835293,-1.5707963267948966,2.8575169669989346,0,0,0,0,0,0,1500,1500,1500,1500,1500,1500
1748734893.0555031,0.02,0.0,0.01,-0.001090830782496456,-0.001090830782496456,-0.001090830782496456,0.005859526194737495,0.72700939228268,1.6114136726757282,0,0,0,0,0,0,1500,1500,1500,1500,1500,1500
1748734893.1545157,0.02,0.0,0.01,-0.001090830782496456,-0.001090830782496456,-0.001090830782496456,0.005859526194737495,0.72700939228268,1.6114136726757282,0,0,0,0,0,0,1500,1500,1500,1500,1500,1500
1748734893.2557645,0.0,0.02,0.02,-0.001090830782496456,0.002181661564992912,-0.001090830782496456,0.005859526194737495,0.72700939228268,1.6114136726757282,0,0,0,0,0,0,1500,1500,1500,1500,1500,1500
1748734893.352886,0.01,-0.02,0.04,0.001090830782496456,0.001090830782496456,0.0,0.005859526194737495,0.72700939228268,1.6114136726757282,0,0,0,0,0,0,1500,1500,1500,1500,1500,1500
1748734893.4545515,0.01,-0.02,0.04,0.001090830782496456,0.001090830782496456,0.0,0.005859526194737495,0.72700939228268,1.6114136726757282,0,0,0,0,0,0,1500,1500,1500,1500,1500,1500
1748734893.5374775,0.0,-0.05,0.02,-0.002181661564992912,-0.003272492347489368,-0.002181661564992912,0.005859526194737495,0.72700939228268,1.6114136726757282,0,0,0,0,0,0,1500,1500,1500,1500,1500,1500
1748734893.6375372,0.0,-0.05,0.02,-0.002181661564992912,-0.003272492347489368,-0.002181661564992912,0.005859526194737495,0.72700939228268,1.6114136726757282,0,0,0,0,0,0,1500,1500,1500,1500,1500,1500
1748734893.7385082,0.0,0.01,0.03,0.0,0.002181661564992912,-0.002181661564992912,0.005859526194737495,0.72700939228268,1.6114136726757282,0,0,0,0,0,0,1500,1500,1500,1500,1500,1500
1748734893.838962,-0.01,-0.01,0.05,-0.002181661564992912,-0.002181661564992912,0.0,0.005859526194737495,0.72700939228268,1.6114136726757282,0,0,0,0,0,0,1500,1500,1500,1500,1500,1500
1748734893.9375882,-0.01,-0.01,0.05,-0.002181661564992912,-0.002181661564992912,0.0,0.005859526194737495,0.72700939228268,1.6114136726757282,0,0,0,0,0,0,1500,1500,1500,1500,1500,1500
1748734894.0219717,0.0,-0.05,0.04,0.001090830782496456,-0.003272492347489368,-0.002181661564992912,0.005859526194737495,0.72700939228268,1.6114136726757282,0,0,0,0,0,0,1500,1500,1500,1500,1500,1500
1748734894.1213057,0.0,-0.05,0.04,0.001090830782496456,-0.003272492347489368,-0.002181661564992912,0.005859526194737495,0.72700939228268,1.6114136726757282,0,0,0,0,0,0,1500,1500,1500,1500,1500,1500
1748734894.221178,0.02,-0.04,0.03,-0.004363323129985824,-0.003272492347489368,-0.001090830782496456,0.005859526194737495,0.72700939228268,1.6114136726757282,0,0,0,0,0,0,1500,1500,1500,1500,1500,1500
1748734894.3046694,0.02,0.01,0.05,-0.002181661564992912,-0.002181661564992912,0.001090830782496456,0.005859526194737495,0.72700939228268,1.6114136726757282,0,0,0,0,0,0,1500,1500,1500,1500,1500,1500
1748734894.4053056,0.02,0.01,0.05,-0.002181661564992912,-0.002181661564992912,0.001090830782496456,0.005859526194737495,0.72700939228268,1.6114136726757282,0,0,0,0,0,0,1500,1500,1500,1500,1500,1500
1748734894.5044181,0.0,0.01,0.03,0.003272492347489368,-0.002181661564992912,0.0,0.005859526194737495,0.72700939228268,1.6114136726757282,0,0,0,0,0,0,1500,1500,1500,1500,1500,1500
1748734894.6051934,0.0,0.01,0.03,0.003272492347489368,-0.002181661564992912,0.0,0.005859526194737495,0.72700939228268,1.6114136726757282,0,0,0,0,0,0,1500,1500,1500,1500,1500,1500
1748734894.705848,0.0,-0.04,0.01,0.004363323129985824,-0.002181661564992912,0.002181661564992912,0.005859526194737495,0.72700939228268,1.6114136726757282,0,0,0,0,0,0,1500,1500,1500,1500,1500,1500
1748734894.7877154,0.01,0.0,0.0,-0.001090830782496456,0.001090830782496456,0.002181661564992912,0.005859526194737495,0.72700939228268,1.6114136726757282,0,0,0,0,0,0,1500,1500,1500,1500,1500,1500
1748734894.887707,0.01,0.0,0.0,-0.001090830782496456,0.001090830782496456,0.002181661564992912,0.005859526194737495,0.72700939228268,1.6114136726757282,0,0,0,0,0,0,1500,1500,1500,1500,1500,1500
1748734894.9880645,0.01,0.0,0.04,0.001090830782496456,0.002181661564992912,0.0,0.005859526194737495,0.72700939228268,1.6114136726757282,0,0,0,0,0,0,1500,1500,1500,1500,1500,1500
1748734895.0712569,0.01,0.0,0.04,0.001090830782496456,0.002181661564992912,0.0,0.005859526194737495,0.72700939228268,1.6114136726757282,0,0,0,0,0,0,1500,1500,1500,1500,1500,1500
1748734895.1767628,0.0,-0.03,0.0,0.00545415391248228,0.0,-0.002181661564992912,0.005859526194737495,0.72700939228268,1.6114136726757282,0,0,0,0,0,0,1500,1500,1500,1500,1500,1500
1748734895.2724695,0.0,-0.03,0.02,0.0,0.001090830782496456,-0.003272492347489368,0.005859526194737495,0.72700939228268,1.6114136726757282,0,0,0,0,0,0,1500,1500,1500,1500,1500,1500
1748734895.3712778,0.0,-0.03,0.02,0.0,0.001090830782496456,-0.003272492347489368,0.005859526194737495,0.72700939228268,1.6114136726757282,0,0,0,0,0,0,1500,1500,1500,1500,1500,1500
1748734895.4716141,0.0,-0.04,0.03,0.0,-0.004363323129985824,0.002181661564992912,0.005859526194737495,0.72700939228268,1.6114136726757282,0,0,0,0,0,0,1500,1500,1500,1500,1500,1500
1748734895.5544853,0.0,-0.04,0.03,0.0,-0.004363323129985824,0.002181661564992912,0.005859526194737495,0.72700939228268,1.6114136726757282,0,0,0,0,0,0,1500,1500,1500,1500,1500,1500
1748734895.6545336,0.0,0.0,0.05,0.003272492347489368,-0.004363323129985824,0.001090830782496456,0.005859526194737495,0.72700939228268,1.6114136726757282,0,0,0,0,0,0,1500,1500,1500,1500,1500,1500
1748734895.7549894,0.0,-0.03,0.06,-0.002181661564992912,-0.001090830782496456,0.0,0.005859526194737495,0.72700939228268,1.6114136726757282,0,0,0,0,0,0,1500,1500,1500,1500,1500,1500
1748734895.8544087,0.0,-0.03,0.06,-0.002181661564992912,-0.001090830782496456,0.0,0.005859526194737495,0.72700939228268,1.6114136726757282,0,0,0,0,0,0,1500,1500,1500,1500,1500,1500
1748734895.9546747,0.0,-0.02,0.03,0.0,0.002181661564992912,0.0,0.005859526194737495,0.72700939228268,1.6114136726757282,0,0,0,0,0,0,1500,1500,1500,1500,1500,1500
1748734896.038458,0.0,-0.02,0.03,0.0,0.002181661564992912,0.0,0.005859526194737495,0.72700939228268,1.6114136726757282,0,0,0,0,0,0,1500,1500,1500,1500,1500,1500
1748734896.1380045,0.0,0.0,0.02,0.004363323129985824,0.004363323129985824,0.001090830782496456,0.005859526194737495,0.72700939228268,1.6114136726757282,0,0,0,0,0,0,1500,1500,1500,1500,1500,1500
1748734896.2382545,0.01,0.02,0.01,-0.002181661564992912,0.002181661564992912,0.001090830782496456,0.005859526194737495,0.72700939228268,1.6114136726757282,0,0,0,0,0,0,1500,1500,1500,1500,1500,1500
1748734896.3381426,0.01,0.02,0.01,-0.002181661564992912,0.002181661564992912,0.001090830782496456,0.005859526194737495,0.72700939228268,1.6114136726757282,0,0,0,0,0,0,1500,1500,1500,1500,1500,1500
1748734896.4389648,0.0,-0.03,0.05,0.0,-0.002181661564992912,0.0,0.005859526194737495,0.72700939228268,1.6114136726757282,0,0,0,0,0,0,1500,1500,1500,1500,1500,1500
1748734896.521058,0.0,-0.02,0.05,0.002181661564992912,0.001090830782496456,0.0,0.005859526194737495,0.72700939228268,1.6114136726757282,0,0,0,0,0,0,1500,1500,1500,1500,1500,1500
1748734896.6212397,0.0,-0.02,0.05,0.002181661564992912,0.001090830782496456,0.0,0.005859526194737495,0.72700939228268,1.6114136726757282,0,0,0,0,0,0,1500,1500,1500,1500,1500,1500
1748734896.721575,0.0,0.0,0.04,0.0,-0.001090830782496456,-0.001090830782496456,0.005859526194737495,0.72700939228268,1.6114136726757282,0,0,0,0,0,0,1500,1500,1500,1500,1500,1500
1748734896.825418,0.0,0.0,0.04,0.0,-0.001090830782496456,-0.001090830782496456,0.005859526194737495,0.72700939228268,1.6114136726757282,0,0,0,0,0,0,1500,1500,1500,1500,1500,1500
1748734896.9248543,0.0,0.01,0.03,0.001090830782496456,-0.002181661564992912,-0.001090830782496456,0.005859526194737495,0.72700939228268,1.6114136726757282,0,0,0,0,0,0,1500,1500,1500,1500,1500,1500
1748734897.0091362,0.01,-0.04,0.03,0.0,0.0,0.0,0.005859526194737495,0.72700939228268,1.6114136726757282,0,0,0,0,0,0,1500,1500,1500,1500,1500,1500
1748734897.1076365,0.01,-0.04,0.03,0.0,0.0,0.0,0.005859526194737495,0.72700939228268,1.6114136726757282,0,0,0,0,0,0,1500,1500,1500,1500,1500,1500
1748734897.2068572,0.01,-0.04,0.02,0.001090830782496456,-0.003272492347489368,0.001090830782496456,0.005859526194737495,0.72700939228268,1.6114136726757282,0,0,0,0,0,0,1500,1500,1500,1500,1500,1500
1748734897.289995,0.01,-0.04,0.02,0.001090830782496456,-0.003272492347489368,0.001090830782496456,0.005859526194737495,0.72700939228268,1.6114136726757282,0,0,0,0,0,0,1500,1500,1500,1500,1500,1500
1748734897.3899274,0.0,-0.02,0.01,-0.002181661564992912,0.0,0.0,0.005859526194737495,0.72700939228268,1.6114136726757282,0,0,0,0,0,0,1500,1500,1500,1500,1500,1500
1748734897.4894235,0.02,0.0,0.04,-0.001090830782496456,0.0,0.0,0.005859526194737495,0.72700939228268,1.6114136726757282,0,0,0,0,0,0,1500,1500,1500,1500,1500,1500
1748734897.5881252,0.02,0.0,0.04,-0.001090830782496456,0.0,0.0,0.005859526194737495,0.72700939228268,1.6114136726757282,0,0,0,0,0,0,1500,1500,1500,1500,1500,1500
1748734897.6881924,0.01,-0.02,0.09,0.001090830782496456,-0.003272492347489368,0.0,0.005859526194737495,0.72700939228268,1.6114136726757282,0,0,0,0,0,0,1500,1500,1500,1500,1500,1500
1748734897.7717843,0.01,-0.02,0.09,0.001090830782496456,-0.003272492347489368,0.0,0.005859526194737495,0.72700939228268,1.6114136726757282,0,0,0,0,0,0,1500,1500,1500,1500,1500,1500
1748734897.8720837,0.0,-0.04,0.04,-0.003272492347489368,-0.002181661564992912,0.002181661564992912,0.005859526194737495,0.72700939228268,1.6114136726757282,0,0,0,0,0,0,1500,1500,1500,1500,1500,1500
1748734897.971795,0.0,-0.03,0.02,0.001090830782496456,-0.002181661564992912,-0.002181661564992912,0.005859526194737495,0.72700939228268,1.6114136726757282,0,0,0,0,0,0,1500,1500,1500,1500,1500,1500
1748734898.0552914,0.0,-0.03,0.02,0.001090830782496456,-0.002181661564992912,-0.002181661564992912,0.005859526194737495,0.72700939228268,1.6114136726757282,0,0,0,0,0,0,1500,1500,1500,1500,1500,1500
1748734898.153701,0.0,0.0,0.01,-0.00545415391248228,-0.002181661564992912,0.0,0.005859526194737495,0.72700939228268,1.6114136726757282,0,0,0,0,0,0,1500,1500,1500,1500,1500,1500
1748734898.2541714,0.0,0.0,0.01,-0.00545415391248228,-0.002181661564992912,0.0,0.005859526194737495,0.72700939228268,1.6114136726757282,0,0,0,0,0,0,1500,1500,1500,1500,1500,1500
1748734898.353309,0.0,0.01,0.03,-0.001090830782496456,-0.001090830782496456,0.001090830782496456,0.005859526194737495,0.72700939228268,1.6114136726757282,0,0,0,0,0,0,1500,1500,1500,1500,1500,1500
1748734898.453951,0.0,-0.04,0.03,-0.001090830782496456,0.001090830782496456,0.001090830782496456,0.005859526194737495,0.72700939228268,1.6114136726757282,0,0,0,0,0,0,1500,1500,1500,1500,1500,1500
1748734898.5378823,0.0,-0.04,0.03,-0.001090830782496456,0.001090830782496456,0.001090830782496456,0.005859526194737495,0.72700939228268,1.6114136726757282,0,0,0,0,0,0,1500,1500,1500,1500,1500,1500
1748734898.637988,0.0,0.0,0.01,-0.002181661564992912,-0.002181661564992912,0.0,0.005859526194737495,0.72700939228268,1.6114136726757282,0,0,0,0,0,0,1500,1500,1500,1500,1500,1500
1748734898.7370899,0.0,0.0,0.01,-0.002181661564992912,-0.002181661564992912,0.0,0.005859526194737495,0.72700939228268,1.6114136726757282,0,0,0,0,0,0,1500,1500,1500,1500,1500,1500
1748734898.8213012,0.01,-0.01,0.0,-0.001090830782496456,-0.00545415391248228,0.001090830782496456,0.005859526194737495,0.72700939228268,1.6114136726757282,0,0,0,0,0,0,1500,1500,1500,1500,1500,1500
1748734898.9200768,0.0,-0.01,0.01,0.001090830782496456,-0.004363323129985824,0.004363323129985824,0.005859526194737495,0.72700939228268,1.6114136726757282,0,0,0,0,0,0,1500,1500,1500,1500,1500,1500
1748734899.0202396,0.0,-0.01,0.01,0.001090830782496456,-0.004363323129985824,0.004363323129985824,0.005859526194737495,0.72700939228268,1.6114136726757282,0,0,0,0,0,0,1500,1500,1500,1500,1500,1500
1748734899.120767,-0.01,-0.03,0.05,0.001090830782496456,0.0,-0.001090830782496456,0.005859526194737495,0.72700939228268,1.6114136726757282,0,0,0,0,0,0,1500,1500,1500,1500,1500,1500
1748734899.2206287,-0.01,-0.03,0.05,0.001090830782496456,0.0,-0.001090830782496456,0.005859526194737495,0.72700939228268,1.6114136726757282,0,0,0,0,0,0,1500,1500,1500,1500,1500,1500
1748734899.3044827,0.01,0.0,-0.01,-0.001090830782496456,-0.002181661564992912,-0.001090830782496456,0.005859526194737495,0.72700939228268,1.6114136726757282,0,0,0,0,0,0,1500,1500,1500,1500,1500,1500
1748734899.403896,0.0,0.0,0.01,0.0,0.0,-0.001090830782496456,0.005859526194737495,0.72700939228268,1.6114136726757282,0,0,0,0,0,0,1500,1500,1500,1500,1500,1500
1748734899.5053458,0.0,0.0,0.01,0.0,0.0,-0.001090830782496456,0.005859526194737495,0.72700939228268,1.6114136726757282,0,0,0,0,0,0,1500,1500,1500,1500,1500,1500
1748734899.6041157,0.0,-0.03,0.05,0.001090830782496456,-0.001090830782496456,0.001090830782496456,0.005859526194737495,0.72700939228268,1.6114136726757282,0,0,0,0,0,0,1500,1500,1500,1500,1500,1500
1748734899.7040393,0.0,-0.03,0.05,0.001090830782496456,-0.001090830782496456,0.001090830782496456,0.005859526194737495,0.72700939228268,1.6114136726757282,0,0,0,0,0,0,1500,1500,1500,1500,1500,1500
1748734899.7880619,0.0,-0.06,0.03,-0.001090830782496456,0.001090830782496456,0.0,0.005859526194737495,0.72700939228268,1.6114136726757282,0,0,0,0,0,0,1500,1500,1500,1500,1500,1500
1748734899.8874044,0.02,-0.03,0.02,0.002181661564992912,-0.001090830782496456,-0.001090830782496456,0.005859526194737495,0.72700939228268,1.6114136726757282,0,0,0,0,0,0,1500,1500,1500,1500,1500,1500
1748734899.9869888,0.02,-0.03,0.02,0.002181661564992912,-0.001090830782496456,-0.001090830782496456,0.005859526194737495,0.72700939228268,1.6114136726757282,0,0,0,0,0,0,1500,1500,1500,1500,1500,1500
1748734900.072769,0.0,0.01,0.04,0.002181661564992912,0.0,-0.001090830782496456,0.005859526194737495,0.72700939228268,1.6114136726757282,0,0,0,0,0,0,1500,1500,1500,1500,1500,1500
1748734900.1719282,0.0,0.01,0.04,0.002181661564992912,0.0,-0.001090830782496456,0.005859526194737495,0.72700939228268,1.6114136726757282,0,0,0,0,0,0,1500,1500,1500,1500,1500,1500
1748734900.2714436,0.02,-0.03,0.02,-0.001090830782496456,0.00545415391248228,0.003272492347489368,0.005859526194737495,0.72700939228268,1.6114136726757282,0,0,0,0,0,0,1500,1500,1500,1500,1500,1500
1748734900.3711448,0.01,-0.02,0.01,-0.002181661564992912,0.006544984694978736,0.001090830782496456,0.005859526194737495,0.72700939228268,1.6114136726757282,0,0,0,0,0,0,1500,1500,1500,1500,1500,1500
1748734900.473332,0.01,-0.02,0.01,-0.002181661564992912,0.006544984694978736,0.001090830782496456,0.005859526194737495,0.72700939228268,1.6114136726757282,0,0,0,0,0,0,1500,1500,1500,1500,1500,1500
1748734900.5723653,0.0,0.0,0.03,-0.002181661564992912,0.001090830782496456,-0.001090830782496456,0.005859526194737495,0.72700939228268,1.6114136726757282,0,0,0,0,0,0,1500,1500,1500,1500,1500,1500
1748734900.671513,0.02,0.02,0.01,0.002181661564992912,-0.003272492347489368,-0.001090830782496456,0.005859526194737495,0.72700939228268,1.6114136726757282,0,0,0,0,0,0,1500,1500,1500,1500,1500,1500
1748734900.7706292,0.02,0.02,0.01,0.002181661564992912,-0.003272492347489368,-0.001090830782496456,0.005859526194737495,0.72700939228268,1.6114136726757282,0,0,0,0,0,0,1500,1500,1500,1500,1500,1500
1748734900.8710382,0.0,-0.04,0.04,0.0,0.0,0.001090830782496456,0.005859526194737495,0.72700939228268,1.6114136726757282,0,0,0,0,0,0,1500,1500,1500,1500,1500,1500
1748734900.9716485,0.0,-0.04,0.04,0.0,0.0,0.001090830782496456,0.005859526194737495,0.72700939228268,1.6114136726757282,0,0,0,0,0,0,1500,1500,1500,1500,1500,1500
1748734901.0542643,0.0,-0.04,0.01,-0.002181661564992912,0.00545415391248228,0.0,0.005859526194737495,0.72700939228268,1.6114136726757282,0,0,0,0,0,0,1500,1500,1500,1500,1500,1500
1748734901.1542845,0.01,0.0,0.0,0.0,0.006544984694978736,0.001090830782496456,0.005859526194737495,0.72700939228268,1.6114136726757282,0,0,0,0,0,0,1500,1500,1500,1500,1500,1500
1748734901.2551923,0.01,0.0,0.0,0.0,0.006544984694978736,0.001090830782496456,0.005859526194737495,0.72700939228268,1.6114136726757282,0,0,0,0,0,0,1500,1500,1500,1500,1500,1500
1748734901.3539011,0.0,-0.04,0.05,-0.002181661564992912,-0.003272492347489368,0.0,0.005859526194737495,0.72700939228268,1.6114136726757282,0,0,0,0,0,0,1500,1500,1500,1500,1500,1500
1748734901.4536397,0.0,-0.05,0.03,-0.004363323129985824,0.002181661564992912,0.001090830782496456,0.005859526194737495,0.72700939228268,1.6114136726757282,0,0,0,0,0,0,1500,1500,1500,1500,1500,1500
1748734901.5370493,0.0,-0.05,0.03,-0.004363323129985824,0.002181661564992912,0.001090830782496456,0.005859526194737495,0.72700939228268,1.6114136726757282,0,0,0,0,0,0,1500,1500,1500,1500,1500,1500
1748734901.636718,0.01,-0.03,0.01,0.0,0.006544984694978736,0.0,0.005859526194737495,0.72700939228268,1.6114136726757282,0,0,0,0,0,0,1500,1500,1500,1500,1500,1500
1748734901.7380898,0.01,-0.03,0.01,0.0,0.006544984694978736,0.0,0.005859526194737495,0.72700939228268,1.6114136726757282,0,0,0,0,0,0,1500,1500,1500,1500,1500,1500
1748734901.8202596,0.0,0.03,0.02,-0.001090830782496456,-0.00545415391248228,0.0,0.005859526194737495,0.72700939228268,1.6114136726757282,0,0,0,0,0,0,1500,1500,1500,1500,1500,1500
1748734901.920771,0.0,0.0,0.05,0.002181661564992912,-0.001090830782496456,0.002181661564992912,0.005859526194737495,0.72700939228268,1.6114136726757282,0,0,0,0,0,0,1500,1500,1500,1500,1500,1500
1748734902.0199735,0.0,0.0,0.05,0.002181661564992912,-0.001090830782496456,0.002181661564992912,0.005859526194737495,0.72700939228268,1.6114136726757282,0,0,0,0,0,0,1500,1500,1500,1500,1500,1500
1748734902.1207104,0.0,-0.04,0.06,-0.003272492347489368,0.002181661564992912,0.001090830782496456,0.005859526194737495,0.72700939228268,1.6114136726757282,0,0,0,0,0,0,1500,1500,1500,1500,1500,1500
1748734902.2220283,0.0,-0.04,0.06,-0.003272492347489368,0.002181661564992912,0.001090830782496456,0.005859526194737495,0.72700939228268,1.6114136726757282,0,0,0,0,0,0,1500,1500,1500,1500,1500,1500
1748734902.3048854,0.0,0.0,-0.01,0.003272492347489368,0.001090830782496456,0.002181661564992912,0.005859526194737495,0.72700939228268,1.6114136726757282,0,0,0,0,0,0,1500,1500,1500,1500,1500,1500
1748734902.4044437,0.03,0.0,0.06,0.002181661564992912,-0.001090830782496456,0.0,0.005859526194737495,0.72700939228268,1.6114136726757282,0,0,0,0,0,0,1500,1500,1500,1500,1500,1500
1748734902.5037866,0.03,0.0,0.06,0.002181661564992912,-0.001090830782496456,0.0,0.005859526194737495,0.72700939228268,1.6114136726757282,0,0,0,0,0,0,1500,1500,1500,1500,1500,1500
1748734902.6053233,0.0,0.0,0.03,0.001090830782496456,-0.001090830782496456,-0.002181661564992912,0.005859526194737495,0.72700939228268,1.6114136726757282,0,0,0,0,0,0,1500,1500,1500,1500,1500,1500
1748734902.703973,0.0,0.0,0.03,0.001090830782496456,-0.001090830782496456,-0.002181661564992912,0.005859526194737495,0.72700939228268,1.6114136726757282,0,0,0,0,0,0,1500,1500,1500,1500,1500,1500
1748734902.7877545,-0.01,-0.03,0.05,-0.003272492347489368,0.0,0.001090830782496456,0.005859526194737495,0.72700939228268,1.6114136726757282,0,0,0,0,0,0,1500,1500,1500,1500,1500,1500
1748734902.8866763,-0.01,-0.03,0.05,-0.003272492347489368,0.0,0.001090830782496456,0.005859526194737495,0.72700939228268,1.6114136726757282,0,0,0,0,0,0,1500,1500,1500,1500,1500,1500
1748734902.9878557,0.0,0.0,0.03,0.001090830782496456,-0.004363323129985824,0.001090830782496456,0.005859526194737495,0.72700939228268,1.6114136726757282,0,0,0,0,0,0,1500,1500,1500,1500,1500,1500
1748734903.070542,-0.01,-0.01,0.04,0.0,0.00545415391248228,-0.002181661564992912,0.005859526194737495,0.72700939228268,1.6114136726757282,0,0,0,0,0,0,1500,1500,1500,1500,1500,1500
1748734903.1706908,-0.01,-0.01,0.04,0.0,0.00545415391248228,-0.002181661564992912,0.005859526194737495,0.72700939228268,1.6114136726757282,0,0,0,0,0,0,1500,1500,1500,1500,1500,1500
1748734903.271183,0.0,-0.03,0.06,0.0,0.0,0.001090830782496456,0.005859526194737495,0.72700939228268,1.6114136726757282,0,0,0,0,0,0,1500,1500,1500,1500,1500,1500
1748734903.3713405,0.01,-0.01,0.03,0.00545415391248228,0.003272492347489368,0.0,0.005859526194737495,0.72700939228268,1.6114136726757282,0,0,0,0,0,0,1500,1500,1500,1500,1500,1500
1748734903.4710932,0.01,-0.01,0.03,0.00545415391248228,0.003272492347489368,0.0,0.005859526194737495,0.72700939228268,1.6114136726757282,0,0,0,0,0,0,1500,1500,1500,1500,1500,1500
1748734903.5545564,0.02,0.0,0.01,-0.002181661564992912,-0.001090830782496456,-0.002181661564992912,0.005859526194737495,0.72700939228268,1.6114136726757282,0,0,0,0,0,0,1500,1500,1500,1500,1500,1500
1748734903.6540406,0.02,0.0,0.01,-0.002181661564992912,-0.001090830782496456,-0.002181661564992912,0.005859526194737495,0.72700939228268,1.6114136726757282,0,0,0,0,0,0,1500,1500,1500,1500,1500,1500
1748734903.7534966,0.01,0.0,0.0,0.0,-0.004363323129985824,0.0,0.005859526194737495,0.72700939228268,1.6114136726757282,0,0,0,0,0,0,1500,1500,1500,1500,1500,1500
1748734903.8367872,0.0,-0.04,0.03,-0.003272492347489368,0.0,0.0,0.005859526194737495,0.72700939228268,1.6114136726757282,0,0,0,0,0,0,1500,1500,1500,1500,1500,1500
1748734903.9366934,0.0,-0.04,0.03,-0.003272492347489368,0.0,0.0,0.005859526194737495,0.72700939228268,1.6114136726757282,0,0,0,0,0,0,1500,1500,1500,1500,1500,1500
1748734904.0377536,0.0,-0.03,0.01,0.001090830782496456,0.003272492347489368,0.0,0.005859526194737495,0.72700939228268,1.6114136726757282,0,0,0,0,0,0,1500,1500,1500,1500,1500,1500
1748734904.1378596,0.0,-0.03,0.01,0.001090830782496456,0.003272492347489368,0.0,0.005859526194737495,0.72700939228268,1.6114136726757282,0,0,0,0,0,0,1500,1500,1500,1500,1500,1500
1748734904.2383003,0.0,0.0,0.01,0.001090830782496456,0.0,0.0,0.005859526194737495,0.72700939228268,1.6114136726757282,0,0,0,0,0,0,1500,1500,1500,1500,1500,1500
1748734904.3200054,0.0,0.01,0.01,0.001090830782496456,0.0,-0.004363323129985824,0.005859526194737495,0.72700939228268,1.6114136726757282,0,0,0,0,0,0,1500,1500,1500,1500,1500,1500
1748734904.4212744,0.0,0.01,0.01,0.001090830782496456,0.0,-0.004363323129985824,0.005859526194737495,0.72700939228268,1.6114136726757282,0,0,0,0,0,0,1500,1500,1500,1500,1500,1500
1748734904.5198987,0.01,0.0,0.03,-0.003272492347489368,0.0,0.001090830782496456,0.005859526194737495,0.72700939228268,1.6114136726757282,0,0,0,0,0,0,1500,1500,1500,1500,1500,1500
1748734904.6206946,0.01,0.0,0.03,-0.003272492347489368,0.0,0.001090830782496456,0.005859526194737495,0.72700939228268,1.6114136726757282,0,0,0,0,0,0,1500,1500,1500,1500,1500,1500
1748734904.719687,0.0,-0.05,0.04,0.002181661564992912,-0.001090830782496456,-0.001090830782496456,0.005859526194737495,0.72700939228268,1.6114136726757282,0,0,0,0,0,0,1500,1500,1500,1500,1500,1500
1748734904.8046033,0.01,-0.03,0.05,0.0,-0.002181661564992912,-0.001090830782496456,0.005859526194737495,0.72700939228268,1.6114136726757282,0,0,0,0,0,0,1500,1500,1500,1500,1500,1500
1748734904.9043388,0.01,-0.03,0.05,0.0,-0.002181661564992912,-0.001090830782496456,0.005859526194737495,0.72700939228268,1.6114136726757282,0,0,0,0,0,0,1500,1500,1500,1500,1500,1500
1748734905.0043187,0.01,0.0,0.0,0.001090830782496456,0.001090830782496456,0.001090830782496456,0.005859526194737495,0.72700939228268,1.6114136726757282,0,0,0,0,0,0,1500,1500,1500,1500,1500,1500
1748734905.103423,0.0,0.01,0.0,-0.003272492347489368,0.0,0.001090830782496456,0.005859526194737495,0.72700939228268,1.6114136726757282,0,0,0,0,0,0,1500,1500,1500,1500,1500,1500
1748734905.203906,0.0,0.01,0.0,-0.003272492347489368,0.0,0.001090830782496456,0.005859526194737495,0.72700939228268,1.6114136726757282,0,0,0,0,0,0,1500,1500,1500,1500,1500,1500
1748734905.3049498,0.0,-0.03,0.01,-0.001090830782496456,-0.001090830782496456,0.0,0.005859526194737495,0.72700939228268,1.6114136726757282,0,0,0,0,0,0,1500,1500,1500,1500,1500,1500
1748734905.404417,0.0,-0.03,0.01,-0.001090830782496456,-0.001090830782496456,0.0,0.005859526194737495,0.72700939228268,1.6114136726757282,0,0,0,0,0,0,1500,1500,1500,1500,1500,1500
1748734905.5038474,0.0,-0.04,0.02,-0.001090830782496456,0.001090830782496456,0.002181661564992912,0.005859526194737495,0.72700939228268,1.6114136726757282,0,0,0,0,0,0,1500,1500,1500,1500,1500,1500
1748734905.5891073,0.0,0.01,0.02,0.0,0.0,0.001090830782496456,0.005859526194737495,0.72700939228268,1.6114136726757282,0,0,0,0,0,0,1500,1500,1500,1500,1500,1500
1748734905.6869543,0.0,0.01,0.02,0.0,0.0,0.001090830782496456,0.005859526194737495,0.72700939228268,1.6114136726757282,0,0,0,0,0,0,1500,1500,1500,1500,1500,1500
1748734905.7712572,0.0,-0.02,0.05,0.0,0.0,0.0,0.005859526194737495,0.72700939228268,1.6114136726757282,0,0,0,0,0,0,1500,1500,1500,1500,1500,1500
1748734905.8709989,0.0,-0.02,0.05,0.0,0.0,0.0,0.005859526194737495,0.72700939228268,1.6114136726757282,0,0,0,0,0,0,1500,1500,1500,1500,1500,1500
1748734905.9700174,0.01,-0.03,0.05,0.002181661564992912,0.0,0.001090830782496456,0.005859526194737495,0.72700939228268,1.6114136726757282,0,0,0,0,0,0,1500,1500,1500,1500,1500,1500
1748734906.055293,0.01,-0.03,0.05,0.002181661564992912,0.0,0.001090830782496456,0.005859526194737495,0.72700939228268,1.6114136726757282,0,0,0,0,0,0,1500,1500,1500,1500,1500,1500
1748734906.1534033,0.0,-0.02,0.01,0.001090830782496456,0.0,0.001090830782496456,0.005859526194737495,0.72700939228268,1.6114136726757282,0,0,0,0,0,0,1500,1500,1500,1500,1500,1500
1748734906.2546806,0.01,0.01,0.01,0.0,-0.003272492347489368,0.0,0.005859526194737495,0.72700939228268,1.6114136726757282,0,0,0,0,0,0,1500,1500,1500,1500,1500,1500
1748734906.3549504,0.01,0.01,0.01,0.0,-0.003272492347489368,0.0,0.005859526194737495,0.72700939228268,1.6114136726757282,0,0,0,0,0,0,1500,1500,1500,1500,1500,1500
1748734906.4536233,-0.01,0.0,0.04,-0.002181661564992912,0.003272492347489368,0.001090830782496456,0.005859526194737495,0.72700939228268,1.6114136726757282,0,0,0,0,0,0,1500,1500,1500,1500,1500,1500
1748734906.537842,0.0,-0.02,0.03,-0.001090830782496456,-0.001090830782496456,0.002181661564992912,0.005859526194737495,0.72700939228268,1.6114136726757282,0,0,0,0,0,0,1500,1500,1500,1500,1500,1500
1748734906.6370654,0.0,-0.02,0.03,-0.001090830782496456,-0.001090830782496456,0.002181661564992912,0.005859526194737495,0.72700939228268,1.6114136726757282,0,0,0,0,0,0,1500,1500,1500,1500,1500,1500
1748734906.7510734,0.01,0.01,0.01,-0.002181661564992912,0.001090830782496456,-0.001090830782496456,0.005859526194737495,0.72700939228268,1.6114136726757282,0,0,0,0,0,0,1500,1500,1500,1500,1500,1500
1748734906.8378797,0.01,0.01,0.01,-0.002181661564992912,0.001090830782496456,-0.001090830782496456,0.005859526194737495,0.72700939228268,1.6114136726757282,0,0,0,0,0,0,1500,1500,1500,1500,1500,1500
1748734906.937353,0.0,-0.01,0.01,-0.001090830782496456,-0.001090830782496456,0.003272492347489368,0.005859526194737495,0.72700939228268,1.6114136726757282,0,0,0,0,0,0,1500,1500,1500,1500,1500,1500
1748734907.037227,0.01,-0.02,0.01,0.00545415391248228,0.003272492347489368,0.0,0.005859526194737495,0.72700939228268,1.6114136726757282,0,0,0,0,0,0,1500,1500,1500,1500,1500,1500
1748734907.1376793,0.01,-0.02,0.01,0.00545415391248228,0.003272492347489368,0.0,0.005859526194737495,0.72700939228268,1.6114136726757282,0,0,0,0,0,0,1500,1500,1500,1500,1500,1500
1748734907.2389505,0.0,-0.04,0.02,-0.001090830782496456,0.00545415391248228,0.001090830782496456,0.005859526194737495,0.72700939228268,1.6114136726757282,0,0,0,0,0,0,1500,1500,1500,1500,1500,1500
1748734907.3370967,0.0,0.01,0.03,0.0,-0.002181661564992912,-0.002181661564992912,-0.007777427559629117,0.7411829001776297,1.6116255712437997,0,0,0,0,0,0,1500,1500,1500,1500,1500,1500
1748734907.437804,0.0,0.01,0.03,0.0,-0.002181661564992912,-0.002181661564992912,-0.007777427559629117,0.7411829001776297,1.6116255712437997,0,0,0,0,0,0,1500,1500,1500,1500,1500,1500
1748734907.5222847,0.01,-0.03,0.02,-0.002181661564992912,-0.001090830782496456,0.0,0.005859526194737495,0.72700939228268,1.6114136726757282,0,0,0,0,0,0,1500,1500,1500,1500,1500,1500
1748734907.6206465,0.01,-0.03,0.02,-0.002181661564992912,-0.001090830782496456,0.0,0.005859526194737495,0.72700939228268,1.6114136726757282,0,0,0,0,0,0,1500,1500,1500,1500,1500,1500
1748734907.7222192,-0.01,-0.02,0.03,-0.001090830782496456,-0.006544984694978736,0.0,0.005859526194737495,0.72700939228268,1.6114136726757282,0,0,0,0,0,0,1500,1500,1500,1500,1500,1500
1748734907.8044107,0.0,-0.02,0.03,0.003272492347489368,0.001090830782496456,0.001090830782496456,0.005859526194737495,0.72700939228268,1.6114136726757282,0,0,0,0,0,0,1500,1500,1500,1500,1500,1500
1748734907.904075,0.0,-0.02,0.03,0.003272492347489368,0.001090830782496456,0.001090830782496456,0.005859526194737495,0.72700939228268,1.6114136726757282,0,0,0,0,0,0,1500,1500,1500,1500,1500,1500
1748734908.0036743,0.0,0.01,0.01,0.001090830782496456,0.0,0.0,0.005859526194737495,0.72700939228268,1.6114136726757282,0,0,0,0,0,0,1500,1500,1500,1500,1500,1500
1748734908.0874028,0.0,0.01,0.01,0.001090830782496456,0.0,0.0,0.005859526194737495,0.72700939228268,1.6114136726757282,0,0,0,0,0,0,1500,1500,1500,1500,1500,1500
1748734908.1878633,0.0,0.0,0.02,0.0,-0.001090830782496456,-0.002181661564992912,0.005859526194737495,0.72700939228268,1.6114136726757282,0,0,0,0,0,0,1500,1500,1500,1500,1500,1500
1748734908.2707033,0.0,0.0,0.02,0.0,-0.001090830782496456,-0.002181661564992912,0.005859526194737495,0.72700939228268,1.6114136726757282,0,0,0,0,0,0,1500,1500,1500,1500,1500,1500
1748734908.3736944,-0.02,-0.04,0.05,-0.001090830782496456,-0.002181661564992912,-0.001090830782496456,0.005859526194737495,0.72700939228268,1.6114136726757282,0,0,0,0,0,0,1500,1500,1500,1500,1500,1500
1748734908.471026,0.0,0.0,0.03,-0.002181661564992912,0.002181661564992912,0.002181661564992912,0.005859526194737495,0.72700939228268,1.6114136726757282,0,0,0,0,0,0,1500,1500,1500,1500,1500,1500
1748734908.5535655,0.0,0.0,0.03,-0.002181661564992912,0.002181661564992912,0.002181661564992912,0.005859526194737495,0.72700939228268,1.6114136726757282,0,0,0,0,0,0,1500,1500,1500,1500,1500,1500
1748734908.654243,-0.02,-0.03,0.03,0.0,0.002181661564992912,-0.001090830782496456,0.005859526194737495,0.72700939228268,1.6114136726757282,0,0,0,0,0,0,1500,1500,1500,1500,1500,1500
1748734908.752019,0.0,-0.01,0.01,0.0,0.0,0.001090830782496456,0.005859526194737495,0.72700939228268,1.6114136726757282,0,0,0,0,0,0,1500,1500,1500,1500,1500,1500
1748734908.8374236,0.0,-0.01,0.01,0.0,0.0,0.001090830782496456,0.005859526194737495,0.72700939228268,1.6114136726757282,0,0,0,0,0,0,1500,1500,1500,1500,1500,1500
1748734908.93664,0.0,-0.06,0.0,0.002181661564992912,-0.003272492347489368,-0.001090830782496456,0.005859526194737495,0.72700939228268,1.6114136726757282,0,0,0,0,0,0,1500,1500,1500,1500,1500,1500
1748734909.021077,0.0,-0.06,0.0,0.002181661564992912,-0.003272492347489368,-0.001090830782496456,0.005859526194737495,0.72700939228268,1.6114136726757282,0,0,0,0,0,0,1500,1500,1500,1500,1500,1500
1748734909.1206431,-0.01,0.0,0.01,0.002181661564992912,0.001090830782496456,0.0,0.005859526194737495,0.72700939228268,1.6114136726757282,0,0,0,0,0,0,1500,1500,1500,1500,1500,1500
1748734909.2207515,-0.01,0.0,0.01,0.002181661564992912,0.001090830782496456,0.0,0.005859526194737495,0.72700939228268,1.6114136726757282,0,0,0,0,0,0,1500,1500,1500,1500,1500,1500
1748734909.3038812,0.01,0.0,0.03,-0.001090830782496456,-0.00545415391248228,0.001090830782496456,0.005859526194737495,0.72700939228268,1.6114136726757282,0,0,0,0,0,0,1500,1500,1500,1500,1500,1500
1748734909.404626,0.0,-0.02,0.02,0.001090830782496456,-0.002181661564992912,0.0,0.005859526194737495,0.72700939228268,1.6114136726757282,0,0,0,0,0,0,1500,1500,1500,1500,1500,1500
1748734909.504146,0.0,-0.02,0.02,0.001090830782496456,-0.002181661564992912,0.0,0.005859526194737495,0.72700939228268,1.6114136726757282,0,0,0,0,0,0,1500,1500,1500,1500,1500,1500
1748734909.6056552,0.02,-0.02,0.02,0.003272492347489368,-0.00545415391248228,-0.001090830782496456,0.005859526194737495,0.72700939228268,1.6114136726757282,0,0,0,0,0,0,1500,1500,1500,1500,1500,1500
1748734909.7044127,-0.01,0.0,0.01,-0.003272492347489368,-0.003272492347489368,-0.001090830782496456,0.005859526194737495,0.72700939228268,1.6114136726757282,0,0,0,0,0,0,1500,1500,1500,1500,1500,1500
1748734909.804054,-0.01,0.0,0.01,-0.003272492347489368,-0.003272492347489368,-0.001090830782496456,0.005859526194737495,0.72700939228268,1.6114136726757282,0,0,0,0,0,0,1500,1500,1500,1500,1500,1500
1748734909.9040227,0.0,0.0,-0.01,-0.001090830782496456,0.0,0.001090830782496456,0.005859526194737495,0.72700939228268,1.6114136726757282,0,0,0,0,0,0,1500,1500,1500,1500,1500,1500
1748734910.0042596,0.0,0.0,-0.01,-0.001090830782496456,0.0,0.001090830782496456,0.005859526194737495,0.72700939228268,1.6114136726757282,0,0,0,0,0,0,1500,1500,1500,1500,1500,1500
1748734910.1044009,0.0,-0.03,0.03,0.002181661564992912,0.002181661564992912,-0.001090830782496456,0.005859526194737495,0.72700939228268,1.6114136726757282,0,0,0,0,0,0,1500,1500,1500,1500,1500,1500
1748734910.2042532,0.0,-0.06,0.03,-0.001090830782496456,0.003272492347489368,-0.002181661564992912,0.005859526194737495,0.72700939228268,1.6114136726757282,0,0,0,0,0,0,1500,1500,1500,1500,1500,1500
1748734910.2876303,0.0,-0.06,0.03,-0.001090830782496456,0.003272492347489368,-0.002181661564992912,0.005859526194737495,0.72700939228268,1.6114136726757282,0,0,0,0,0,0,1500,1500,1500,1500,1500,1500
1748734910.3877223,0.01,-0.01,0.0,0.002181661564992912,-0.004363323129985824,-0.001090830782496456,0.005859526194737495,0.72700939228268,1.6114136726757282,0,0,0,0,0,0,1500,1500,1500,1500,1500,1500
1748734910.4882052,0.01,-0.01,0.0,0.002181661564992912,-0.004363323129985824,-0.001090830782496456,0.005859526194737495,0.72700939228268,1.6114136726757282,0,0,0,0,0,0,1500,1500,1500,1500,1500,1500
1748734910.5707595,0.0,0.0,0.02,0.0,0.0,0.0,0.005859526194737495,0.72700939228268,1.6114136726757282,0,0,0,0,0,0,1500,1500,1500,1500,1500,1500
1748734910.6715562,-0.02,0.0,0.0,0.002181661564992912,0.006544984694978736,0.003272492347489368,0.005859526194737495,0.72700939228268,1.6114136726757282,0,0,0,0,0,0,1500,1500,1500,1500,1500,1500
