time,ay,ax,az,gy,gx,gz,roll,pitch,yaw,cmd_fx,cmd_fy,cmd_fz,cmd_tx,cmd_ty,cmd_tz,pwm_1,pwm_2,pwm_3,pwm_4,pwm_5,pwm_6
1748735645.949009,0.0,0.0,0.0,0.0,0.0,0.0,0.0,0.0,0.0,0,0,0,0,0,0,1500,1500,1500,1500,1500,1500
1748735646.0433543,0.02,-0.01,0.06,0.002181661564992912,-0.001090830782496456,0.0,0.005596969688094218,0.7268381796216239,1.611243803410767,0,0,0,0,0,0,1500,1500,1500,1500,1500,1500
1748735646.145034,0.02,-0.01,0.06,0.002181661564992912,-0.001090830782496456,0.0,0.005596969688094218,0.7268381796216239,1.611243803410767,0,0,0,0,0,0,1500,1500,1500,1500,1500,1500
1748735646.2447605,0.0,-0.02,0.05,-0.001090830782496456,-0.002181661564992912,0.0,0.005596969688094218,0.7268381796216239,1.611243803410767,0,0,0,0,0,0,1500,1500,1500,1500,1500,1500
1748735646.3449676,0.0,-0.03,0.03,0.0,0.00545415391248228,0.003272492347489368,0.005596969688094218,0.7268381796216239,1.611243803410767,0,0,0,0,0,0,1500,1500,1500,1500,1500,1500
1748735646.4292693,0.0,-0.03,0.03,0.0,0.00545415391248228,0.003272492347489368,0.005596969688094218,0.7268381796216239,1.611243803410767,0,0,0,0,0,0,1500,1500,1500,1500,1500,1500
1748735646.5277846,0.01,-0.01,0.0,0.00545415391248228,0.0,0.0,0.005596969688094218,0.7268381796216239,1.611243803410767,0,0,0,0,0,0,1500,1500,1500,1500,1500,1500
1748735646.6273162,0.01,-0.01,0.0,0.00545415391248228,0.0,0.0,0.005596969688094218,0.7268381796216239,1.611243803410767,0,0,0,0,0,0,1500,1500,1500,1500,1500,1500
1748735646.7110376,0.02,0.0,0.0,-0.002181661564992912,-0.001090830782496456,0.001090830782496456,0.005596969688094218,0.7268381796216239,1.611243803410767,0,0,0,0,0,0,1500,1500,1500,1500,1500,1500
1748735646.806449,0.01,0.0,0.05,0.002181661564992912,0.001090830782496456,0.001090830782496456,0.005596969688094218,0.7268381796216239,1.611243803410767,0,0,0,0,0,0,1500,1500,1500,1500,1500,1500
1748735646.910378,0.01,0.0,0.05,0.002181661564992912,0.001090830782496456,0.001090830782496456,0.005596969688094218,0.7268381796216239,1.611243803410767,0,0,0,0,0,0,1500,1500,1500,1500,1500,1500
1748735647.0112672,0.0,-0.03,0.06,-0.003272492347489368,-0.004363323129985824,0.001090830782496456,0.005596969688094218,0.7268381796216239,1.611243803410767,0,0,0,0,0,0,1500,1500,1500,1500,1500,1500
1748735647.1115854,0.0,-0.03,0.06,-0.003272492347489368,-0.004363323129985824,0.001090830782496456,0.005596969688094218,0.7268381796216239,1.611243803410767,0,0,0,0,0,0,1500,1500,1500,1500,1500,1500
1748735647.194327,0.0,-0.03,0.02,0.0,-0.003272492347489368,0.0,0.005596969688094218,0.7268381796216239,1.611243803410767,0,0,0,0,0,0,1500,1500,1500,1500,1500,1500
1748735647.2944264,0.02,-0.01,0.0,-0.002181661564992912,-0.001090830782496456,0.0,0.005596969688094218,0.7268381796216239,1.611243803410767,0,0,0,0,0,0,1500,1500,1500,1500,1500,1500
1748735647.3947182,0.02,-0.01,0.0,-0.002181661564992912,-0.001090830782496456,0.0,0.005596969688094218,0.7268381796216239,1.611243803410767,0,0,0,0,0,0,1500,1500,1500,1500,1500,1500
1748735647.4946816,0.02,0.0,-0.01,-0.003272492347489368,0.0,0.001090830782496456,0.005596969688094218,0.7268381796216239,1.611243803410767,0,0,0,0,0,0,1500,1500,1500,1500,1500,1500
1748735647.59428,0.02,0.0,-0.01,-0.003272492347489368,0.0,0.001090830782496456,0.005596969688094218,0.7268381796216239,1.611243803410767,0,0,0,0,0,0,1500,1500,1500,1500,1500,1500
1748735647.6772013,0.0,0.0,0.01,0.0,0.001090830782496456,-0.001090830782496456,0.005596969688094218,0.7268381796216239,1.611243803410767,0,0,0,0,0,0,1500,1500,1500,1500,1500,1500
1748735647.7780032,0.0,-0.03,0.04,0.0,-0.003272492347489368,-0.001090830782496456,0.005596969688094218,0.7268381796216239,1.611243803410767,0,0,0,0,0,0,1500,1500,1500,1500,1500,1500
1748735647.877857,0.0,-0.03,0.04,0.0,-0.003272492347489368,-0.001090830782496456,0.005596969688094218,0.7268381796216239,1.611243803410767,0,0,0,0,0,0,1500,1500,1500,1500,1500,1500
1748735647.961165,0.01,-0.03,0.05,-0.004363323129985824,-0.002181661564992912,-0.001090830782496456,0.005596969688094218,0.7268381796216239,1.611243803410767,0,0,0,0,0,0,1500,1500,1500,1500,1500,1500
1748735648.0614722,0.01,-0.03,0.05,-0.004363323129985824,-0.002181661564992912,-0.001090830782496456,0.005596969688094218,0.7268381796216239,1.611243803410767,0,0,0,0,0,0,1500,1500,1500,1500,1500,1500
1748735648.160245,0.0,0.0,0.01,-0.001090830782496456,0.0,0.003272492347489368,0.005596969688094218,0.7268381796216239,1.611243803410767,0,0,0,0,0,0,1500,1500,1500,1500,1500,1500
1748735648.261444,0.0,-0.01,0.0,0.001090830782496456,0.0,0.003272492347489368,0.005596969688094218,0.7268381796216239,1.611243803410767,0,0,0,0,0,0,1500,1500,1500,1500,1500,1500
1748735648.3621206,0.0,-0.01,0.0,0.001090830782496456,0.0,0.003272492347489368,0.005596969688094218,0.7268381796216239,1.611243803410767,0,0,0,0,0,0,1500,1500,1500,1500,1500,1500
1748735648.4443996,0.01,-0.01,0.0,0.002181661564992912,0.0,0.001090830782496456,0.005596969688094218,0.7268381796216239,1.611243803410767,0,0,0,0,0,0,1500,1500,1500,1500,1500,1500
1748735648.544197,0.01,-0.01,0.0,0.002181661564992912,0.0,0.001090830782496456,0.005596969688094218,0.7268381796216239,1.611243803410767,0,0,0,0,0,0,1500,1500,1500,1500,1500,1500
1748735648.644132,-0.01,-0.03,0.04,0.002181661564992912,-0.004363323129985824,0.0,0.005596969688094218,0.7268381796216239,1.611243803410767,0,0,0,0,0,0,1500,1500,1500,1500,1500,1500
1748735648.7282948,0.0,-0.03,0.03,0.0,-0.002181661564992912,0.001090830782496456,0.005596969688094218,0.7268381796216239,1.611243803410767,0,0,0,0,0,0,1500,1500,1500,1500,1500,1500
1748735648.8269823,0.0,-0.03,0.03,0.0,-0.002181661564992912,0.001090830782496456,0.005596969688094218,0.7268381796216239,1.611243803410767,0,0,0,0,0,0,1500,1500,1500,1500,1500,1500
1748735648.9281504,0.0,-0.01,0.02,0.0,0.003272492347489368,0.0,0.005596969688094218,0.7268381796216239,1.611243803410767,0,0,0,0,0,0,1500,1500,1500,1500,1500,1500
1748735649.0261092,0.0,0.0,0.03,0.003272492347489368,0.001090830782496456,0.0,0.005596969688094218,0.7268381796216239,1.611243803410767,0,0,0,0,0,0,1500,1500,1500,1500,1500,1500
1748735649.127798,0.0,0.0,0.03,0.003272492347489368,0.001090830782496456,0.0,0.005596969688094218,0.7268381796216239,1.611243803410767,0,0,0,0,0,0,1500,1500,1500,1500,1500,1500
1748735649.2116926,0.0,-0.03,0.07,-0.002181661564992912,-0.002181661564992912,0.0,0.005596969688094218,0.7268381796216239,1.611243803410767,0,0,0,0,0,0,1500,1500,1500,1500,1500,1500
1748735649.3120832,0.0,-0.03,0.07,-0.002181661564992912,-0.002181661564992912,0.0,0.005596969688094218,0.7268381796216239,1.611243803410767,0,0,0,0,0,0,1500,1500,1500,1500,1500,1500
1748735649.4115083,-0.01,0.0,0.04,0.002181661564992912,-0.001090830782496456,0.001090830782496456,0.005596969688094218,0.7268381796216239,1.611243803410767,0,0,0,0,0,0,1500,1500,1500,1500,1500,1500
1748735649.507931,-0.01,-0.02,0.04,-0.003272492347489368,0.002181661564992912,0.002181661564992912,0.005596969688094218,0.7268381796216239,1.611243803410767,0,0,0,0,0,0,1500,1500,1500,1500,1500,1500
1748735649.6108952,-0.01,-0.02,0.04,-0.003272492347489368,0.002181661564992912,0.002181661564992912,0.005596969688094218,0.7268381796216239,1.611243803410767,0,0,0,0,0,0,1500,1500,1500,1500,1500,1500
1748735649.6936944,0.0,-0.01,0.01,0.0,0.001090830782496456,0.001090830782496456,0.005596969688094218,0.7268381796216239,1.611243803410767,0,0,0,0,0,0,1500,1500,1500,1500,1500,1500
1748735649.7935236,0.0,-0.01,0.01,0.0,0.001090830782496456,0.001090830782496456,0.005596969688094218,0.7268381796216239,1.611243803410767,0,0,0,0,0,0,1500,1500,1500,1500,1500,1500
1748735649.894299,0.01,0.01,0.03,-0.003272492347489368,0.003272492347489368,0.001090830782496456,0.005596969688094218,0.7268381796216239,1.611243803410767,0,0,0,0,0,0,1500,1500,1500,1500,1500,1500
1748735649.977843,0.01,0.01,0.03,-0.003272492347489368,0.003272492347489368,0.001090830782496456,0.005596969688094218,0.7268381796216239,1.611243803410767,0,0,0,0,0,0,1500,1500,1500,1500,1500,1500
1748735650.0774312,0.01,-0.02,0.04,-0.001090830782496456,0.0,0.002181661564992912,0.005596969688094218,0.7268381796216239,1.611243803410767,0,0,0,0,0,0,1500,1500,1500,1500,1500,1500
1748735650.1780155,0.0,-0.01,0.04,-0.001090830782496456,0.001090830782496456,-0.002181661564992912,0.005596969688094218,0.7268381796216239,1.611243803410767,0,0,0,0,0,0,1500,1500,1500,1500,1500,1500
1748735650.2778292,0.0,-0.01,0.04,-0.001090830782496456,0.001090830782496456,-0.002181661564992912,0.005596969688094218,0.7268381796216239,1.611243803410767,0,0,0,0,0,0,1500,1500,1500,1500,1500,1500
1748735650.377401,0.0,-0.02,0.04,0.0,0.003272492347489368,0.002181661564992912,0.005596969688094218,0.7268381796216239,1.611243803410767,0,0,0,0,0,0,1500,1500,1500,1500,1500,1500
1748735650.460775,0.0,-0.04,0.06,0.001090830782496456,-0.002181661564992912,-0.002181661564992912,0.005596969688094218,0.7268381796216239,1.611243803410767,0,0,0,0,0,0,1500,1500,1500,1500,1500,1500
1748735650.5615563,0.0,-0.04,0.06,0.001090830782496456,-0.002181661564992912,-0.002181661564992912,0.005596969688094218,0.7268381796216239,1.611243803410767,0,0,0,0,0,0,1500,1500,1500,1500,1500,1500
1748735650.6613727,0.02,0.0,0.01,-0.001090830782496456,0.003272492347489368,0.0,0.005596969688094218,0.7268381796216239,1.611243803410767,0,0,0,0,0,0,1500,1500,1500,1500,1500,1500
1748735650.7614198,0.02,0.0,0.01,-0.001090830782496456,0.003272492347489368,0.0,0.005596969688094218,0.7268381796216239,1.611243803410767,0,0,0,0,0,0,1500,1500,1500,1500,1500,1500
1748735650.8612869,0.01,-0.02,0.06,0.001090830782496456,0.0,-0.002181661564992912,0.005596969688094218,0.7268381796216239,1.611243803410767,0,0,0,0,0,0,1500,1500,1500,1500,1500,1500
1748735650.9447553,0.01,0.0,0.03,0.0,0.001090830782496456,-0.001090830782496456,0.005596969688094218,0.7268381796216239,1.611243803410767,0,0,0,0,0,0,1500,1500,1500,1500,1500,1500
1748735651.0449693,0.01,0.0,0.03,0.0,0.001090830782496456,-0.001090830782496456,0.005596969688094218,0.7268381796216239,1.611243803410767,0,0,0,0,0,0,1500,1500,1500,1500,1500,1500
1748735651.144615,0.01,-0.03,0.02,-0.002181661564992912,0.001090830782496456,-0.002181661564992912,0.005596969688094218,0.7268381796216239,1.611243803410767,0,0,0,0,0,0,1500,1500,1500,1500,1500,1500
1748735651.2437108,0.01,-0.03,0.02,-0.002181661564992912,0.001090830782496456,-0.002181661564992912,0.005596969688094218,0.7268381796216239,1.611243803410767,0,0,0,0,0,0,1500,1500,1500,1500,1500,1500
1748735651.344576,0.0,-0.04,0.01,-0.001090830782496456,-0.001090830782496456,-0.001090830782496456,0.005596969688094218,0.7268381796216239,1.611243803410767,0,0,0,0,0,0,1500,1500,1500,1500,1500,1500
1748735651.4281101,0.01,0.02,0.03,0.003272492347489368,-0.001090830782496456,0.0,0.005596969688094218,0.7268381796216239,1.611243803410767,0,0,0,0,0,0,1500,1500,1500,1500,1500,1500
1748735651.527645,0.01,0.02,0.03,0.003272492347489368,-0.001090830782496456,0.0,0.005596969688094218,0.7268381796216239,1.611243803410767,0,0,0,0,0,0,1500,1500,1500,1500,1500,1500
1748735651.6285825,-0.01,-0.01,0.02,0.001090830782496456,0.0,0.0,0.005596969688094218,0.7268381796216239,1.611243803410767,0,0,0,0,0,0,1500,1500,1500,1500,1500,1500
1748735651.711623,-0.01,-0.01,0.02,0.001090830782496456,0.0,0.0,0.005596969688094218,0.7268381796216239,1.611243803410767,0,0,0,0,0,0,1500,1500,1500,1500,1500,1500
1748735651.811553,0.01,-0.01,0.04,-0.002181661564992912,0.0,0.0,0.005596969688094218,0.7268381796216239,1.611243803410767,0,0,0,0,0,0,1500,1500,1500,1500,1500,1500
1748735651.9116485,0.0,-0.02,0.01,0.0,-0.003272492347489368,0.001090830782496456,0.005596969688094218,0.7268381796216239,1.611243803410767,0,0,0,0,0,0,1500,1500,1500,1500,1500,1500
1748735652.0108545,0.0,-0.02,0.01,0.0,-0.003272492347489368,0.001090830782496456,0.005596969688094218,0.7268381796216239,1.611243803410767,0,0,0,0,0,0,1500,1500,1500,1500,1500,1500
1748735652.110409,0.01,-0.01,0.02,0.003272492347489368,0.0,0.0,0.005596969688094218,0.7268381796216239,1.611243803410767,0,0,0,0,0,0,1500,1500,1500,1500,1500,1500
1748735652.193763,0.01,-0.01,0.02,0.003272492347489368,0.0,0.0,0.005596969688094218,0.7268381796216239,1.611243803410767,0,0,0,0,0,0,1500,1500,1500,1500,1500,1500
1748735652.2950995,0.01,0.01,0.0,-0.002181661564992912,-0.003272492347489368,-0.001090830782496456,0.005596969688094218,0.7268381796216239,1.611243803410767,0,0,0,0,0,0,1500,1500,1500,1500,1500,1500
1748735652.3945014,0.02,0.01,0.02,0.001090830782496456,0.002181661564992912,-0.002181661564992912,0.005596969688094218,0.7268381796216239,1.611243803410767,0,0,0,0,0,0,1500,1500,1500,1500,1500,1500
1748735652.4774985,0.02,0.01,0.02,0.001090830782496456,0.002181661564992912,-0.002181661564992912,0.005596969688094218,0.7268381796216239,1.611243803410767,0,0,0,0,0,0,1500,1500,1500,1500,1500,1500
1748735652.5773976,0.0,0.0,0.03,0.002181661564992912,-0.004363323129985824,-0.001090830782496456,0.005596969688094218,0.7268381796216239,1.611243803410767,0,0,0,0,0,0,1500,1500,1500,1500,1500,1500
1748735652.662232,0.0,0.0,0.03,0.002181661564992912,-0.004363323129985824,-0.001090830782496456,0.005596969688094218,0.7268381796216239,1.611243803410767,0,0,0,0,0,0,1500,1500,1500,1500,1500,1500
1748735652.760692,-0.01,-0.02,0.02,0.001090830782496456,0.002181661564992912,0.0,0.005596969688094218,0.7268381796216239,1.611243803410767,0,0,0,0,0,0,1500,1500,1500,1500,1500,1500
1748735652.8512237,0.01,-0.01,0.04,0.0,0.001090830782496456,0.0,0.005596969688094218,0.7268381796216239,1.611243803410767,0,0,0,0,0,0,1500,1500,1500,1500,1500,1500
1748735652.9442773,0.01,-0.01,0.04,0.0,0.001090830782496456,0.0,0.005596969688094218,0.7268381796216239,1.611243803410767,0,0,0,0,0,0,1500,1500,1500,1500,1500,1500
1748735653.0441892,0.03,0.0,0.01,0.002181661564992912,-0.001090830782496456,-0.001090830782496456,0.005596969688094218,0.7268381796216239,1.611243803410767,0,0,0,0,0,0,1500,1500,1500,1500,1500,1500
1748735653.145205,0.03,0.0,0.01,0.002181661564992912,-0.001090830782496456,-0.001090830782496456,0.005596969688094218,0.7268381796216239,1.611243803410767,0,0,0,0,0,0,1500,1500,1500,1500,1500,1500
1748735653.2442982,0.0,-0.02,0.05,0.0,-0.001090830782496456,0.0,0.005596969688094218,0.7268381796216239,1.611243803410767,0,0,0,0,0,0,1500,1500,1500,1500,1500,1500
1748735653.3444028,0.0,-0.04,0.07,-0.002181661564992912,0.0,0.0,0.005596969688094218,0.7268381796216239,1.611243803410767,0,0,0,0,0,0,1500,1500,1500,1500,1500,1500
1748735653.4448154,0.0,-0.04,0.07,-0.002181661564992912,0.0,0.0,0.005596969688094218,0.7268381796216239,1.611243803410767,0,0,0,0,0,0,1500,1500,1500,1500,1500,1500
1748735653.5439208,0.01,-0.01,0.01,0.0,-0.003272492347489368,-0.001090830782496456,0.005596969688094218,0.7268381796216239,1.611243803410767,0,0,0,0,0,0,1500,1500,1500,1500,1500,1500
1748735653.642964,0.01,0.0,0.03,0.001090830782496456,0.001090830782496456,0.003272492347489368,0.005596969688094218,0.7268381796216239,1.611243803410767,0,0,0,0,0,0,1500,1500,1500,1500,1500,1500
1748735653.7273843,0.01,0.0,0.03,0.001090830782496456,0.001090830782496456,0.003272492347489368,0.005596969688094218,0.7268381796216239,1.611243803410767,0,0,0,0,0,0,1500,1500,1500,1500,1500,1500
1748735653.82746,0.0,0.01,0.02,-0.003272492347489368,0.001090830782496456,0.001090830782496456,0.005596969688094218,0.7268381796216239,1.611243803410767,0,0,0,0,0,0,1500,1500,1500,1500,1500,1500
1748735653.9268634,0.0,0.01,0.02,-0.003272492347489368,0.001090830782496456,0.001090830782496456,0.005596969688094218,0.7268381796216239,1.611243803410767,0,0,0,0,0,0,1500,1500,1500,1500,1500,1500
1748735654.0275574,0.0,-0.01,0.03,-0.001090830782496456,0.0,0.001090830782496456,0.005596969688094218,0.7268381796216239,1.611243803410767,0,0,0,0,0,0,1500,1500,1500,1500,1500,1500
1748735654.1170044,0.0,-0.03,0.03,-0.004363323129985824,-0.003272492347489368,0.0,0.005596969688094218,0.7268381796216239,1.611243803410767,0,0,0,0,0,0,1500,1500,1500,1500,1500,1500
1748735654.2115626,0.0,-0.03,0.03,-0.004363323129985824,-0.003272492347489368,0.0,0.005596969688094218,0.7268381796216239,1.611243803410767,0,0,0,0,0,0,1500,1500,1500,1500,1500,1500
1748735654.3113291,0.0,-0.01,0.03,0.001090830782496456,-0.002181661564992912,0.0,0.005596969688094218,0.7268381796216239,1.611243803410767,0,0,0,0,0,0,1500,1500,1500,1500,1500,1500
1748735654.4112399,0.0,-0.01,0.03,0.001090830782496456,-0.002181661564992912,0.0,0.005596969688094218,0.7268381796216239,1.611243803410767,0,0,0,0,0,0,1500,1500,1500,1500,1500,1500
1748735654.5807629,0.0,-0.02,0.01,-0.002181661564992912,0.003272492347489368,0.0,0.005596969688094218,0.7268381796216239,1.611243803410767,0,0,0,0,0,0,1500,1500,1500,1500,1500,1500
1748735654.6647148,0.01,-0.01,-0.01,-0.001090830782496456,0.003272492347489368,-0.002181661564992912,0.005596969688094218,0.7268381796216239,1.611243803410767,0,0,0,0,0,0,1500,1500,1500,1500,1500,1500
1748735654.7645936,0.0,-0.04,0.04,0.0,0.001090830782496456,0.001090830782496456,0.005596969688094218,0.7268381796216239,1.611243803410767,0,0,0,0,0,0,1500,1500,1500,1500,1500,1500
1748735654.8616464,0.0,-0.04,0.04,0.0,0.001090830782496456,0.001090830782496456,0.005596969688094218,0.7268381796216239,1.611243803410767,0,0,0,0,0,0,1500,1500,1500,1500,1500,1500
1748735654.9453735,0.0,-0.02,0.03,0.0,0.002181661564992912,-0.001090830782496456,0.005596969688094218,0.7268381796216239,1.611243803410767,0,0,0,0,0,0,1500,1500,1500,1500,1500,1500
1748735655.044868,0.0,-0.02,0.03,0.0,0.002181661564992912,-0.001090830782496456,0.005596969688094218,0.7268381796216239,1.611243803410767,0,0,0,0,0,0,1500,1500,1500,1500,1500,1500
1748735655.1451197,0.0,0.01,0.02,-0.001090830782496456,0.00545415391248228,0.001090830782496456,0.005596969688094218,0.7268381796216239,1.611243803410767,0,0,0,0,0,0,1500,1500,1500,1500,1500,1500
1748735655.245816,0.0,-0.01,0.04,0.0,-0.004363323129985824,0.002181661564992912,0.005596969688094218,0.7268381796216239,1.611243803410767,0,0,0,0,0,0,1500,1500,1500,1500,1500,1500
1748735655.343874,0.0,-0.01,0.04,0.0,-0.004363323129985824,0.002181661564992912,0.005596969688094218,0.7268381796216239,1.611243803410767,0,0,0,0,0,0,1500,1500,1500,1500,1500,1500
1748735655.427219,0.0,0.0,0.04,0.003272492347489368,0.003272492347489368,0.001090830782496456,0.005596969688094218,0.7268381796216239,1.611243803410767,0,0,0,0,0,0,1500,1500,1500,1500,1500,1500
1748735655.5273652,0.0,0.0,0.04,0.003272492347489368,0.003272492347489368,0.001090830782496456,0.005596969688094218,0.7268381796216239,1.611243803410767,0,0,0,0,0,0,1500,1500,1500,1500,1500,1500
1748735655.6270187,0.0,-0.02,0.03,0.002181661564992912,-0.002181661564992912,-0.002181661564992912,0.005596969688094218,0.7268381796216239,1.611243803410767,0,0,0,0,0,0,1500,1500,1500,1500,1500,1500
1748735655.7104871,0.02,-0.03,0.05,0.004363323129985824,-0.003272492347489368,-0.001090830782496456,0.005596969688094218,0.7268381796216239,1.611243803410767,0,0,0,0,0,0,1500,1500,1500,1500,1500,1500
1748735655.8102207,0.02,-0.03,0.05,0.004363323129985824,-0.003272492347489368,-0.001090830782496456,0.005596969688094218,0.7268381796216239,1.611243803410767,0,0,0,0,0,0,1500,1500,1500,1500,1500,1500
1748735655.9118385,0.01,0.0,0.04,0.002181661564992912,-0.001090830782496456,0.001090830782496456,0.005596969688094218,0.7268381796216239,1.611243803410767,0,0,0,0,0,0,1500,1500,1500,1500,1500,1500
1748735656.010159,0.01,0.0,0.04,0.002181661564992912,-0.001090830782496456,0.001090830782496456,0.005596969688094218,0.7268381796216239,1.611243803410767,0,0,0,0,0,0,1500,1500,1500,1500,1500,1500
1748735656.110145,0.01,0.01,0.04,0.002181661564992912,0.002181661564992912,0.001090830782496456,0.005596969688094218,0.7268381796216239,1.611243803410767,0,0,0,0,0,0,1500,1500,1500,1500,1500,1500
1748735656.1948192,-0.01,-0.04,0.06,0.001090830782496456,0.0,-0.002181661564992912,0.005596969688094218,0.7268381796216239,1.611243803410767,0,0,0,0,0,0,1500,1500,1500,1500,1500,1500
1748735656.294005,-0.01,-0.04,0.06,0.001090830782496456,0.0,-0.002181661564992912,0.005596969688094218,0.7268381796216239,1.611243803410767,0,0,0,0,0,0,1500,1500,1500,1500,1500,1500
1748735656.3935223,0.0,-0.03,0.01,0.001090830782496456,0.0,0.002181661564992912,0.005596969688094218,0.7268381796216239,1.611243803410767,0,0,0,0,0,0,1500,1500,1500,1500,1500,1500
1748735656.4771876,0.0,-0.03,0.01,0.001090830782496456,0.0,0.002181661564992912,0.005596969688094218,0.7268381796216239,1.611243803410767,0,0,0,0,0,0,1500,1500,1500,1500,1500,1500
1748735656.5767229,0.0,0.02,0.01,0.0,-0.003272492347489368,-0.001090830782496456,0.005596969688094218,0.7268381796216239,1.611243803410767,0,0,0,0,0,0,1500,1500,1500,1500,1500,1500
1748735656.6763074,0.0,0.0,0.04,0.0,0.004363323129985824,0.0,0.005596969688094218,0.7268381796216239,1.611243803410767,0,0,0,0,0,0,1500,1500,1500,1500,1500,1500
1748735656.7776258,0.0,0.0,0.04,0.0,0.004363323129985824,0.0,0.005596969688094218,0.7268381796216239,1.611243803410767,0,0,0,0,0,0,1500,1500,1500,1500,1500,1500
1748735656.8782976,0.0,-0.04,0.04,0.002181661564992912,0.001090830782496456,-0.001090830782496456,0.005596969688094218,0.7268381796216239,1.611243803410767,0,0,0,0,0,0,1500,1500,1500,1500,1500,1500
1748735656.9606519,0.0,-0.04,0.04,0.002181661564992912,0.001090830782496456,-0.001090830782496456,0.005596969688094218,0.7268381796216239,1.611243803410767,0,0,0,0,0,0,1500,1500,1500,1500,1500,1500
1748735657.0601637,0.03,-0.02,0.05,-0.001090830782496456,0.001090830782496456,0.0,0.005596969688094218,0.7268381796216239,1.611243803410767,0,0,0,0,0,0,1500,1500,1500,1500,1500,1500
1748735657.1616108,-0.01,0.0,0.02,0.003272492347489368,0.0,0.0,0.005596969688094218,0.7268381796216239,1.611243803410767,0,0,0,0,0,0,1500,1500,1500,1500,1500,1500
1748735657.2603269,-0.01,0.0,0.02,0.003272492347489368,0.0,0.0,0.005596969688094218,0.7268381796216239,1.611243803410767,0,0,0,0,0,0,1500,1500,1500,1500,1500,1500
1748735657.3601658,0.0,0.0,0.01,-0.001090830782496456,0.001090830782496456,-0.002181661564992912,0.005596969688094218,0.7268381796216239,1.611243803410767,0,0,0,0,0,0,1500,1500,1500,1500,1500,1500
1748735657.445353,0.02,0.01,0.02,0.002181661564992912,0.00545415391248228,0.0,0.005596969688094218,0.7268381796216239,1.611243803410767,0,0,0,0,0,0,1500,1500,1500,1500,1500,1500
1748735657.5425658,0.02,0.01,0.02,0.002181661564992912,0.00545415391248228,0.0,0.005596969688094218,0.7268381796216239,1.611243803410767,0,0,0,0,0,0,1500,1500,1500,1500,1500,1500
1748735657.6437364,0.0,0.0,0.0,0.002181661564992912,-0.004363323129985824,0.0,0.005596969688094218,0.7268381796216239,1.611243803410767,0,0,0,0,0,0,1500,1500,1500,1500,1500,1500
1748735657.726941,0.0,0.0,0.0,0.002181661564992912,-0.004363323129985824,0.0,0.005596969688094218,0.7268381796216239,1.611243803410767,0,0,0,0,0,0,1500,1500,1500,1500,1500,1500
1748735657.8276248,0.0,-0.02,0.03,0.001090830782496456,0.003272492347489368,0.0,0.005596969688094218,0.7268381796216239,1.611243803410767,0,0,0,0,0,0,1500,1500,1500,1500,1500,1500
1748735657.9218516,0.01,-0.04,0.06,-0.004363323129985824,0.002181661564992912,0.001090830782496456,0.005596969688094218,0.7268381796216239,1.611243803410767,0,0,0,0,0,0,1500,1500,1500,1500,1500,1500
1748735658.0104144,0.01,-0.04,0.06,-0.004363323129985824,0.002181661564992912,0.001090830782496456,0.005596969688094218,0.7268381796216239,1.611243803410767,0,0,0,0,0,0,1500,1500,1500,1500,1500,1500
1748735658.1102564,0.02,-0.01,0.03,-0.003272492347489368,-0.004363323129985824,0.002181661564992912,0.005596969688094218,0.7268381796216239,1.611243803410767,0,0,0,0,0,0,1500,1500,1500,1500,1500,1500
1748735658.1929986,0.02,-0.01,0.03,-0.003272492347489368,-0.004363323129985824,0.002181661564992912,0.005596969688094218,0.7268381796216239,1.611243803410767,0,0,0,0,0,0,1500,1500,1500,1500,1500,1500
1748735658.2937086,0.01,0.01,0.01,-0.001090830782496456,-0.001090830782496456,0.0,0.005596969688094218,0.7268381796216239,1.611243803410767,0,0,0,0,0,0,1500,1500,1500,1500,1500,1500
1748735658.3935635,0.01,0.01,0.01,-0.001090830782496456,-0.001090830782496456,0.0,0.005596969688094218,0.7268381796216239,1.611243803410767,0,0,0,0,0,0,1500,1500,1500,1500,1500,1500
1748735658.4769094,0.0,-0.01,0.03,0.0,0.003272492347489368,-0.001090830782496456,0.005596969688094218,0.7268381796216239,1.611243803410767,0,0,0,0,0,0,1500,1500,1500,1500,1500,1500
1748735658.5771968,0.02,-0.04,0.03,0.0,0.0,0.003272492347489368,0.005596969688094218,0.7268381796216239,1.611243803410767,0,0,0,0,0,0,1500,1500,1500,1500,1500,1500
1748735658.6770227,0.02,-0.04,0.03,0.0,0.0,0.003272492347489368,0.005596969688094218,0.7268381796216239,1.611243803410767,0,0,0,0,0,0,1500,1500,1500,1500,1500,1500
1748735658.7767055,0.02,0.02,0.02,0.004363323129985824,0.0,0.001090830782496456,0.005596969688094218,0.7268381796216239,1.611243803410767,0,0,0,0,0,0,1500,1500,1500,1500,1500,1500
1748735658.871535,0.01,-0.02,0.06,-0.001090830782496456,0.0,-0.001090830782496456,0.005596969688094218,0.7268381796216239,1.611243803410767,0,0,0,0,0,0,1500,1500,1500,1500,1500,1500
1748735658.9590487,0.01,-0.02,0.06,-0.001090830782496456,0.0,-0.001090830782496456,0.005596969688094218,0.7268381796216239,1.611243803410767,0,0,0,0,0,0,1500,1500,1500,1500,1500,1500
1748735659.0603852,0.01,-0.01,0.02,-0.001090830782496456,-0.003272492347489368,-0.001090830782496456,0.005596969688094218,0.7268381796216239,1.611243803410767,0,0,0,0,0,0,1500,1500,1500,1500,1500,1500
1748735659.1602225,0.01,-0.01,0.02,-0.001090830782496456,-0.003272492347489368,-0.001090830782496456,0.005596969688094218,0.7268381796216239,1.611243803410767,0,0,0,0,0,0,1500,1500,1500,1500,1500,1500
1748735659.2593346,0.01,-0.02,0.02,-0.003272492347489368,0.0,-0.001090830782496456,0.005596969688094218,0.7268381796216239,1.611243803410767,0,0,0,0,0,0,1500,1500,1500,1500,1500,1500
1748735659.360936,0.02,-0.01,0.0,0.002181661564992912,0.0,0.001090830782496456,0.005596969688094218,0.7268381796216239,1.611243803410767,0,0,0,0,0,0,1500,1500,1500,1500,1500,1500
1748735659.4434314,0.02,-0.01,0.0,0.002181661564992912,0.0,0.001090830782496456,0.005596969688094218,0.7268381796216239,1.611243803410767,0,0,0,0,0,0,1500,1500,1500,1500,1500,1500
1748735659.5441265,0.01,0.0,0.0,-0.002181661564992912,-0.002181661564992912,0.001090830782496456,0.005596969688094218,0.7268381796216239,1.611243803410767,0,0,0,0,0,0,1500,1500,1500,1500,1500,1500
1748735659.6436706,0.01,0.0,0.0,-0.002181661564992912,-0.002181661564992912,0.001090830782496456,0.005596969688094218,0.7268381796216239,1.611243803410767,0,0,0,0,0,0,1500,1500,1500,1500,1500,1500
1748735659.7264874,0.02,0.0,0.04,-0.002181661564992912,-0.001090830782496456,0.002181661564992912,0.005596969688094218,0.7268381796216239,1.611243803410767,0,0,0,0,0,0,1500,1500,1500,1500,1500,1500
1748735659.822309,0.0,-0.01,0.02,0.0,0.00545415391248228,0.0,0.005596969688094218,0.7268381796216239,1.611243803410767,0,0,0,0,0,0,1500,1500,1500,1500,1500,1500
1748735659.927554,0.0,-0.01,0.02,0.0,0.00545415391248228,0.0,0.005596969688094218,0.7268381796216239,1.611243803410767,0,0,0,0,0,0,1500,1500,1500,1500,1500,1500
1748735660.027337,0.0,-0.03,0.03,0.001090830782496456,-0.00545415391248228,0.002181661564992912,0.005596969688094218,0.7268381796216239,1.611243803410767,0,0,0,0,0,0,1500,1500,1500,1500,1500,1500
1748735660.1272037,0.0,-0.03,0.03,0.001090830782496456,-0.00545415391248228,0.002181661564992912,0.005596969688094218,0.7268381796216239,1.611243803410767,0,0,0,0,0,0,1500,1500,1500,1500,1500,1500
1748735660.2115288,0.01,0.0,0.01,-0.001090830782496456,0.001090830782496456,0.0,0.005596969688094218,0.7268381796216239,1.611243803410767,0,0,0,0,0,0,1500,1500,1500,1500,1500,1500
1748735660.3101115,0.0,-0.01,0.01,0.002181661564992912,0.0,0.0,0.005596969688094218,0.7268381796216239,1.611243803410767,0,0,0,0,0,0,1500,1500,1500,1500,1500,1500
1748735660.4101176,0.0,-0.01,0.01,0.002181661564992912,0.0,0.0,0.005596969688094218,0.7268381796216239,1.611243803410767,0,0,0,0,0,0,1500,1500,1500,1500,1500,1500
1748735660.4935236,0.01,-0.03,0.05,0.001090830782496456,-0.003272492347489368,-0.001090830782496456,0.005596969688094218,0.7268381796216239,1.611243803410767,0,0,0,0,0,0,1500,1500,1500,1500,1500,1500
1748735660.5935173,0.01,-0.03,0.05,0.001090830782496456,-0.003272492347489368,-0.001090830782496456,0.005596969688094218,0.7268381796216239,1.611243803410767,0,0,0,0,0,0,1500,1500,1500,1500,1500,1500
1748735660.6922565,0.01,-0.04,0.02,0.001090830782496456,-0.001090830782496456,-0.002181661564992912,0.005596969688094218,0.7268381796216239,1.611243803410767,0,0,0,0,0,0,1500,1500,1500,1500,1500,1500
1748735660.7964664,0.01,-0.03,0.05,0.002181661564992912,0.003272492347489368,0.002181661564992912,0.005596969688094218,0.7268381796216239,1.611243803410767,0,0,0,0,0,0,1500,1500,1500,1500,1500,1500
1748735660.8938103,0.01,-0.03,0.05,0.002181661564992912,0.003272492347489368,0.002181661564992912,0.005596969688094218,0.7268381796216239,1.611243803410767,0,0,0,0,0,0,1500,1500,1500,1500,1500,1500
1748735660.9773135,0.0,0.0,0.0,0.0,-0.001090830782496456,-0.001090830782496456,0.005596969688094218,0.7268381796216239,1.611243803410767,0,0,0,0,0,0,1500,1500,1500,1500,1500,1500
1748735661.0780604,0.0,0.0,0.0,0.0,-0.001090830782496456,-0.001090830782496456,0.005596969688094218,0.7268381796216239,1.611243803410767,0,0,0,0,0,0,1500,1500,1500,1500,1500,1500
1748735661.1777928,0.01,0.0,0.03,-0.002181661564992912,0.001090830782496456,-0.001090830782496456,0.005596969688094218,0.7268381796216239,1.611243803410767,0,0,0,0,0,0,1500,1500,1500,1500,1500,1500
1748735661.2764077,0.0,-0.04,0.01,-0.002181661564992912,-0.001090830782496456,-0.002181661564992912,0.005596969688094218,0.7268381796216239,1.611243803410767,0,0,0,0,0,0,1500,1500,1500,1500,1500,1500
1748735661.3760657,0.0,-0.04,0.01,-0.002181661564992912,-0.001090830782496456,-0.002181661564992912,0.005596969688094218,0.7268381796216239,1.611243803410767,0,0,0,0,0,0,1500,1500,1500,1500,1500,1500
1748735661.4603245,0.0,-0.01,0.02,0.003272492347489368,-0.002181661564992912,-0.002181661564992912,0.005596969688094218,0.7268381796216239,1.611243803410767,0,0,0,0,0,0,1500,1500,1500,1500,1500,1500
1748735661.5595899,0.0,-0.01,0.02,0.003272492347489368,-0.002181661564992912,-0.002181661564992912,0.005596969688094218,0.7268381796216239,1.611243803410767,0,0,0,0,0,0,1500,1500,1500,1500,1500,1500
1748735661.6586585,0.0,0.0,0.03,-0.001090830782496456,0.002181661564992912,0.0,0.005596969688094218,0.7268381796216239,1.611243803410767,0,0,0,0,0,0,1500,1500,1500,1500,1500,1500
1748735661.7435539,0.0,0.0,0.02,0.002181661564992912,-0.001090830782496456,-0.001090830782496456,0.005596969688094218,0.7268381796216239,1.611243803410767,0,0,0,0,0,0,1500,1500,1500,1500,1500,1500
1748735661.8434253,0.0,0.0,0.02,0.002181661564992912,-0.001090830782496456,-0.001090830782496456,0.005596969688094218,0.7268381796216239,1.611243803410767,0,0,0,0,0,0,1500,1500,1500,1500,1500,1500
1748735661.9433165,0.0,-0.01,0.04,0.001090830782496456,0.0,0.001090830782496456,0.005596969688094218,0.7268381796216239,1.611243803410767,0,0,0,0,0,0,1500,1500,1500,1500,1500,1500
1748735662.0414908,0.01,-0.02,0.02,0.001090830782496456,-0.001090830782496456,0.001090830782496456,0.005596969688094218,0.7268381796216239,1.611243803410767,0,0,0,0,0,0,1500,1500,1500,1500,1500,1500
1748735662.143286,0.01,-0.02,0.02,0.001090830782496456,-0.001090830782496456,0.001090830782496456,0.005596969688094218,0.7268381796216239,1.611243803410767,0,0,0,0,0,0,1500,1500,1500,1500,1500,1500
1748735662.2269366,0.01,0.0,0.01,-0.001090830782496456,0.003272492347489368,0.002181661564992912,0.005596969688094218,0.7268381796216239,1.611243803410767,0,0,0,0,0,0,1500,1500,1500,1500,1500,1500
1748735662.3271658,0.01,0.0,0.01,-0.001090830782496456,0.003272492347489368,0.002181661564992912,0.005596969688094218,0.7268381796216239,1.611243803410767,0,0,0,0,0,0,1500,1500,1500,1500,1500,1500
1748735662.4259791,0.0,0.01,0.01,0.003272492347489368,0.001090830782496456,0.001090830782496456,0.005596969688094218,0.7268381796216239,1.611243803410767,0,0,0,0,0,0,1500,1500,1500,1500,1500,1500
1748735662.526621,0.0,0.01,0.01,0.002181661564992912,0.003272492347489368,-0.002181661564992912,0.005596969688094218,0.7268381796216239,1.611243803410767,0,0,0,0,0,0,1500,1500,1500,1500,1500,1500
1748735662.6257095,0.0,0.01,0.01,0.002181661564992912,0.003272492347489368,-0.002181661564992912,0.005596969688094218,0.7268381796216239,1.611243803410767,0,0,0,0,0,0,1500,1500,1500,1500,1500,1500
1748735662.710401,0.01,-0.01,0.06,-0.001090830782496456,0.001090830782496456,0.0,0.005596969688094218,0.7268381796216239,1.611243803410767,0,0,0,0,0,0,1500,1500,1500,1500,1500,1500
1748735662.8103204,0.01,-0.01,0.06,-0.001090830782496456,0.001090830782496456,0.0,0.005596969688094218,0.7268381796216239,1.611243803410767,0,0,0,0,0,0,1500,1500,1500,1500,1500,1500
1748735662.9091415,0.02,-0.04,0.02,0.0,0.002181661564992912,0.0,0.005596969688094218,0.7268381796216239,1.611243803410767,0,0,0,0,0,0,1500,1500,1500,1500,1500,1500
1748735662.9914422,0.03,-0.01,0.0,0.003272492347489368,0.004363323129985824,0.001090830782496456,0.005596969688094218,0.7268381796216239,1.611243803410767,0,0,0,0,0,0,1500,1500,1500,1500,1500,1500
1748735663.092563,0.03,-0.01,0.0,0.003272492347489368,0.004363323129985824,0.001090830782496456,0.005596969688094218,0.7268381796216239,1.611243803410767,0,0,0,0,0,0,1500,1500,1500,1500,1500,1500
1748735663.193518,0.0,0.0,0.0,-0.002181661564992912,-0.003272492347489368,0.0,0.005596969688094218,0.7268381796216239,1.611243803410767,0,0,0,0,0,0,1500,1500,1500,1500,1500,1500
1748735663.2922752,0.0,0.0,0.0,-0.002181661564992912,-0.003272492347489368,0.0,0.005596969688094218,0.7268381796216239,1.611243803410767,0,0,0,0,0,0,1500,1500,1500,1500,1500,1500
1748735663.392268,0.01,-0.02,0.02,0.001090830782496456,0.001090830782496456,0.001090830782496456,0.005596969688094218,0.7268381796216239,1.611243803410767,0,0,0,0,0,0,1500,1500,1500,1500,1500,1500
1748735663.476822,0.0,-0.05,0.06,-0.003272492347489368,0.0,0.002181661564992912,0.005596969688094218,0.7268381796216239,1.611243803410767,0,0,0,0,0,0,1500,1500,1500,1500,1500,1500
1748735663.575971,0.0,-0.05,0.06,-0.003272492347489368,0.0,0.002181661564992912,0.005596969688094218,0.7268381796216239,1.611243803410767,0,0,0,0,0,0,1500,1500,1500,1500,1500,1500
1748735663.675574,-0.01,-0.05,0.05,-0.004363323129985824,-0.001090830782496456,0.001090830782496456,0.005596969688094218,0.7268381796216239,1.611243803410767,0,0,0,0,0,0,1500,1500,1500,1500,1500,1500
1748735663.7595344,-0.01,-0.05,0.05,-0.004363323129985824,-0.001090830782496456,0.001090830782496456,0.005596969688094218,0.7268381796216239,1.611243803410767,0,0,0,0,0,0,1500,1500,1500,1500,1500,1500
1748735663.8591425,0.0,0.0,0.01,0.0,-0.002181661564992912,-0.002181661564992912,0.005596969688094218,0.7268381796216239,1.611243803410767,0,0,0,0,0,0,1500,1500,1500,1500,1500,1500
1748735663.9427292,0.01,-0.01,0.02,0.003272492347489368,0.001090830782496456,-0.001090830782496456,0.005596969688094218,0.7268381796216239,1.611243803410767,0,0,0,0,0,0,1500,1500,1500,1500,1500,1500
1748735664.042138,0.01,-0.01,0.02,0.003272492347489368,0.001090830782496456,-0.001090830782496456,0.005596969688094218,0.7268381796216239,1.611243803410767,0,0,0,0,0,0,1500,1500,1500,1500,1500,1500
1748735664.143626,-0.01,-0.03,0.01,0.0,0.001090830782496456,-0.001090830782496456,0.005596969688094218,0.7268381796216239,1.611243803410767,0,0,0,0,0,0,1500,1500,1500,1500,1500,1500
1748735664.2266939,-0.01,-0.03,0.01,0.0,0.001090830782496456,-0.001090830782496456,0.005596969688094218,0.7268381796216239,1.611243803410767,0,0,0,0,0,0,1500,1500,1500,1500,1500,1500
1748735664.3267965,0.01,-0.05,0.04,-0.001090830782496456,0.0,0.002181661564992912,0.005596969688094218,0.7268381796216239,1.611243803410767,0,0,0,0,0,0,1500,1500,1500,1500,1500,1500
1748735664.420216,0.02,-0.02,0.04,-0.001090830782496456,-0.003272492347489368,0.001090830782496456,0.005596969688094218,0.7268381796216239,1.611243803410767,0,0,0,0,0,0,1500,1500,1500,1500,1500,1500
1748735664.5094252,0.02,-0.02,0.04,-0.001090830782496456,-0.003272492347489368,0.001090830782496456,0.005596969688094218,0.7268381796216239,1.611243803410767,0,0,0,0,0,0,1500,1500,1500,1500,1500,1500
1748735664.6088889,0.0,0.0,0.0,-0.001090830782496456,0.002181661564992912,-0.001090830782496456,0.005596969688094218,0.7268381796216239,1.611243803410767,0,0,0,0,0,0,1500,1500,1500,1500,1500,1500
1748735664.6931028,0.0,0.0,0.0,-0.001090830782496456,0.002181661564992912,-0.001090830782496456,0.005596969688094218,0.7268381796216239,1.611243803410767,0,0,0,0,0,0,1500,1500,1500,1500,1500,1500
1748735664.7929678,0.0,0.0,0.07,-0.00545415391248228,0.0,0.002181661564992912,0.005596969688094218,0.7268381796216239,1.611243803410767,0,0,0,0,0,0,1500,1500,1500,1500,1500,1500
1748735664.8911693,0.0,-0.05,0.07,0.0,0.0,0.001090830782496456,0.005596969688094218,0.7268381796216239,1.611243803410767,0,0,0,0,0,0,1500,1500,1500,1500,1500,1500
1748735664.975777,0.0,-0.05,0.07,0.0,0.0,0.001090830782496456,0.005596969688094218,0.7268381796216239,1.611243803410767,0,0,0,0,0,0,1500,1500,1500,1500,1500,1500
1748735665.075902,0.0,-0.01,0.02,-0.001090830782496456,0.0,0.001090830782496456,0.005596969688094218,0.7268381796216239,1.611243803410767,0,0,0,0,0,0,1500,1500,1500,1500,1500,1500
1748735665.1761737,0.0,-0.01,0.02,-0.001090830782496456,0.0,0.001090830782496456,0.005596969688094218,0.7268381796216239,1.611243803410767,0,0,0,0,0,0,1500,1500,1500,1500,1500,1500
1748735665.275349,0.0,0.01,0.0,0.002181661564992912,0.004363323129985824,0.0,0.005596969688094218,0.7268381796216239,1.611243803410767,0,0,0,0,0,0,1500,1500,1500,1500,1500,1500
1748735665.3736389,0.0,0.0,0.03,0.002181661564992912,-0.001090830782496456,0.002181661564992912,0.005596969688094218,0.7268381796216239,1.611243803410767,0,0,0,0,0,0,1500,1500,1500,1500,1500,1500
1748735665.4587746,0.0,0.0,0.03,0.002181661564992912,-0.001090830782496456,0.002181661564992912,0.005596969688094218,0.7268381796216239,1.611243803410767,0,0,0,0,0,0,1500,1500,1500,1500,1500,1500
1748735665.559306,0.0,-0.02,0.05,-0.002181661564992912,-0.001090830782496456,0.0,0.005596969688094218,0.7268381796216239,1.611243803410767,0,0,0,0,0,0,1500,1500,1500,1500,1500,1500
1748735665.6614208,0.0,-0.02,0.05,-0.002181661564992912,-0.001090830782496456,0.0,0.005596969688094218,0.7268381796216239,1.611243803410767,0,0,0,0,0,0,1500,1500,1500,1500,1500,1500
1748735665.7594638,0.01,-0.01,0.04,-0.001090830782496456,0.004363323129985824,0.0,0.005596969688094218,0.7268381796216239,1.611243803410767,0,0,0,0,0,0,1500,1500,1500,1500,1500,1500
1748735665.859622,0.01,-0.01,0.0,-0.003272492347489368,-0.002181661564992912,0.002181661564992912,0.005596969688094218,0.7268381796216239,1.611243803410767,0,0,0,0,0,0,1500,1500,1500,1500,1500,1500
1748735665.9602325,0.01,-0.01,0.0,-0.003272492347489368,-0.002181661564992912,0.002181661564992912,0.005596969688094218,0.7268381796216239,1.611243803410767,0,0,0,0,0,0,1500,1500,1500,1500,1500,1500
1748735666.0587208,0.01,0.0,0.0,0.001090830782496456,0.0,0.0,0.005596969688094218,0.7268381796216239,1.611243803410767,0,0,0,0,0,0,1500,1500,1500,1500,1500,1500
1748735666.1597066,0.01,0.0,0.0,0.001090830782496456,0.0,0.0,0.005596969688094218,0.7268381796216239,1.611243803410767,0,0,0,0,0,0,1500,1500,1500,1500,1500,1500
1748735666.2433689,0.02,-0.03,0.04,-0.002181661564992912,0.0,0.0,0.005596969688094218,0.7268381796216239,1.611243803410767,0,0,0,0,0,0,1500,1500,1500,1500,1500,1500
1748735666.3429859,0.0,-0.03,0.03,-0.002181661564992912,0.0,0.001090830782496456,0.005596969688094218,0.7268381796216239,1.611243803410767,0,0,0,0,0,0,1500,1500,1500,1500,1500,1500
1748735666.4422128,0.0,-0.03,0.03,-0.002181661564992912,0.0,0.001090830782496456,0.005596969688094218,0.7268381796216239,1.611243803410767,0,0,0,0,0,0,1500,1500,1500,1500,1500,1500
1748735666.5424836,-0.01,-0.01,0.05,0.003272492347489368,-0.002181661564992912,0.001090830782496456,0.005596969688094218,0.7268381796216239,1.611243803410767,0,0,0,0,0,0,1500,1500,1500,1500,1500,1500
1748735666.632537,0.0,-0.01,0.03,-0.001090830782496456,0.0,0.003272492347489368,0.005596969688094218,0.7268381796216239,1.611243803410767,0,0,0,0,0,0,1500,1500,1500,1500,1500,1500
1748735666.725981,0.0,-0.01,0.03,-0.001090830782496456,0.0,0.003272492347489368,0.005596969688094218,0.7268381796216239,1.611243803410767,0,0,0,0,0,0,1500,1500,1500,1500,1500,1500
1748735666.8260305,-0.01,0.0,0.02,0.0,0.001090830782496456,0.001090830782496456,0.005596969688094218,0.7268381796216239,1.611243803410767,0,0,0,0,0,0,1500,1500,1500,1500,1500,1500
1748735666.9163928,-0.01,0.0,0.02,0.0,0.001090830782496456,0.001090830782496456,0.005596969688094218,0.7268381796216239,1.611243803410767,0,0,0,0,0,0,1500,1500,1500,1500,1500,1500
1748735667.0088248,0.01,-0.02,0.01,0.0,0.003272492347489368,0.002181661564992912,0.005596969688094218,0.7268381796216239,1.611243803410767,0,0,0,0,0,0,1500,1500,1500,1500,1500,1500
1748735667.1118057,0.01,-0.02,0.01,0.0,0.003272492347489368,0.002181661564992912,0.005596969688094218,0.7268381796216239,1.611243803410767,0,0,0,0,0,0,1500,1500,1500,1500,1500,1500
1748735667.1951482,0.01,-0.04,0.02,0.004363323129985824,0.001090830782496456,0.002181661564992912,0.005596969688094218,0.7268381796216239,1.611243803410767,0,0,0,0,0,0,1500,1500,1500,1500,1500,1500
1748735667.293859,0.0,-0.03,0.03,0.0,-0.004363323129985824,0.002181661564992912,0.005596969688094218,0.7268381796216239,1.611243803410767,0,0,0,0,0,0,1500,1500,1500,1500,1500,1500
1748735667.3945074,0.0,-0.03,0.03,0.0,-0.004363323129985824,0.002181661564992912,0.005596969688094218,0.7268381796216239,1.611243803410767,0,0,0,0,0,0,1500,1500,1500,1500,1500,1500
1748735667.4773839,0.0,0.0,0.02,-0.002181661564992912,0.00545415391248228,0.0,0.005596969688094218,0.7268381796216239,1.611243803410767,0,0,0,0,0,0,1500,1500,1500,1500,1500,1500
1748735667.5768816,0.0,0.0,0.02,-0.002181661564992912,0.00545415391248228,0.0,0.005596969688094218,0.7268381796216239,1.611243803410767,0,0,0,0,0,0,1500,1500,1500,1500,1500,1500
1748735667.6760287,0.01,-0.01,0.03,0.0,-0.001090830782496456,0.0,0.005596969688094218,0.7268381796216239,1.611243803410767,0,0,0,0,0,0,1500,1500,1500,1500,1500,1500
1748735667.776101,0.0,-0.03,0.07,0.003272492347489368,0.001090830782496456,0.0,0.005596969688094218,0.7268381796216239,1.611243803410767,0,0,0,0,0,0,1500,1500,1500,1500,1500,1500
1748735667.876729,0.0,-0.03,0.07,0.003272492347489368,0.001090830782496456,0.0,0.005596969688094218,0.7268381796216239,1.611243803410767,0,0,0,0,0,0,1500,1500,1500,1500,1500,1500
1748735667.960259,0.0,-0.02,-0.01,0.0,-0.002181661564992912,0.0,0.005596969688094218,0.7268381796216239,1.611243803410767,0,0,0,0,0,0,1500,1500,1500,1500,1500,1500
1748735668.0595305,0.0,-0.02,-0.01,0.0,-0.002181661564992912,0.0,0.005596969688094218,0.7268381796216239,1.611243803410767,0,0,0,0,0,0,1500,1500,1500,1500,1500,1500
1748735668.1602283,0.01,0.01,0.0,0.0,0.002181661564992912,0.002181661564992912,0.005596969688094218,0.7268381796216239,1.611243803410767,0,0,0,0,0,0,1500,1500,1500,1500,1500,1500
1748735668.2611523,0.01,0.01,0.0,0.002181661564992912,-0.001090830782496456,0.002181661564992912,0.005596969688094218,0.7268381796216239,1.611243803410767,0,0,0,0,0,0,1500,1500,1500,1500,1500,1500
1748735668.36021,0.01,0.01,0.0,0.002181661564992912,-0.001090830782496456,0.002181661564992912,0.005596969688094218,0.7268381796216239,1.611243803410767,0,0,0,0,0,0,1500,1500,1500,1500,1500,1500
1748735668.4432707,0.01,-0.01,0.06,0.001090830782496456,-0.001090830782496456,0.001090830782496456,0.005596969688094218,0.7268381796216239,1.611243803410767,0,0,0,0,0,0,1500,1500,1500,1500,1500,1500
1748735668.5431218,0.0,-0.04,0.04,-0.001090830782496456,0.001090830782496456,0.001090830782496456,0.005596969688094218,0.7268381796216239,1.611243803410767,0,0,0,0,0,0,1500,1500,1500,1500,1500,1500
1748735668.6438134,0.0,-0.04,0.04,-0.001090830782496456,0.001090830782496456,0.001090830782496456,0.005596969688094218,0.7268381796216239,1.611243803410767,0,0,0,0,0,0,1500,1500,1500,1500,1500,1500
1748735668.7258515,0.0,0.0,0.03,0.0,0.002181661564992912,0.0,0.005596969688094218,0.7268381796216239,1.611243803410767,0,0,0,0,0,0,1500,1500,1500,1500,1500,1500
1748735668.8262303,0.0,0.0,0.03,0.0,0.002181661564992912,0.0,0.005596969688094218,0.7268381796216239,1.611243803410767,0,0,0,0,0,0,1500,1500,1500,1500,1500,1500
1748735668.926225,0.0,0.0,0.0,0.0,-0.001090830782496456,0.001090830782496456,0.005596969688094218,0.7268381796216239,1.611243803410767,0,0,0,0,0,0,1500,1500,1500,1500,1500,1500
1748735669.0268333,0.01,0.0,0.0,-0.002181661564992912,-0.004363323129985824,0.001090830782496456,0.005596969688094218,0.7268381796216239,1.611243803410767,0,0,0,0,0,0,1500,1500,1500,1500,1500,1500
1748735669.125962,0.01,0.0,0.0,-0.002181661564992912,-0.004363323129985824,0.001090830782496456,0.005596969688094218,0.7268381796216239,1.611243803410767,0,0,0,0,0,0,1500,1500,1500,1500,1500,1500
1748735669.2103162,0.0,0.0,0.05,-0.002181661564992912,-0.003272492347489368,-0.001090830782496456,0.005596969688094218,0.7268381796216239,1.611243803410767,0,0,0,0,0,0,1500,1500,1500,1500,1500,1500
1748735669.309282,0.0,0.0,0.05,-0.002181661564992912,-0.003272492347489368,-0.001090830782496456,0.005596969688094218,0.7268381796216239,1.611243803410767,0,0,0,0,0,0,1500,1500,1500,1500,1500,1500
1748735669.410351,0.0,-0.05,0.03,0.002181661564992912,-0.002181661564992912,0.002181661564992912,0.005596969688094218,0.7268381796216239,1.611243803410767,0,0,0,0,0,0,1500,1500,1500,1500,1500,1500
1748735669.509301,0.02,-0.01,0.02,-0.002181661564992912,0.0,0.002181661564992912,0.005596969688094218,0.7268381796216239,1.611243803410767,0,0,0,0,0,0,1500,1500,1500,1500,1500,1500
1748735669.6096551,0.02,-0.01,0.02,-0.002181661564992912,0.0,0.002181661564992912,0.005596969688094218,0.7268381796216239,1.611243803410767,0,0,0,0,0,0,1500,1500,1500,1500,1500,1500
1748735669.7089481,0.02,0.03,0.01,0.002181661564992912,-0.001090830782496456,0.0,0.005596969688094218,0.7268381796216239,1.611243803410767,0,0,0,0,0,0,1500,1500,1500,1500,1500,1500
1748735669.808384,0.0,-0.02,0.05,0.0,-0.002181661564992912,0.0,0.005596969688094218,0.7268381796216239,1.611243803410767,0,0,0,0,0,0,1500,1500,1500,1500,1500,1500
1748735669.9087305,0.0,-0.02,0.05,0.0,-0.002181661564992912,0.0,0.005596969688094218,0.7268381796216239,1.611243803410767,0,0,0,0,0,0,1500,1500,1500,1500,1500,1500
1748735669.9929674,0.0,-0.01,0.04,-0.001090830782496456,-0.002181661564992912,0.003272492347489368,0.005596969688094218,0.7268381796216239,1.611243803410767,0,0,0,0,0,0,1500,1500,1500,1500,1500,1500
1748735670.0943532,0.0,-0.01,0.04,-0.001090830782496456,-0.002181661564992912,0.003272492347489368,0.005596969688094218,0.7268381796216239,1.611243803410767,0,0,0,0,0,0,1500,1500,1500,1500,1500,1500
1748735670.1924326,0.0,-0.05,0.05,-0.002181661564992912,0.001090830782496456,0.001090830782496456,0.005596969688094218,0.7268381796216239,1.611243803410767,0,0,0,0,0,0,1500,1500,1500,1500,1500,1500
1748735670.2933772,0.0,-0.01,0.03,0.0,0.002181661564992912,0.001090830782496456,0.005596969688094218,0.7268381796216239,1.611243803410767,0,0,0,0,0,0,1500,1500,1500,1500,1500,1500
1748735670.3932106,0.0,-0.01,0.03,0.0,0.002181661564992912,0.001090830782496456,0.005596969688094218,0.7268381796216239,1.611243803410767,0,0,0,0,0,0,1500,1500,1500,1500,1500,1500
1748735670.476459,0.0,0.0,0.01,-0.001090830782496456,0.003272492347489368,0.0,0.005596969688094218,0.7268381796216239,1.611243803410767,0,0,0,0,0,0,1500,1500,1500,1500,1500,1500
1748735670.5771847,0.0,0.0,0.01,-0.001090830782496456,0.003272492347489368,0.0,0.005596969688094218,0.7268381796216239,1.611243803410767,0,0,0,0,0,0,1500,1500,1500,1500,1500,1500
1748735670.6759093,0.02,0.0,0.0,0.001090830782496456,0.002181661564992912,0.001090830782496456,0.005596969688094218,0.7268381796216239,1.611243803410767,0,0,0,0,0,0,1500,1500,1500,1500,1500,1500
1748735670.7760274,0.0,-0.01,0.03,-0.00545415391248228,-0.004363323129985824,-0.001090830782496456,0.005596969688094218,0.7268381796216239,1.611243803410767,0,0,0,0,0,0,1500,1500,1500,1500,1500,1500
1748735670.875802,0.0,-0.01,0.03,-0.00545415391248228,-0.004363323129985824,-0.001090830782496456,0.005596969688094218,0.7268381796216239,1.611243803410767,0,0,0,0,0,0,1500,1500,1500,1500,1500,1500
1748735670.9593732,-0.01,-0.05,0.07,-0.001090830782496456,0.003272492347489368,-0.001090830782496456,0.005596969688094218,0.7268381796216239,1.611243803410767,0,0,0,0,0,0,1500,1500,1500,1500,1500,1500
1748735671.0595558,-0.01,-0.05,0.07,-0.001090830782496456,0.003272492347489368,-0.001090830782496456,0.005596969688094218,0.7268381796216239,1.611243803410767,0,0,0,0,0,0,1500,1500,1500,1500,1500,1500
1748735671.1593158,0.0,-0.01,0.04,-0.001090830782496456,-0.003272492347489368,0.002181661564992912,0.005596969688094218,0.7268381796216239,1.611243803410767,0,0,0,0,0,0,1500,1500,1500,1500,1500,1500
1748735671.241173,0.0,0.0,0.0,0.0,0.0,0.001090830782496456,0.005596969688094218,0.7268381796216239,1.611243803410767,0,0,0,0,0,0,1500,1500,1500,1500,1500,1500
1748735671.3431501,0.0,0.0,0.0,0.0,0.0,0.001090830782496456,0.005596969688094218,0.7268381796216239,1.611243803410767,0,0,0,0,0,0,1500,1500,1500,1500,1500,1500
1748735671.441859,0.0,-0.01,0.04,0.002181661564992912,-0.00545415391248228,0.0,0.005596969688094218,0.7268381796216239,1.611243803410767,0,0,0,0,0,0,1500,1500,1500,1500,1500,1500
1748735671.5420177,0.0,-0.01,0.04,0.002181661564992912,-0.00545415391248228,0.0,0.005596969688094218,0.7268381796216239,1.611243803410767,0,0,0,0,0,0,1500,1500,1500,1500,1500,1500
1748735671.6421003,0.01,-0.02,0.04,-0.003272492347489368,-0.003272492347489368,0.002181661564992912,0.005596969688094218,0.7268381796216239,1.611243803410767,0,0,0,0,0,0,1500,1500,1500,1500,1500,1500
1748735671.7264507,0.0,-0.02,0.07,0.00545415391248228,0.001090830782496456,-0.001090830782496456,0.005596969688094218,0.7268381796216239,1.611243803410767,0,0,0,0,0,0,1500,1500,1500,1500,1500,1500
1748735671.825762,0.0,-0.02,0.07,0.00545415391248228,0.001090830782496456,-0.001090830782496456,0.005596969688094218,0.7268381796216239,1.611243803410767,0,0,0,0,0,0,1500,1500,1500,1500,1500,1500
1748735671.925604,0.0,-0.01,0.05,-0.003272492347489368,0.001090830782496456,0.001090830782496456,0.005596969688094218,0.7268381796216239,1.611243803410767,0,0,0,0,0,0,1500,1500,1500,1500,1500,1500
1748735672.0090044,0.0,-0.01,0.05,-0.003272492347489368,0.001090830782496456,0.001090830782496456,0.005596969688094218,0.7268381796216239,1.611243803410767,0,0,0,0,0,0,1500,1500,1500,1500,1500,1500
1748735672.1091008,0.0,-0.01,0.03,-0.002181661564992912,-0.002181661564992912,0.0,0.005596969688094218,0.7268381796216239,1.611243803410767,0,0,0,0,0,0,1500,1500,1500,1500,1500,1500
1748735672.1937025,0.0,-0.01,0.03,-0.002181661564992912,-0.002181661564992912,0.0,0.005596969688094218,0.7268381796216239,1.611243803410767,0,0,0,0,0,0,1500,1500,1500,1500,1500,1500
1748735672.2922597,0.0,-0.02,0.05,0.0,-0.001090830782496456,-0.001090830782496456,0.005596969688094218,0.7268381796216239,1.611243803410767,0,0,0,0,0,0,1500,1500,1500,1500,1500,1500
1748735672.3933468,0.0,-0.03,0.06,-0.002181661564992912,-0.002181661564992912,-0.001090830782496456,0.005596969688094218,0.7268381796216239,1.611243803410767,0,0,0,0,0,0,1500,1500,1500,1500,1500,1500
1748735672.4759128,0.0,-0.03,0.06,-0.002181661564992912,-0.002181661564992912,-0.001090830782496456,0.005596969688094218,0.7268381796216239,1.611243803410767,0,0,0,0,0,0,1500,1500,1500,1500,1500,1500
1748735672.5755806,0.01,0.0,0.03,0.002181661564992912,-0.003272492347489368,0.0,0.005596969688094218,0.7268381796216239,1.611243803410767,0,0,0,0,0,0,1500,1500,1500,1500,1500,1500
1748735672.6694963,0.0,-0.02,0.01,0.001090830782496456,-0.001090830782496456,0.002181661564992912,0.005596969688094218,0.7268381796216239,1.611243803410767,0,0,0,0,0,0,1500,1500,1500,1500,1500,1500
1748735672.7592604,0.0,-0.02,0.01,0.001090830782496456,-0.001090830782496456,0.002181661564992912,0.005596969688094218,0.7268381796216239,1.611243803410767,0,0,0,0,0,0,1500,1500,1500,1500,1500,1500
1748735672.8591535,-0.01,0.0,0.0,0.0,0.001090830782496456,-0.001090830782496456,0.005596969688094218,0.7268381796216239,1.611243803410767,0,0,0,0,0,0,1500,1500,1500,1500,1500,1500
1748735672.9432032,-0.01,0.0,0.0,0.0,0.001090830782496456,-0.001090830782496456,0.005596969688094218,0.7268381796216239,1.611243803410767,0,0,0,0,0,0,1500,1500,1500,1500,1500,1500
1748735673.0431302,0.0,-0.04,0.06,0.0,0.003272492347489368,0.0,0.005596969688094218,0.7268381796216239,1.611243803410767,0,0,0,0,0,0,1500,1500,1500,1500,1500,1500
1748735673.1431181,0.0,-0.04,0.06,0.0,0.003272492347489368,0.0,0.005596969688094218,0.7268381796216239,1.611243803410767,0,0,0,0,0,0,1500,1500,1500,1500,1500,1500
1748735673.2252107,-0.01,-0.03,0.08,0.001090830782496456,0.001090830782496456,-0.002181661564992912,0.005596969688094218,0.7268381796216239,1.611243803410767,0,0,0,0,0,0,1500,1500,1500,1500,1500,1500
1748735673.3264842,0.0,-0.04,0.02,-0.002181661564992912,0.002181661564992912,0.001090830782496456,0.005596969688094218,0.7268381796216239,1.611243803410767,0,0,0,0,0,0,1500,1500,1500,1500,1500,1500
1748735673.4252603,0.0,-0.04,0.02,-0.002181661564992912,0.002181661564992912,0.001090830782496456,0.005596969688094218,0.7268381796216239,1.611243803410767,0,0,0,0,0,0,1500,1500,1500,1500,1500,1500
1748735673.5087132,-0.01,-0.02,0.04,-0.001090830782496456,-0.003272492347489368,-0.002181661564992912,0.005596969688094218,0.7268381796216239,1.611243803410767,0,0,0,0,0,0,1500,1500,1500,1500,1500,1500
1748735673.6087136,-0.01,-0.02,0.04,-0.001090830782496456,-0.003272492347489368,-0.002181661564992912,0.005596969688094218,0.7268381796216239,1.611243803410767,0,0,0,0,0,0,1500,1500,1500,1500,1500,1500
1748735673.7089877,0.0,0.0,0.02,0.0,-0.004363323129985824,-0.001090830782496456,0.005596969688094218,0.7268381796216239,1.611243803410767,0,0,0,0,0,0,1500,1500,1500,1500,1500,1500
1748735673.809484,0.0,-0.03,0.06,-0.001090830782496456,-0.003272492347489368,-0.003272492347489368,0.005596969688094218,0.7268381796216239,1.611243803410767,0,0,0,0,0,0,1500,1500,1500,1500,1500,1500
1748735673.9085546,0.0,-0.03,0.06,-0.001090830782496456,-0.003272492347489368,-0.003272492347489368,0.005596969688094218,0.7268381796216239,1.611243803410767,0,0,0,0,0,0,1500,1500,1500,1500,1500,1500
1748735673.992604,0.0,-0.03,0.02,0.0,0.002181661564992912,0.0,0.005596969688094218,0.7268381796216239,1.611243803410767,0,0,0,0,0,0,1500,1500,1500,1500,1500,1500
1748735674.0922422,0.0,-0.03,0.02,0.0,0.002181661564992912,0.0,0.005596969688094218,0.7268381796216239,1.611243803410767,0,0,0,0,0,0,1500,1500,1500,1500,1500,1500
1748735674.1924677,0.0,-0.01,0.01,-0.001090830782496456,-0.003272492347489368,0.002181661564992912,0.005596969688094218,0.7268381796216239,1.611243803410767,0,0,0,0,0,0,1500,1500,1500,1500,1500,1500
1748735674.2925944,0.01,0.01,0.02,0.0,-0.001090830782496456,-0.001090830782496456,0.005596969688094218,0.7268381796216239,1.611243803410767,0,0,0,0,0,0,1500,1500,1500,1500,1500,1500
1748735674.3941815,0.01,0.01,0.02,0.0,-0.001090830782496456,-0.001090830782496456,0.005596969688094218,0.7268381796216239,1.611243803410767,0,0,0,0,0,0,1500,1500,1500,1500,1500,1500
1748735674.4757655,0.01,0.0,0.0,-0.003272492347489368,0.0,-0.001090830782496456,0.005596969688094218,0.7268381796216239,1.611243803410767,0,0,0,0,0,0,1500,1500,1500,1500,1500,1500
1748735674.5828314,0.01,0.0,0.0,-0.003272492347489368,0.0,-0.001090830782496456,0.005596969688094218,0.7268381796216239,1.611243803410767,0,0,0,0,0,0,1500,1500,1500,1500,1500,1500
1748735674.6780798,0.0,-0.01,0.03,-0.004363323129985824,0.001090830782496456,0.001090830782496456,0.005596969688094218,0.7268381796216239,1.611243803410767,0,0,0,0,0,0,1500,1500,1500,1500,1500,1500
1748735674.7780132,0.0,-0.05,0.03,0.002181661564992912,0.0,0.001090830782496456,0.005596969688094218,0.7268381796216239,1.611243803410767,0,0,0,0,0,0,1500,1500,1500,1500,1500,1500
1748735674.8781822,0.0,-0.05,0.03,0.002181661564992912,0.0,0.001090830782496456,0.005596969688094218,0.7268381796216239,1.611243803410767,0,0,0,0,0,0,1500,1500,1500,1500,1500,1500
1748735674.9605033,0.0,-0.01,0.03,-0.001090830782496456,0.0,0.001090830782496456,0.005596969688094218,0.7268381796216239,1.611243803410767,0,0,0,0,0,0,1500,1500,1500,1500,1500,1500
1748735675.0557582,0.0,0.0,0.02,-0.001090830782496456,-0.001090830782496456,0.001090830782496456,0.005596969688094218,0.7268381796216239,1.611243803410767,0,0,0,0,0,0,1500,1500,1500,1500,1500,1500
1748735675.158365,0.0,0.0,0.02,-0.001090830782496456,-0.001090830782496456,0.001090830782496456,0.005596969688094218,0.7268381796216239,1.611243803410767,0,0,0,0,0,0,1500,1500,1500,1500,1500,1500
1748735675.2419276,0.0,0.0,0.01,0.001090830782496456,0.001090830782496456,-0.002181661564992912,0.005596969688094218,0.7268381796216239,1.611243803410767,0,0,0,0,0,0,1500,1500,1500,1500,1500,1500
1748735675.34553,0.0,0.0,0.01,0.001090830782496456,0.001090830782496456,-0.002181661564992912,0.005596969688094218,0.7268381796216239,1.611243803410767,0,0,0,0,0,0,1500,1500,1500,1500,1500,1500
1748735675.4710345,0.01,-0.01,0.04,0.0,0.001090830782496456,0.0,0.005596969688094218,0.7268381796216239,1.611243803410767,0,0,0,0,0,0,1500,1500,1500,1500,1500,1500
1748735675.5587065,0.02,-0.05,0.0,0.003272492347489368,0.002181661564992912,-0.001090830782496456,0.005596969688094218,0.7268381796216239,1.611243803410767,0,0,0,0,0,0,1500,1500,1500,1500,1500,1500
1748735675.6610084,0.02,-0.05,0.0,0.003272492347489368,0.002181661564992912,-0.001090830782496456,0.005596969688094218,0.7268381796216239,1.611243803410767,0,0,0,0,0,0,1500,1500,1500,1500,1500,1500
1748735675.758374,0.02,-0.02,0.05,0.0,0.002181661564992912,0.0,0.005596969688094218,0.7268381796216239,1.611243803410767,0,0,0,0,0,0,1500,1500,1500,1500,1500,1500
1748735675.8589232,0.0,0.02,0.02,0.001090830782496456,-0.003272492347489368,0.002181661564992912,0.005596969688094218,0.7268381796216239,1.611243803410767,0,0,0,0,0,0,1500,1500,1500,1500,1500,1500
1748735675.9593506,0.0,0.02,0.02,0.001090830782496456,-0.003272492347489368,0.002181661564992912,0.005596969688094218,0.7268381796216239,1.611243803410767,0,0,0,0,0,0,1500,1500,1500,1500,1500,1500
1748735676.058818,0.0,0.0,0.02,-0.001090830782496456,0.001090830782496456,-0.001090830782496456,0.005596969688094218,0.7268381796216239,1.611243803410767,0,0,0,0,0,0,1500,1500,1500,1500,1500,1500
1748735676.15892,0.0,0.0,0.02,-0.001090830782496456,0.001090830782496456,-0.001090830782496456,0.005596969688094218,0.7268381796216239,1.611243803410767,0,0,0,0,0,0,1500,1500,1500,1500,1500,1500
1748735676.2418225,0.0,-0.02,0.04,0.0,-0.002181661564992912,0.001090830782496456,0.005596969688094218,0.7268381796216239,1.611243803410767,0,0,0,0,0,0,1500,1500,1500,1500,1500,1500
1748735676.3419597,-0.01,-0.03,0.07,0.002181661564992912,0.0,0.001090830782496456,0.005596969688094218,0.7268381796216239,1.611243803410767,0,0,0,0,0,0,1500,1500,1500,1500,1500,1500
1748735676.4416292,-0.01,-0.03,0.07,0.002181661564992912,0.0,0.001090830782496456,0.005596969688094218,0.7268381796216239,1.611243803410767,0,0,0,0,0,0,1500,1500,1500,1500,1500,1500
1748735676.5419762,0.0,-0.02,0.06,-0.002181661564992912,-0.003272492347489368,0.0,0.005596969688094218,0.7268381796216239,1.611243803410767,0,0,0,0,0,0,1500,1500,1500,1500,1500,1500
1748735676.6419723,0.0,-0.02,0.06,-0.002181661564992912,-0.003272492347489368,0.0,0.005596969688094218,0.7268381796216239,1.611243803410767,0,0,0,0,0,0,1500,1500,1500,1500,1500,1500
1748735676.7254562,0.0,-0.01,0.01,0.003272492347489368,0.002181661564992912,-0.001090830782496456,0.005596969688094218,0.7268381796216239,1.611243803410767,0,0,0,0,0,0,1500,1500,1500,1500,1500,1500
1748735676.8251598,0.0,-0.01,0.06,0.001090830782496456,-0.004363323129985824,-0.002181661564992912,0.005596969688094218,0.7268381796216239,1.611243803410767,0,0,0,0,0,0,1500,1500,1500,1500,1500,1500
1748735676.926745,0.0,-0.01,0.06,0.001090830782496456,-0.004363323129985824,-0.002181661564992912,0.005596969688094218,0.7268381796216239,1.611243803410767,0,0,0,0,0,0,1500,1500,1500,1500,1500,1500
