time,ay,ax,az,gy,gx,gz,roll,pitch,yaw,cmd_fx,cmd_fy,cmd_fz,cmd_tx,cmd_ty,cmd_tz,pwm_1,pwm_2,pwm_3,pwm_4,pwm_5,pwm_6
1747542041.0105464,0.0,0.0,0.0,0.0,0.0,0.0,0.0,0.0,0.0,0,0,0,0,0,0,1500,1500,1500,1500,1500,1500
1747542041.1131756,-0.12,-0.43,0.04,-0.004363323129985824,-0.001090830782496456,0.0,1.6119547972426786,-0.2995763699236527,-0.31194648586612844,0,0,0,0,0,0,1500,1500,1500,1500,1500,1500
1747542041.2003956,-0.12,-0.43,0.04,-0.004363323129985824,-0.001090830782496456,0.0,1.6119547972426786,-0.2995763699236527,-0.31194648586612844,0,0,0,0,0,0,1500,1500,1500,1500,1500,1500
1747542041.3003416,-0.14,-0.46,0.01,0.002181661564992912,0.002181661564992912,0.002181661564992912,1.6119547972426786,-0.2995763699236527,-0.31194648586612844,0,0,0,0,0,0,1500,1500,1500,1500,1500,1500
1747542041.3982472,-0.14,-0.46,0.01,0.002181661564992912,0.002181661564992912,0.002181661564992912,1.6119547972426786,-0.2995763699236527,-0.31194648586612844,0,0,0,0,0,0,1500,1500,1500,1500,1500,1500
1747542041.4991598,-0.12,-0.45,-0.01,-0.001090830782496456,-0.001090830782496456,0.002181661564992912,1.6119547972426786,-0.2995763699236527,-0.31194648586612844,0,0,0,0,0,0,1500,1500,1500,1500,1500,1500
1747542041.5986617,0.0,-0.03,0.0,0.002181661564992912,-0.001090830782496456,0.0,1.6119547972426786,-0.2995763699236527,-0.31194648586612844,0,0,0,0,0,0,1500,1500,1500,1500,1500,1500
1747542041.6839585,0.0,-0.03,0.0,0.002181661564992912,-0.001090830782496456,0.0,1.6119547972426786,-0.2995763699236527,-0.31194648586612844,0,0,0,0,0,0,1500,1500,1500,1500,1500,1500
1747542041.7798803,0.0,-0.03,-0.02,0.003272492347489368,0.002181661564992912,-0.001090830782496456,1.6119547972426786,-0.2995763699236527,-0.31194648586612844,0,0,0,0,0,0,1500,1500,1500,1500,1500,1500
1747542041.8630826,0.0,-0.03,-0.02,0.003272492347489368,0.002181661564992912,-0.001090830782496456,1.6119547972426786,-0.2995763699236527,-0.31194648586612844,0,0,0,0,0,0,1500,1500,1500,1500,1500,1500
1747542041.8733318,0.0,-0.05,0.01,0.00545415391248228,0.001090830782496456,-0.004363323129985824,1.6119547972426786,-0.2995763699236527,-0.31194648586612844,0,0,0,0,0,0,1500,1500,1500,1500,1500,1500
1747542041.9490514,0.0,-0.04,0.02,0.006544984694978736,0.0,-0.003272492347489368,1.6119547972426786,-0.2995763699236527,-0.31194648586612844,0,0,0,0,0,0,1500,1500,1500,1500,1500,1500
1747542041.9661534,0.0,-0.04,0.02,0.006544984694978736,0.0,-0.003272492347489368,1.6119547972426786,-0.2995763699236527,-0.31194648586612844,0,0,0,0,0,0,1500,1500,1500,1500,1500,1500
1747542042.0493655,0.0,-0.04,-0.02,-0.003272492347489368,-0.003272492347489368,0.0,1.6119547972426786,-0.2995763699236527,-0.31194648586612844,0,0,0,0,0,0,1500,1500,1500,1500,1500,1500
1747542042.0661569,0.0,-0.04,-0.02,-0.003272492347489368,-0.003272492347489368,0.0,1.6119547972426786,-0.2995763699236527,-0.31194648586612844,0,0,0,0,0,0,1500,1500,1500,1500,1500,1500
1747542042.148955,0.01,-0.01,-0.02,-0.001090830782496456,0.0,-0.001090830782496456,1.6119547972426786,-0.2995763699236527,-0.31194648586612844,0,0,0,0,0,0,1500,1500,1500,1500,1500,1500
1747542042.1561792,0.01,-0.01,-0.02,-0.001090830782496456,0.0,-0.001090830782496456,1.6119547972426786,-0.2995763699236527,-0.31194648586612844,0,0,0,0,0,0,1500,1500,1500,1500,1500,1500
1747542042.2491992,0.0,-0.02,-0.03,0.0,-0.00545415391248228,0.001090830782496456,1.6119547972426786,-0.2995763699236527,-0.31194648586612844,0,0,0,0,0,0,1500,1500,1500,1500,1500,1500
1747542042.252789,0.0,-0.02,-0.03,0.0,-0.00545415391248228,0.001090830782496456,1.6119547972426786,-0.2995763699236527,-0.31194648586612844,0,0,0,0,0,0,1500,1500,1500,1500,1500,1500
1747542042.3484266,0.01,-0.02,0.02,-0.004363323129985824,-0.001090830782496456,0.003272492347489368,1.6119547972426786,-0.2995763699236527,-0.31194648586612844,0,0,0,0,0,0,1500,1500,1500,1500,1500,1500
1747542042.350667,0.01,-0.02,0.02,-0.004363323129985824,-0.001090830782496456,0.003272492347489368,1.6119547972426786,-0.2995763699236527,-0.31194648586612844,0,0,0,0,0,0,1500,1500,1500,1500,1500,1500
1747542042.4323967,-0.02,-0.03,-0.01,-0.004363323129985824,-0.002181661564992912,0.002181661564992912,1.6119547972426786,-0.2995763699236527,-0.31194648586612844,0,0,0,0,0,0,1500,1500,1500,1500,1500,1500
1747542042.4351196,-0.02,-0.03,-0.01,-0.004363323129985824,-0.002181661564992912,0.002181661564992912,1.6119547972426786,-0.2995763699236527,-0.31194648586612844,0,0,0,0,0,0,1500,1500,1500,1500,1500,1500
1747542042.532469,-0.01,-0.03,0.06,0.0,0.0,0.002181661564992912,1.6119547972426786,-0.2995763699236527,-0.31194648586612844,0,0,0,0,0,0,1500,1500,1500,1500,1500,1500
1747542042.5362744,-0.01,-0.03,0.06,0.0,0.0,0.002181661564992912,1.6119547972426786,-0.2995763699236527,-0.31194648586612844,0,0,0,0,0,0,1500,1500,1500,1500,1500,1500
1747542042.6317983,-0.01,-0.02,0.01,0.001090830782496456,-0.001090830782496456,0.001090830782496456,1.6119547972426786,-0.2995763699236527,-0.31194648586612844,0,0,0,0,0,0,1500,1500,1500,1500,1500,1500
1747542042.632859,-0.01,-0.02,0.01,0.001090830782496456,-0.001090830782496456,0.001090830782496456,1.6119547972426786,-0.2995763699236527,-0.31194648586612844,0,0,0,0,0,0,1500,1500,1500,1500,1500,1500
1747542042.717534,0.0,-0.02,0.0,0.0,0.002181661564992912,0.002181661564992912,1.6119547972426786,-0.2995763699236527,-0.31194648586612844,0,0,0,0,0,0,1500,1500,1500,1500,1500,1500
1747542042.7315052,0.0,-0.01,0.0,0.0,-0.002181661564992912,-0.001090830782496456,1.6119547972426786,-0.2995763699236527,-0.31194648586612844,0,0,0,0,0,0,1500,1500,1500,1500,1500,1500
1747542042.81525,0.0,-0.01,0.0,0.0,-0.002181661564992912,-0.001090830782496456,1.6119547972426786,-0.2995763699236527,-0.31194648586612844,0,0,0,0,0,0,1500,1500,1500,1500,1500,1500
1747542042.833678,0.0,-0.02,-0.03,0.002181661564992912,-0.002181661564992912,-0.003272492347489368,1.6119547972426786,-0.2995763699236527,-0.31194648586612844,0,0,0,0,0,0,1500,1500,1500,1500,1500,1500
1747542042.9139512,-0.03,-0.02,-0.01,-0.004363323129985824,-0.006544984694978736,-0.004363323129985824,1.6119547972426786,-0.2995763699236527,-0.31194648586612844,0,0,0,0,0,0,1500,1500,1500,1500,1500,1500
1747542042.9149475,-0.03,-0.02,-0.01,-0.004363323129985824,-0.006544984694978736,-0.004363323129985824,1.6119547972426786,-0.2995763699236527,-0.31194648586612844,0,0,0,0,0,0,1500,1500,1500,1500,1500,1500
1747542043.0150688,-0.03,-0.01,0.01,-0.001090830782496456,0.007635815477475192,-0.001090830782496456,1.6119547972426786,-0.2995763699236527,-0.31194648586612844,0,0,0,0,0,0,1500,1500,1500,1500,1500,1500
1747542043.019009,-0.03,-0.01,0.01,-0.001090830782496456,0.007635815477475192,-0.001090830782496456,1.6119547972426786,-0.2995763699236527,-0.31194648586612844,0,0,0,0,0,0,1500,1500,1500,1500,1500,1500
1747542043.1136181,-0.01,-0.01,-0.02,0.001090830782496456,0.004363323129985824,0.0,1.6119547972426786,-0.2995763699236527,-0.31194648586612844,0,0,0,0,0,0,1500,1500,1500,1500,1500,1500
1747542043.1163042,-0.01,-0.01,-0.02,0.001090830782496456,0.004363323129985824,0.0,1.6119547972426786,-0.2995763699236527,-0.31194648586612844,0,0,0,0,0,0,1500,1500,1500,1500,1500,1500
1747542043.1998117,0.01,-0.02,-0.02,0.006544984694978736,0.0,0.003272492347489368,1.6119547972426786,-0.2995763699236527,-0.31194648586612844,0,0,0,0,0,0,1500,1500,1500,1500,1500,1500
1747542043.2159615,0.0,-0.02,0.03,0.001090830782496456,0.001090830782496456,0.003272492347489368,1.6119547972426786,-0.2995763699236527,-0.31194648586612844,0,0,0,0,0,0,1500,1500,1500,1500,1500,1500
1747542043.3001785,0.0,-0.02,0.03,0.001090830782496456,0.001090830782496456,0.003272492347489368,1.6119547972426786,-0.2995763699236527,-0.31194648586612844,0,0,0,0,0,0,1500,1500,1500,1500,1500,1500
1747542043.3137107,0.0,-0.01,0.03,0.0,0.004363323129985824,0.004363323129985824,1.6119547972426786,-0.2995763699236527,-0.31194648586612844,0,0,0,0,0,0,1500,1500,1500,1500,1500,1500
1747542043.3984637,-0.03,-0.01,-0.01,0.001090830782496456,0.002181661564992912,0.007635815477475192,1.6119547972426786,-0.2995763699236527,-0.31194648586612844,0,0,0,0,0,0,1500,1500,1500,1500,1500,1500
1747542043.4018857,-0.03,-0.01,-0.01,0.001090830782496456,0.002181661564992912,0.007635815477475192,1.6119547972426786,-0.2995763699236527,-0.31194648586612844,0,0,0,0,0,0,1500,1500,1500,1500,1500,1500
1747542043.5008664,0.0,-0.01,0.02,0.003272492347489368,0.002181661564992912,0.003272492347489368,1.6119547972426786,-0.2995763699236527,-0.31194648586612844,0,0,0,0,0,0,1500,1500,1500,1500,1500,1500
1747542043.5040267,0.0,-0.01,0.02,0.003272492347489368,0.002181661564992912,0.003272492347489368,1.6119547972426786,-0.2995763699236527,-0.31194648586612844,0,0,0,0,0,0,1500,1500,1500,1500,1500,1500
1747542043.6003876,-0.01,-0.01,-0.01,0.001090830782496456,-0.004363323129985824,-0.001090830782496456,1.6119547972426786,-0.2995763699236527,-0.31194648586612844,0,0,0,0,0,0,1500,1500,1500,1500,1500,1500
1747542043.6038702,-0.01,-0.01,-0.01,0.001090830782496456,-0.004363323129985824,-0.001090830782496456,1.6119547972426786,-0.2995763699236527,-0.31194648586612844,0,0,0,0,0,0,1500,1500,1500,1500,1500,1500
1747542043.6318161,-0.02,-0.03,-0.02,0.001090830782496456,-0.001090830782496456,0.001090830782496456,1.6119547972426786,-0.2995763699236527,-0.31194648586612844,0,0,0,0,0,0,1500,1500,1500,1500,1500,1500
1747542043.681757,0.0,-0.04,-0.04,0.004363323129985824,0.001090830782496456,-0.003272492347489368,1.6119547972426786,-0.2995763699236527,-0.31194648586612844,0,0,0,0,0,0,1500,1500,1500,1500,1500,1500
1747542043.6999533,0.0,-0.04,-0.04,-0.001090830782496456,-0.001090830782496456,-0.002181661564992912,1.6119547972426786,-0.2995763699236527,-0.31194648586612844,0,0,0,0,0,0,1500,1500,1500,1500,1500,1500
1747542043.7170773,0.0,-0.04,-0.04,-0.001090830782496456,-0.001090830782496456,-0.002181661564992912,1.6119547972426786,-0.2995763699236527,-0.31194648586612844,0,0,0,0,0,0,1500,1500,1500,1500,1500,1500
1747542043.78406,0.0,-0.03,0.02,0.0,-0.001090830782496456,-0.004363323129985824,1.6119547972426786,-0.2995763699236527,-0.31194648586612844,0,0,0,0,0,0,1500,1500,1500,1500,1500,1500
1747542043.8003957,0.0,-0.03,0.02,0.0,-0.001090830782496456,-0.004363323129985824,1.6119547972426786,-0.2995763699236527,-0.31194648586612844,0,0,0,0,0,0,1500,1500,1500,1500,1500,1500
1747542043.8161528,0.0,-0.03,0.02,0.0,-0.001090830782496456,-0.004363323129985824,1.6119547972426786,-0.2995763699236527,-0.31194648586612844,0,0,0,0,0,0,1500,1500,1500,1500,1500,1500
1747542043.874963,0.0,-0.01,0.02,-0.003272492347489368,0.0,-0.002181661564992912,1.6119547972426786,-0.2995763699236527,-0.31194648586612844,0,0,0,0,0,0,1500,1500,1500,1500,1500,1500
1747542043.887159,-0.01,-0.04,0.0,0.003272492347489368,-0.003272492347489368,-0.004363323129985824,1.6119547972426786,-0.2995763699236527,-0.31194648586612844,0,0,0,0,0,0,1500,1500,1500,1500,1500,1500
1747542043.9034343,-0.01,-0.04,0.0,0.003272492347489368,-0.003272492347489368,-0.004363323129985824,1.6119547972426786,-0.2995763699236527,-0.31194648586612844,0,0,0,0,0,0,1500,1500,1500,1500,1500,1500
1747542043.9635923,-0.01,-0.04,0.0,0.002181661564992912,0.001090830782496456,-0.003272492347489368,1.6119547972426786,-0.2995763699236527,-0.31194648586612844,0,0,0,0,0,0,1500,1500,1500,1500,1500,1500
1747542043.9805212,-0.01,-0.04,0.0,0.002181661564992912,0.001090830782496456,-0.003272492347489368,1.6119547972426786,-0.2995763699236527,-0.31194648586612844,0,0,0,0,0,0,1500,1500,1500,1500,1500,1500
1747542044.0035603,-0.01,-0.04,0.0,0.002181661564992912,0.001090830782496456,-0.003272492347489368,1.6119547972426786,-0.2995763699236527,-0.31194648586612844,0,0,0,0,0,0,1500,1500,1500,1500,1500,1500
1747542044.0652225,0.0,-0.03,-0.01,0.002181661564992912,0.001090830782496456,0.001090830782496456,1.6119547972426786,-0.2995763699236527,-0.31194648586612844,0,0,0,0,0,0,1500,1500,1500,1500,1500,1500
1747542044.0828626,0.0,-0.03,-0.01,0.002181661564992912,0.001090830782496456,0.001090830782496456,1.6119547972426786,-0.2995763699236527,-0.31194648586612844,0,0,0,0,0,0,1500,1500,1500,1500,1500,1500
1747542044.1009982,0.02,-0.02,-0.04,0.0,0.002181661564992912,0.001090830782496456,1.6119547972426786,-0.2995763699236527,-0.31194648586612844,0,0,0,0,0,0,1500,1500,1500,1500,1500,1500
1747542044.1519606,0.02,-0.02,-0.04,0.0,0.002181661564992912,0.001090830782496456,1.6119547972426786,-0.2995763699236527,-0.31194648586612844,0,0,0,0,0,0,1500,1500,1500,1500,1500,1500
1747542044.167487,0.0,-0.02,0.03,-0.002181661564992912,0.003272492347489368,0.003272492347489368,1.6119547972426786,-0.2995763699236527,-0.31194648586612844,0,0,0,0,0,0,1500,1500,1500,1500,1500,1500
1747542044.2003329,0.0,-0.02,0.03,-0.002181661564992912,0.003272492347489368,0.003272492347489368,1.6119547972426786,-0.2995763699236527,-0.31194648586612844,0,0,0,0,0,0,1500,1500,1500,1500,1500,1500
1747542044.248854,0.0,0.0,0.01,-0.002181661564992912,0.007635815477475192,0.003272492347489368,1.6119547972426786,-0.2995763699236527,-0.31194648586612844,0,0,0,0,0,0,1500,1500,1500,1500,1500,1500
1747542044.2675936,0.0,0.0,0.01,-0.002181661564992912,0.007635815477475192,0.003272492347489368,1.6119547972426786,-0.2995763699236527,-0.31194648586612844,0,0,0,0,0,0,1500,1500,1500,1500,1500,1500
1747542044.307664,0.0,0.0,0.01,-0.002181661564992912,0.007635815477475192,0.003272492347489368,1.6119547972426786,-0.2995763699236527,-0.31194648586612844,0,0,0,0,0,0,1500,1500,1500,1500,1500,1500
1747542044.349784,-0.01,-0.02,0.0,-0.003272492347489368,0.003272492347489368,0.007635815477475192,1.6119547972426786,-0.2995763699236527,-0.31194648586612844,0,0,0,0,0,0,1500,1500,1500,1500,1500,1500
1747542044.3559017,-0.01,-0.02,0.0,-0.003272492347489368,0.003272492347489368,0.007635815477475192,1.6119547972426786,-0.2995763699236527,-0.31194648586612844,0,0,0,0,0,0,1500,1500,1500,1500,1500,1500
1747542044.4180493,-0.02,-0.03,0.0,0.001090830782496456,0.0,0.008726646259971648,1.6119547972426786,-0.2995763699236527,-0.31194648586612844,0,0,0,0,0,0,1500,1500,1500,1500,1500,1500
1747542044.4500768,-0.02,-0.03,0.0,0.001090830782496456,0.0,0.008726646259971648,1.6119547972426786,-0.2995763699236527,-0.31194648586612844,0,0,0,0,0,0,1500,1500,1500,1500,1500,1500
1747542044.4536066,-0.02,-0.03,0.0,0.001090830782496456,0.0,0.008726646259971648,1.6119547972426786,-0.2995763699236527,-0.31194648586612844,0,0,0,0,0,0,1500,1500,1500,1500,1500,1500
1747542044.5175426,-0.01,-0.03,0.0,0.002181661564992912,-0.008726646259971648,-0.001090830782496456,1.6119547972426786,-0.2995763699236527,-0.31194648586612844,0,0,0,0,0,0,1500,1500,1500,1500,1500,1500
1747542044.5484312,-0.04,-0.03,-0.01,-0.002181661564992912,0.001090830782496456,-0.001090830782496456,1.6119547972426786,-0.2995763699236527,-0.31194648586612844,0,0,0,0,0,0,1500,1500,1500,1500,1500,1500
1747542044.5507348,-0.04,-0.03,-0.01,-0.002181661564992912,0.001090830782496456,-0.001090830782496456,1.6119547972426786,-0.2995763699236527,-0.31194648586612844,0,0,0,0,0,0,1500,1500,1500,1500,1500,1500
1747542044.6095998,0.0,-0.04,0.01,0.002181661564992912,0.004363323129985824,-0.003272492347489368,1.6119547972426786,-0.2995763699236527,-0.31194648586612844,0,0,0,0,0,0,1500,1500,1500,1500,1500,1500
1747542044.6520274,0.0,-0.04,0.01,0.002181661564992912,0.004363323129985824,-0.003272492347489368,1.6119547972426786,-0.2995763699236527,-0.31194648586612844,0,0,0,0,0,0,1500,1500,1500,1500,1500,1500
1747542044.6592247,0.0,-0.04,0.01,0.002181661564992912,0.004363323129985824,-0.003272492347489368,1.6119547972426786,-0.2995763699236527,-0.31194648586612844,0,0,0,0,0,0,1500,1500,1500,1500,1500,1500
1747542044.6996615,0.0,-0.06,-0.02,-0.002181661564992912,-0.001090830782496456,-0.006544984694978736,1.6119547972426786,-0.2995763699236527,-0.31194648586612844,0,0,0,0,0,0,1500,1500,1500,1500,1500,1500
1747542044.748464,0.0,0.0,0.0,-0.002181661564992912,0.002181661564992912,-0.008726646259971648,1.6119547972426786,-0.2995763699236527,-0.31194648586612844,0,0,0,0,0,0,1500,1500,1500,1500,1500,1500
1747542044.7494984,0.0,0.0,0.0,-0.002181661564992912,0.002181661564992912,-0.008726646259971648,1.6119547972426786,-0.2995763699236527,-0.31194648586612844,0,0,0,0,0,0,1500,1500,1500,1500,1500,1500
1747542044.802786,0.0,-0.02,0.02,-0.002181661564992912,0.003272492347489368,-0.007635815477475192,1.6119547972426786,-0.2995763699236527,-0.31194648586612844,0,0,0,0,0,0,1500,1500,1500,1500,1500,1500
1747542044.840175,-0.03,-0.02,0.0,0.002181661564992912,0.001090830782496456,-0.007635815477475192,1.6119547972426786,-0.2995763699236527,-0.31194648586612844,0,0,0,0,0,0,1500,1500,1500,1500,1500,1500
1747542044.846915,-0.03,-0.02,0.0,0.002181661564992912,0.001090830782496456,-0.007635815477475192,1.6119547972426786,-0.2995763699236527,-0.31194648586612844,0,0,0,0,0,0,1500,1500,1500,1500,1500,1500
1747542044.885149,0.02,-0.02,-0.01,0.003272492347489368,0.002181661564992912,-0.006544984694978736,1.6119547972426786,-0.2995763699236527,-0.31194648586612844,0,0,0,0,0,0,1500,1500,1500,1500,1500,1500
1747542044.9331021,0.0,-0.02,-0.01,0.004363323129985824,0.001090830782496456,-0.004363323129985824,1.6119547972426786,-0.2995763699236527,-0.31194648586612844,0,0,0,0,0,0,1500,1500,1500,1500,1500,1500
1747542044.9407306,0.0,-0.02,-0.01,0.004363323129985824,0.001090830782496456,-0.004363323129985824,1.6119547972426786,-0.2995763699236527,-0.31194648586612844,0,0,0,0,0,0,1500,1500,1500,1500,1500,1500
1747542044.9806376,0.02,-0.01,0.0,-0.001090830782496456,-0.002181661564992912,0.0,1.6119547972426786,-0.2995763699236527,-0.31194648586612844,0,0,0,0,0,0,1500,1500,1500,1500,1500,1500
1747542045.0327575,-0.01,-0.02,0.04,-0.001090830782496456,-0.004363323129985824,0.004363323129985824,1.6119547972426786,-0.2995763699236527,-0.31194648586612844,0,0,0,0,0,0,1500,1500,1500,1500,1500,1500
1747542045.0366251,-0.01,-0.02,0.04,-0.001090830782496456,-0.004363323129985824,0.004363323129985824,1.6119547972426786,-0.2995763699236527,-0.31194648586612844,0,0,0,0,0,0,1500,1500,1500,1500,1500,1500
1747542045.0797956,-0.01,-0.02,0.01,-0.001090830782496456,-0.001090830782496456,0.006544984694978736,1.6119547972426786,-0.2995763699236527,-0.31194648586612844,0,0,0,0,0,0,1500,1500,1500,1500,1500,1500
1747542045.1331823,-0.01,-0.02,0.01,-0.001090830782496456,-0.001090830782496456,0.006544984694978736,1.6119547972426786,-0.2995763699236527,-0.31194648586612844,0,0,0,0,0,0,1500,1500,1500,1500,1500,1500
1747542045.1362872,-0.01,-0.02,0.01,-0.001090830782496456,-0.001090830782496456,0.006544984694978736,1.6119547972426786,-0.2995763699236527,-0.31194648586612844,0,0,0,0,0,0,1500,1500,1500,1500,1500,1500
1747542045.169966,0.0,-0.04,-0.02,0.002181661564992912,0.0,0.008726646259971648,1.6119547972426786,-0.2995763699236527,-0.31194648586612844,0,0,0,0,0,0,1500,1500,1500,1500,1500,1500
1747542045.2334547,-0.01,0.0,0.0,-0.002181661564992912,-0.004363323129985824,0.008726646259971648,1.6119547972426786,-0.2995763699236527,-0.31194648586612844,0,0,0,0,0,0,1500,1500,1500,1500,1500,1500
1747542045.2384448,-0.01,0.0,0.0,-0.002181661564992912,-0.004363323129985824,0.008726646259971648,1.6119547972426786,-0.2995763699236527,-0.31194648586612844,0,0,0,0,0,0,1500,1500,1500,1500,1500,1500
1747542045.2670527,0.0,-0.02,0.0,0.002181661564992912,-0.007635815477475192,0.007635815477475192,1.6117837262986419,-0.2996643546670956,-0.31183631967955816,0,0,0,0,0,0,1500,1500,1500,1500,1500,1500
1747542045.334979,0.0,-0.03,-0.05,-0.003272492347489368,0.001090830782496456,0.008726646259971648,1.6117837262986419,-0.2996643546670956,-0.31183631967955816,0,0,0,0,0,0,1500,1500,1500,1500,1500,1500
1747542045.3413694,0.0,-0.03,-0.05,-0.003272492347489368,0.001090830782496456,0.008726646259971648,1.6117837262986419,-0.2996643546670956,-0.31183631967955816,0,0,0,0,0,0,1500,1500,1500,1500,1500,1500
1747542045.3662505,0.0,-0.03,-0.01,-0.001090830782496456,-0.007635815477475192,0.00545415391248228,1.6117837262986419,-0.2996643546670956,-0.31183631967955816,0,0,0,0,0,0,1500,1500,1500,1500,1500,1500
1747542045.4356675,-0.02,-0.04,0.01,0.0,-0.004363323129985824,0.003272492347489368,1.6117837262986419,-0.2996643546670956,-0.31183631967955816,0,0,0,0,0,0,1500,1500,1500,1500,1500,1500
1747542045.439921,-0.02,-0.04,0.01,0.0,-0.004363323129985824,0.003272492347489368,1.6117837262986419,-0.2996643546670956,-0.31183631967955816,0,0,0,0,0,0,1500,1500,1500,1500,1500,1500
1747542045.4519043,-0.02,-0.04,0.01,0.0,-0.004363323129985824,0.003272492347489368,1.6117837262986419,-0.2996643546670956,-0.31183631967955816,0,0,0,0,0,0,1500,1500,1500,1500,1500,1500
1747542045.5316086,-0.01,-0.02,0.02,0.001090830782496456,0.001090830782496456,-0.001090830782496456,1.6117837262986419,-0.2996643546670956,-0.31183631967955816,0,0,0,0,0,0,1500,1500,1500,1500,1500,1500
1747542045.536368,-0.01,-0.02,0.02,0.001090830782496456,0.001090830782496456,-0.001090830782496456,1.6117837262986419,-0.2996643546670956,-0.31183631967955816,0,0,0,0,0,0,1500,1500,1500,1500,1500,1500
1747542045.5487154,-0.01,-0.02,0.02,0.001090830782496456,0.001090830782496456,-0.001090830782496456,1.6117837262986419,-0.2996643546670956,-0.31183631967955816,0,0,0,0,0,0,1500,1500,1500,1500,1500,1500
1747542045.6339967,-0.02,-0.04,0.0,0.002181661564992912,0.003272492347489368,-0.00545415391248228,1.6117837262986419,-0.2996643546670956,-0.31183631967955816,0,0,0,0,0,0,1500,1500,1500,1500,1500,1500
1747542045.6393101,-0.02,-0.04,0.0,0.002181661564992912,0.003272492347489368,-0.00545415391248228,1.6117837262986419,-0.2996643546670956,-0.31183631967955816,0,0,0,0,0,0,1500,1500,1500,1500,1500,1500
1747542045.643609,-0.02,-0.04,0.0,0.002181661564992912,0.003272492347489368,-0.00545415391248228,1.6117837262986419,-0.2996643546670956,-0.31183631967955816,0,0,0,0,0,0,1500,1500,1500,1500,1500,1500
1747542045.7329047,0.0,-0.02,0.02,0.0,-0.002181661564992912,-0.006544984694978736,1.6117837262986419,-0.2996643546670956,-0.31183631967955816,0,0,0,0,0,0,1500,1500,1500,1500,1500,1500
1747542045.7366714,0.0,-0.02,0.02,0.0,-0.002181661564992912,-0.006544984694978736,1.6117837262986419,-0.2996643546670956,-0.31183631967955816,0,0,0,0,0,0,1500,1500,1500,1500,1500,1500
1747542045.7409663,0.0,-0.02,0.02,0.0,-0.002181661564992912,-0.006544984694978736,1.6117837262986419,-0.2996643546670956,-0.31183631967955816,0,0,0,0,0,0,1500,1500,1500,1500,1500,1500
1747542045.8330362,-0.02,-0.03,0.0,0.001090830782496456,0.003272492347489368,-0.003272492347489368,1.6117837262986419,-0.2996643546670956,-0.31183631967955816,0,0,0,0,0,0,1500,1500,1500,1500,1500,1500
1747542045.8341293,-0.02,-0.03,0.0,0.001090830782496456,0.003272492347489368,-0.003272492347489368,1.6117837262986419,-0.2996643546670956,-0.31183631967955816,0,0,0,0,0,0,1500,1500,1500,1500,1500,1500
1747542045.852001,-0.02,-0.03,0.0,0.001090830782496456,0.003272492347489368,-0.003272492347489368,1.6117837262986419,-0.2996643546670956,-0.31183631967955816,0,0,0,0,0,0,1500,1500,1500,1500,1500,1500
1747542045.9159634,0.0,-0.01,-0.01,0.001090830782496456,0.006544984694978736,0.0,1.6117837262986419,-0.2996643546670956,-0.31183631967955816,0,0,0,0,0,0,1500,1500,1500,1500,1500,1500
1747542045.9204364,0.0,-0.01,-0.01,0.001090830782496456,0.006544984694978736,0.0,1.6117837262986419,-0.2996643546670956,-0.31183631967955816,0,0,0,0,0,0,1500,1500,1500,1500,1500,1500
1747542045.9599094,0.0,-0.01,0.01,-0.001090830782496456,0.003272492347489368,-0.001090830782496456,1.6117837262986419,-0.2996643546670956,-0.31183631967955816,0,0,0,0,0,0,1500,1500,1500,1500,1500,1500
1747542046.0202014,0.0,-0.02,0.01,-0.001090830782496456,0.006544984694978736,-0.001090830782496456,1.6117837262986419,-0.2996643546670956,-0.31183631967955816,0,0,0,0,0,0,1500,1500,1500,1500,1500,1500
1747542046.0262272,0.0,-0.02,0.01,-0.001090830782496456,0.006544984694978736,-0.001090830782496456,1.6117837262986419,-0.2996643546670956,-0.31183631967955816,0,0,0,0,0,0,1500,1500,1500,1500,1500,1500
1747542046.068356,0.01,0.0,0.0,0.002181661564992912,0.0,0.0,1.6117837262986419,-0.2996643546670956,-0.31183631967955816,0,0,0,0,0,0,1500,1500,1500,1500,1500,1500
1747542046.119834,-0.02,0.0,-0.04,-0.003272492347489368,-0.003272492347489368,0.002181661564992912,1.6117837262986419,-0.2996643546670956,-0.31183631967955816,0,0,0,0,0,0,1500,1500,1500,1500,1500,1500
1747542046.1272533,-0.02,0.0,-0.04,-0.003272492347489368,-0.003272492347489368,0.002181661564992912,1.6117837262986419,-0.2996643546670956,-0.31183631967955816,0,0,0,0,0,0,1500,1500,1500,1500,1500,1500
1747542046.1665947,-0.01,-0.04,0.0,-0.001090830782496456,0.00545415391248228,0.003272492347489368,1.6117837262986419,-0.2996643546670956,-0.31183631967955816,0,0,0,0,0,0,1500,1500,1500,1500,1500,1500
1747542046.2502515,0.0,-0.01,0.01,0.0,0.003272492347489368,0.002181661564992912,1.6117837262986419,-0.2996643546670956,-0.31183631967955816,0,0,0,0,0,0,1500,1500,1500,1500,1500,1500
1747542046.2788365,0.0,-0.01,0.01,0.0,0.003272492347489368,0.002181661564992912,1.6117837262986419,-0.2996643546670956,-0.31183631967955816,0,0,0,0,0,0,1500,1500,1500,1500,1500,1500
1747542046.3056743,0.0,-0.02,-0.03,0.0,0.001090830782496456,0.002181661564992912,1.6117837262986419,-0.2996643546670956,-0.31183631967955816,0,0,0,0,0,0,1500,1500,1500,1500,1500,1500
1747542046.3607996,0.0,-0.04,-0.01,0.001090830782496456,-0.003272492347489368,0.001090830782496456,1.6117837262986419,-0.2996643546670956,-0.31183631967955816,0,0,0,0,0,0,1500,1500,1500,1500,1500,1500
1747542046.3818152,-0.01,-0.03,0.01,0.0,-0.004363323129985824,0.003272492347489368,1.6117837262986419,-0.2996643546670956,-0.31183631967955816,0,0,0,0,0,0,1500,1500,1500,1500,1500,1500
1747542046.418068,-0.01,-0.03,0.01,0.0,-0.004363323129985824,0.003272492347489368,1.6117837262986419,-0.2996643546670956,-0.31183631967955816,0,0,0,0,0,0,1500,1500,1500,1500,1500,1500
1747542046.4477417,-0.02,-0.02,0.0,-0.001090830782496456,-0.003272492347489368,-0.001090830782496456,1.6117837262986419,-0.2996643546670956,-0.31183631967955816,0,0,0,0,0,0,1500,1500,1500,1500,1500,1500
1747542046.466002,-0.02,-0.02,0.0,-0.001090830782496456,-0.003272492347489368,-0.001090830782496456,1.6117837262986419,-0.2996643546670956,-0.31183631967955816,0,0,0,0,0,0,1500,1500,1500,1500,1500,1500
1747542046.5121586,0.0,-0.03,-0.02,-0.001090830782496456,-0.001090830782496456,-0.002181661564992912,1.6117837262986419,-0.2996643546670956,-0.31183631967955816,0,0,0,0,0,0,1500,1500,1500,1500,1500,1500
1747542046.5530913,0.0,-0.03,-0.02,-0.001090830782496456,-0.001090830782496456,-0.002181661564992912,1.6117837262986419,-0.2996643546670956,-0.31183631967955816,0,0,0,0,0,0,1500,1500,1500,1500,1500,1500
1747542046.5631516,-0.01,-0.03,0.0,0.002181661564992912,0.002181661564992912,-0.003272492347489368,1.6117837262986419,-0.2996643546670956,-0.31183631967955816,0,0,0,0,0,0,1500,1500,1500,1500,1500,1500
1747542046.6119502,-0.02,-0.03,0.0,-0.001090830782496456,0.001090830782496456,-0.002181661564992912,1.6117837262986419,-0.2996643546670956,-0.31183631967955816,0,0,0,0,0,0,1500,1500,1500,1500,1500,1500
1747542046.6483943,-0.02,-0.03,0.0,-0.001090830782496456,0.001090830782496456,-0.002181661564992912,1.6117837262986419,-0.2996643546670956,-0.31183631967955816,0,0,0,0,0,0,1500,1500,1500,1500,1500,1500
1747542046.6504862,-0.02,-0.03,0.0,-0.001090830782496456,0.001090830782496456,-0.002181661564992912,1.6117837262986419,-0.2996643546670956,-0.31183631967955816,0,0,0,0,0,0,1500,1500,1500,1500,1500,1500
1747542046.701333,0.0,-0.01,0.02,0.001090830782496456,-0.002181661564992912,-0.001090830782496456,1.6117837262986419,-0.2996643546670956,-0.31183631967955816,0,0,0,0,0,0,1500,1500,1500,1500,1500,1500
1747542046.7492101,0.01,0.0,0.0,-0.002181661564992912,0.0,0.001090830782496456,1.6117837262986419,-0.2996643546670956,-0.31183631967955816,0,0,0,0,0,0,1500,1500,1500,1500,1500,1500
1747542046.7513516,0.01,0.0,0.0,-0.002181661564992912,0.0,0.001090830782496456,1.6117837262986419,-0.2996643546670956,-0.31183631967955816,0,0,0,0,0,0,1500,1500,1500,1500,1500,1500
1747542046.8020475,0.0,0.0,-0.01,-0.001090830782496456,-0.001090830782496456,0.002181661564992912,1.6117837262986419,-0.2996643546670956,-0.31183631967955816,0,0,0,0,0,0,1500,1500,1500,1500,1500,1500
1747542046.8497353,-0.01,-0.01,-0.02,0.001090830782496456,0.001090830782496456,0.002181661564992912,1.6117837262986419,-0.2996643546670956,-0.31183631967955816,0,0,0,0,0,0,1500,1500,1500,1500,1500,1500
1747542046.8531651,-0.01,-0.01,-0.02,0.001090830782496456,0.001090830782496456,0.002181661564992912,1.6117837262986419,-0.2996643546670956,-0.31183631967955816,0,0,0,0,0,0,1500,1500,1500,1500,1500,1500
1747542046.8960705,-0.01,0.0,0.04,0.001090830782496456,0.0,0.002181661564992912,1.6117837262986419,-0.2996643546670956,-0.31183631967955816,0,0,0,0,0,0,1500,1500,1500,1500,1500,1500
1747542046.9506204,-0.01,0.0,0.04,0.001090830782496456,0.0,0.002181661564992912,1.6117837262986419,-0.2996643546670956,-0.31183631967955816,0,0,0,0,0,0,1500,1500,1500,1500,1500,1500
1747542046.9566298,-0.01,0.0,0.04,0.001090830782496456,0.0,0.002181661564992912,1.6117837262986419,-0.2996643546670956,-0.31183631967955816,0,0,0,0,0,0,1500,1500,1500,1500,1500,1500
1747542046.9849496,0.01,0.0,0.0,0.002181661564992912,0.002181661564992912,0.004363323129985824,1.6117837262986419,-0.2996643546670956,-0.31183631967955816,0,0,0,0,0,0,1500,1500,1500,1500,1500,1500
1747542047.053287,-0.02,0.0,-0.03,0.0,0.001090830782496456,0.001090830782496456,1.6117837262986419,-0.2996643546670956,-0.31183631967955816,0,0,0,0,0,0,1500,1500,1500,1500,1500,1500
1747542047.0580392,-0.02,0.0,-0.03,0.0,0.001090830782496456,0.001090830782496456,1.6117837262986419,-0.2996643546670956,-0.31183631967955816,0,0,0,0,0,0,1500,1500,1500,1500,1500,1500
1747542047.0849228,-0.02,-0.04,0.02,0.001090830782496456,0.001090830782496456,-0.001090830782496456,1.6117837262986419,-0.2996643546670956,-0.31183631967955816,0,0,0,0,0,0,1500,1500,1500,1500,1500,1500
1747542047.1663797,0.01,-0.01,-0.02,0.003272492347489368,0.0,-0.001090830782496456,1.6117837262986419,-0.2996643546670956,-0.31183631967955816,0,0,0,0,0,0,1500,1500,1500,1500,1500,1500
1747542047.1816583,0.01,-0.01,-0.02,0.003272492347489368,0.0,-0.001090830782496456,1.6117837262986419,-0.2996643546670956,-0.31183631967955816,0,0,0,0,0,0,1500,1500,1500,1500,1500,1500
1747542047.2123365,0.01,-0.01,-0.02,0.003272492347489368,0.0,-0.001090830782496456,1.6117837262986419,-0.2996643546670956,-0.31183631967955816,0,0,0,0,0,0,1500,1500,1500,1500,1500,1500
1747542047.2711978,-0.01,-0.02,-0.01,-0.002181661564992912,0.002181661564992912,-0.003272492347489368,1.6117837262986419,-0.2996643546670956,-0.31183631967955816,0,0,0,0,0,0,1500,1500,1500,1500,1500,1500
1747542047.285067,-0.01,-0.02,0.01,-0.002181661564992912,0.002181661564992912,-0.001090830782496456,1.6117837262986419,-0.2996643546670956,-0.31183631967955816,0,0,0,0,0,0,1500,1500,1500,1500,1500,1500
1747542047.3093512,0.0,-0.03,0.0,0.002181661564992912,-0.003272492347489368,-0.001090830782496456,1.6117837262986419,-0.2996643546670956,-0.31183631967955816,0,0,0,0,0,0,1500,1500,1500,1500,1500,1500
1747542047.3649683,0.0,-0.02,0.0,0.001090830782496456,-0.002181661564992912,-0.003272492347489368,1.6117837262986419,-0.2996643546670956,-0.31183631967955816,0,0,0,0,0,0,1500,1500,1500,1500,1500,1500
1747542047.38351,0.0,-0.02,0.0,0.001090830782496456,-0.002181661564992912,-0.003272492347489368,1.6117837262986419,-0.2996643546670956,-0.31183631967955816,0,0,0,0,0,0,1500,1500,1500,1500,1500,1500
1747542047.399519,0.0,-0.02,0.0,0.001090830782496456,-0.002181661564992912,-0.003272492347489368,1.6117837262986419,-0.2996643546670956,-0.31183631967955816,0,0,0,0,0,0,1500,1500,1500,1500,1500,1500
1747542047.4488564,0.0,-0.02,0.0,-0.004363323129985824,0.003272492347489368,-0.003272492347489368,1.6117837262986419,-0.2996643546670956,-0.31183631967955816,0,0,0,0,0,0,1500,1500,1500,1500,1500,1500
1747542047.4834247,0.01,0.0,-0.03,-0.002181661564992912,-0.001090830782496456,-0.00545415391248228,1.6117837262986419,-0.2996643546670956,-0.31183631967955816,0,0,0,0,0,0,1500,1500,1500,1500,1500,1500
1747542047.500315,0.01,0.0,-0.03,-0.002181661564992912,-0.001090830782496456,-0.00545415391248228,1.6117837262986419,-0.2996643546670956,-0.31183631967955816,0,0,0,0,0,0,1500,1500,1500,1500,1500,1500
1747542047.5474362,-0.03,-0.04,0.01,0.001090830782496456,-0.003272492347489368,-0.001090830782496456,1.6117837262986419,-0.2996643546670956,-0.31183631967955816,0,0,0,0,0,0,1500,1500,1500,1500,1500,1500
1747542047.5837355,-0.03,-0.04,0.01,0.001090830782496456,-0.003272492347489368,-0.001090830782496456,1.6117837262986419,-0.2996643546670956,-0.31183631967955816,0,0,0,0,0,0,1500,1500,1500,1500,1500,1500
1747542047.5931535,0.01,-0.01,0.0,-0.003272492347489368,0.0,0.001090830782496456,1.6117837262986419,-0.2996643546670956,-0.31183631967955816,0,0,0,0,0,0,1500,1500,1500,1500,1500,1500
1747542047.6493754,0.01,-0.01,0.0,-0.003272492347489368,0.0,0.001090830782496456,1.6117837262986419,-0.2996643546670956,-0.31183631967955816,0,0,0,0,0,0,1500,1500,1500,1500,1500,1500
1747542047.6798427,0.02,0.0,-0.03,-0.002181661564992912,0.001090830782496456,0.001090830782496456,1.6117837262986419,-0.2996643546670956,-0.31183631967955816,0,0,0,0,0,0,1500,1500,1500,1500,1500,1500
1747542047.6830766,0.02,0.0,-0.03,-0.002181661564992912,0.001090830782496456,0.001090830782496456,1.6117837262986419,-0.2996643546670956,-0.31183631967955816,0,0,0,0,0,0,1500,1500,1500,1500,1500,1500
1747542047.748519,-0.01,-0.03,-0.01,0.0,0.001090830782496456,0.003272492347489368,1.6117837262986419,-0.2996643546670956,-0.31183631967955816,0,0,0,0,0,0,1500,1500,1500,1500,1500,1500
1747542047.7850857,-0.01,-0.03,-0.01,0.0,0.001090830782496456,0.003272492347489368,1.6117837262986419,-0.2996643546670956,-0.31183631967955816,0,0,0,0,0,0,1500,1500,1500,1500,1500,1500
1747542047.7871726,-0.01,-0.03,-0.01,0.0,0.001090830782496456,0.003272492347489368,1.6117837262986419,-0.2996643546670956,-0.31183631967955816,0,0,0,0,0,0,1500,1500,1500,1500,1500,1500
1747542047.8429554,-0.01,0.0,0.0,0.001090830782496456,0.0,0.002181661564992912,1.6117837262986419,-0.2996643546670956,-0.31183631967955816,0,0,0,0,0,0,1500,1500,1500,1500,1500,1500
1747542047.883668,-0.01,0.0,0.0,0.001090830782496456,0.0,0.002181661564992912,1.6117837262986419,-0.2996643546670956,-0.31183631967955816,0,0,0,0,0,0,1500,1500,1500,1500,1500,1500
1747542047.8863854,-0.01,0.0,0.0,0.001090830782496456,0.0,0.002181661564992912,1.6117837262986419,-0.2996643546670956,-0.31183631967955816,0,0,0,0,0,0,1500,1500,1500,1500,1500,1500
1747542047.933614,0.0,-0.01,0.0,-0.002181661564992912,-0.002181661564992912,0.003272492347489368,1.6117837262986419,-0.2996643546670956,-0.31183631967955816,0,0,0,0,0,0,1500,1500,1500,1500,1500,1500
1747542047.982265,0.0,-0.01,-0.04,-0.002181661564992912,0.0,0.004363323129985824,1.6117837262986419,-0.2996643546670956,-0.31183631967955816,0,0,0,0,0,0,1500,1500,1500,1500,1500,1500
1747542047.9862483,0.0,-0.01,-0.04,-0.002181661564992912,0.0,0.004363323129985824,1.6117837262986419,-0.2996643546670956,-0.31183631967955816,0,0,0,0,0,0,1500,1500,1500,1500,1500,1500
1747542048.0320795,0.0,-0.04,0.0,-0.001090830782496456,-0.004363323129985824,0.002181661564992912,1.6117837262986419,-0.2996643546670956,-0.31183631967955816,0,0,0,0,0,0,1500,1500,1500,1500,1500,1500
1747542048.0823264,0.01,0.0,0.0,0.001090830782496456,0.001090830782496456,0.003272492347489368,1.6117837262986419,-0.2996643546670956,-0.31183631967955816,0,0,0,0,0,0,1500,1500,1500,1500,1500,1500
1747542048.0850077,0.01,0.0,0.0,0.001090830782496456,0.001090830782496456,0.003272492347489368,1.6117837262986419,-0.2996643546670956,-0.31183631967955816,0,0,0,0,0,0,1500,1500,1500,1500,1500,1500
1747542048.1327538,-0.01,-0.04,-0.01,0.001090830782496456,-0.006544984694978736,0.001090830782496456,1.6117837262986419,-0.2996643546670956,-0.31183631967955816,0,0,0,0,0,0,1500,1500,1500,1500,1500,1500
1747542048.1665647,0.0,-0.03,-0.05,0.0,-0.004363323129985824,0.001090830782496456,1.6117837262986419,-0.2996643546670956,-0.31183631967955816,0,0,0,0,0,0,1500,1500,1500,1500,1500,1500
1747542048.1850977,0.0,-0.03,-0.05,0.0,-0.004363323129985824,0.001090830782496456,1.6117837262986419,-0.2996643546670956,-0.31183631967955816,0,0,0,0,0,0,1500,1500,1500,1500,1500,1500
1747542048.2330565,0.0,-0.04,0.02,0.0,0.003272492347489368,-0.001090830782496456,1.6117837262986419,-0.2996643546670956,-0.31183631967955816,0,0,0,0,0,0,1500,1500,1500,1500,1500,1500
1747542048.263943,0.0,-0.04,0.02,0.0,0.003272492347489368,-0.001090830782496456,1.6117837262986419,-0.2996643546670956,-0.31183631967955816,0,0,0,0,0,0,1500,1500,1500,1500,1500,1500
1747542048.283465,0.0,-0.04,0.02,0.0,0.003272492347489368,-0.001090830782496456,1.6117837262986419,-0.2996643546670956,-0.31183631967955816,0,0,0,0,0,0,1500,1500,1500,1500,1500,1500
1747542048.3314164,0.0,-0.03,0.01,0.003272492347489368,0.00545415391248228,-0.004363323129985824,1.6117837262986419,-0.2996643546670956,-0.31183631967955816,0,0,0,0,0,0,1500,1500,1500,1500,1500,1500
1747542048.3674376,0.0,-0.03,0.01,0.003272492347489368,0.00545415391248228,-0.004363323129985824,1.6117837262986419,-0.2996643546670956,-0.31183631967955816,0,0,0,0,0,0,1500,1500,1500,1500,1500,1500
1747542048.3694713,0.0,-0.03,0.01,0.003272492347489368,0.00545415391248228,-0.004363323129985824,1.6117837262986419,-0.2996643546670956,-0.31183631967955816,0,0,0,0,0,0,1500,1500,1500,1500,1500,1500
1747542048.417568,0.0,-0.05,0.02,0.001090830782496456,0.002181661564992912,-0.00545415391248228,1.6117837262986419,-0.2996643546670956,-0.31183631967955816,0,0,0,0,0,0,1500,1500,1500,1500,1500,1500
1747542048.4672565,-0.01,-0.02,0.02,0.002181661564992912,0.003272492347489368,-0.008726646259971648,1.6117837262986419,-0.2996643546670956,-0.31183631967955816,0,0,0,0,0,0,1500,1500,1500,1500,1500,1500
1747542048.4717386,-0.01,-0.02,0.02,0.002181661564992912,0.003272492347489368,-0.008726646259971648,1.6117837262986419,-0.2996643546670956,-0.31183631967955816,0,0,0,0,0,0,1500,1500,1500,1500,1500,1500
1747542048.5195115,-0.01,-0.03,0.0,0.001090830782496456,0.002181661564992912,-0.009817477042468103,1.6117837262986419,-0.2996643546670956,-0.31183631967955816,0,0,0,0,0,0,1500,1500,1500,1500,1500,1500
1747542048.5666366,-0.02,0.0,0.01,0.003272492347489368,0.002181661564992912,-0.006544984694978736,1.6117837262986419,-0.2996643546670956,-0.31183631967955816,0,0,0,0,0,0,1500,1500,1500,1500,1500,1500
1747542048.5745819,-0.02,0.0,0.01,0.003272492347489368,0.002181661564992912,-0.006544984694978736,1.6117837262986419,-0.2996643546670956,-0.31183631967955816,0,0,0,0,0,0,1500,1500,1500,1500,1500,1500
1747542048.6173496,0.0,-0.02,-0.02,0.001090830782496456,0.001090830782496456,-0.002181661564992912,1.6117837262986419,-0.2996643546670956,-0.31183631967955816,0,0,0,0,0,0,1500,1500,1500,1500,1500,1500
1747542048.6650162,-0.02,0.0,-0.02,-0.003272492347489368,0.001090830782496456,-0.003272492347489368,1.6117837262986419,-0.2996643546670956,-0.31183631967955816,0,0,0,0,0,0,1500,1500,1500,1500,1500,1500
1747542048.6672769,-0.02,0.0,-0.02,-0.003272492347489368,0.001090830782496456,-0.003272492347489368,1.6117837262986419,-0.2996643546670956,-0.31183631967955816,0,0,0,0,0,0,1500,1500,1500,1500,1500,1500
1747542048.713644,0.01,-0.01,0.03,0.0,-0.003272492347489368,0.003272492347489368,1.6117837262986419,-0.2996643546670956,-0.31183631967955816,0,0,0,0,0,0,1500,1500,1500,1500,1500,1500
1747542048.7649941,0.0,0.0,0.0,0.001090830782496456,-0.01090830782496456,0.004363323129985824,1.6118369728448063,-0.2996649239282965,-0.3120210365695738,0,0,0,0,0,0,1500,1500,1500,1500,1500,1500
1747542048.767066,0.0,0.0,0.0,0.001090830782496456,-0.01090830782496456,0.004363323129985824,1.6118369728448063,-0.2996649239282965,-0.3120210365695738,0,0,0,0,0,0,1500,1500,1500,1500,1500,1500
1747542048.8153152,0.0,0.0,0.0,0.001090830782496456,-0.01090830782496456,0.004363323129985824,1.6118369728448063,-0.2996649239282965,-0.3120210365695738,0,0,0,0,0,0,1500,1500,1500,1500,1500,1500
1747542048.8660889,-0.01,0.0,-0.01,-0.004363323129985824,-0.001090830782496456,0.00545415391248228,1.6118369728448063,-0.2996649239282965,-0.3120210365695738,0,0,0,0,0,0,1500,1500,1500,1500,1500,1500
1747542048.8688362,-0.01,0.0,-0.01,-0.004363323129985824,-0.001090830782496456,0.00545415391248228,1.6118369728448063,-0.2996649239282965,-0.3120210365695738,0,0,0,0,0,0,1500,1500,1500,1500,1500,1500
1747542048.913297,-0.01,0.0,-0.01,-0.004363323129985824,-0.001090830782496456,0.00545415391248228,1.6118369728448063,-0.2996649239282965,-0.3120210365695738,0,0,0,0,0,0,1500,1500,1500,1500,1500,1500
1747542048.9630663,0.01,-0.02,0.01,0.002181661564992912,-0.006544984694978736,0.007635815477475192,1.611894964296258,-0.2997262643589189,-0.3121214834274118,0,0,0,0,0,0,1500,1500,1500,1500,1500,1500
1747542048.966514,0.01,-0.02,0.01,0.002181661564992912,-0.006544984694978736,0.007635815477475192,1.611894964296258,-0.2997262643589189,-0.3121214834274118,0,0,0,0,0,0,1500,1500,1500,1500,1500,1500
1747542048.9980118,0.02,-0.04,-0.03,0.002181661564992912,-0.003272492347489368,0.00545415391248228,1.611894964296258,-0.2997262643589189,-0.3121214834274118,0,0,0,0,0,0,1500,1500,1500,1500,1500,1500
1747542049.0650883,0.0,0.0,0.0,0.001090830782496456,0.003272492347489368,0.001090830782496456,1.611894964296258,-0.2997262643589189,-0.3121214834274118,0,0,0,0,0,0,1500,1500,1500,1500,1500,1500
1747542049.067858,0.0,0.0,0.0,0.001090830782496456,0.003272492347489368,0.001090830782496456,1.611894964296258,-0.2997262643589189,-0.3121214834274118,0,0,0,0,0,0,1500,1500,1500,1500,1500,1500
1747542049.0919561,-0.01,-0.03,0.0,0.001090830782496456,0.001090830782496456,0.0,1.611894964296258,-0.2997262643589189,-0.3121214834274118,0,0,0,0,0,0,1500,1500,1500,1500,1500,1500
1747542049.163596,-0.01,-0.03,0.02,0.001090830782496456,0.003272492347489368,-0.003272492347489368,1.611894964296258,-0.2997262643589189,-0.3121214834274118,0,0,0,0,0,0,1500,1500,1500,1500,1500,1500
1747542049.1661832,-0.01,-0.03,0.02,0.001090830782496456,0.003272492347489368,-0.003272492347489368,1.611894964296258,-0.2997262643589189,-0.3121214834274118,0,0,0,0,0,0,1500,1500,1500,1500,1500,1500
1747542049.1962152,-0.01,-0.03,0.02,0.001090830782496456,0.003272492347489368,-0.003272492347489368,1.611894964296258,-0.2997262643589189,-0.3121214834274118,0,0,0,0,0,0,1500,1500,1500,1500,1500,1500
1747542049.2640572,-0.01,-0.03,0.02,0.001090830782496456,0.003272492347489368,-0.003272492347489368,1.611894964296258,-0.2997262643589189,-0.3121214834274118,0,0,0,0,0,0,1500,1500,1500,1500,1500,1500
1747542049.266289,-0.01,-0.03,0.02,0.001090830782496456,0.003272492347489368,-0.003272492347489368,1.611894964296258,-0.2997262643589189,-0.3121214834274118,0,0,0,0,0,0,1500,1500,1500,1500,1500,1500
1747542049.2994692,-0.01,-0.02,0.04,-0.002181661564992912,0.001090830782496456,-0.002181661564992912,1.611894964296258,-0.2997262643589189,-0.3121214834274118,0,0,0,0,0,0,1500,1500,1500,1500,1500,1500
1747542049.3676314,0.0,-0.02,-0.04,-0.001090830782496456,0.003272492347489368,-0.006544984694978736,1.611894964296258,-0.2997262643589189,-0.3121214834274118,0,0,0,0,0,0,1500,1500,1500,1500,1500,1500
1747542049.3729994,0.0,-0.02,-0.04,-0.001090830782496456,0.003272492347489368,-0.006544984694978736,1.611894964296258,-0.2997262643589189,-0.3121214834274118,0,0,0,0,0,0,1500,1500,1500,1500,1500,1500
1747542049.385048,-0.02,-0.02,0.02,-0.001090830782496456,0.002181661564992912,-0.003272492347489368,1.611894964296258,-0.2997262643589189,-0.3121214834274118,0,0,0,0,0,0,1500,1500,1500,1500,1500,1500
1747542049.4661412,-0.02,-0.01,0.0,-0.002181661564992912,0.0,-0.00545415391248228,1.611894964296258,-0.2997262643589189,-0.3121214834274118,0,0,0,0,0,0,1500,1500,1500,1500,1500,1500
1747542049.4695404,-0.02,-0.01,0.0,-0.002181661564992912,0.0,-0.00545415391248228,1.611894964296258,-0.2997262643589189,-0.3121214834274118,0,0,0,0,0,0,1500,1500,1500,1500,1500,1500
1747542049.485099,-0.02,-0.01,0.0,-0.002181661564992912,0.0,-0.00545415391248228,1.611894964296258,-0.2997262643589189,-0.3121214834274118,0,0,0,0,0,0,1500,1500,1500,1500,1500,1500
1747542049.5650232,0.0,-0.01,-0.01,-0.003272492347489368,0.0,0.002181661564992912,1.611894964296258,-0.2997262643589189,-0.3121214834274118,0,0,0,0,0,0,1500,1500,1500,1500,1500,1500
1747542049.5674493,0.0,-0.01,-0.01,-0.003272492347489368,0.0,0.002181661564992912,1.611894964296258,-0.2997262643589189,-0.3121214834274118,0,0,0,0,0,0,1500,1500,1500,1500,1500,1500
1747542049.5820117,0.0,-0.01,-0.01,-0.003272492347489368,0.0,0.002181661564992912,1.611894964296258,-0.2997262643589189,-0.3121214834274118,0,0,0,0,0,0,1500,1500,1500,1500,1500,1500
1747542049.6654148,-0.01,-0.02,0.0,-0.001090830782496456,0.002181661564992912,0.002181661564992912,1.611894964296258,-0.2997262643589189,-0.3121214834274118,0,0,0,0,0,0,1500,1500,1500,1500,1500,1500
1747542049.6693888,-0.01,-0.02,0.0,-0.001090830782496456,0.002181661564992912,0.002181661564992912,1.611894964296258,-0.2997262643589189,-0.3121214834274118,0,0,0,0,0,0,1500,1500,1500,1500,1500,1500
1747542049.6735775,-0.01,-0.02,0.0,-0.001090830782496456,0.002181661564992912,0.002181661564992912,1.611894964296258,-0.2997262643589189,-0.3121214834274118,0,0,0,0,0,0,1500,1500,1500,1500,1500,1500
1747542049.7650368,-0.01,0.0,-0.03,-0.001090830782496456,-0.002181661564992912,0.002181661564992912,1.611894964296258,-0.2997262643589189,-0.3121214834274118,0,0,0,0,0,0,1500,1500,1500,1500,1500,1500
1747542049.7683797,-0.01,0.0,-0.03,-0.001090830782496456,-0.002181661564992912,0.002181661564992912,1.611894964296258,-0.2997262643589189,-0.3121214834274118,0,0,0,0,0,0,1500,1500,1500,1500,1500,1500
1747542049.772765,-0.01,0.0,-0.03,-0.001090830782496456,-0.002181661564992912,0.002181661564992912,1.611894964296258,-0.2997262643589189,-0.3121214834274118,0,0,0,0,0,0,1500,1500,1500,1500,1500,1500
1747542049.8561702,0.0,0.0,-0.04,-0.003272492347489368,-0.003272492347489368,0.001090830782496456,1.611894964296258,-0.2997262643589189,-0.3121214834274118,0,0,0,0,0,0,1500,1500,1500,1500,1500,1500
1747542049.8606327,0.0,0.0,-0.04,-0.003272492347489368,-0.003272492347489368,0.001090830782496456,1.611894964296258,-0.2997262643589189,-0.3121214834274118,0,0,0,0,0,0,1500,1500,1500,1500,1500,1500
1747542049.8677084,-0.02,0.0,0.0,-0.001090830782496456,0.002181661564992912,0.001090830782496456,1.611894964296258,-0.2997262643589189,-0.3121214834274118,0,0,0,0,0,0,1500,1500,1500,1500,1500,1500
1747542049.9613426,-0.01,-0.01,-0.03,-0.003272492347489368,-0.003272492347489368,0.001090830782496456,1.611894964296258,-0.2997262643589189,-0.3121214834274118,0,0,2.639319,0,0,0,1539,1539,1460,1500,1460,1460
1747542049.9653766,-0.01,-0.01,-0.03,-0.003272492347489368,-0.003272492347489368,0.001090830782496456,1.611894964296258,-0.2997262643589189,-0.3121214834274118,0,0,2.639319,0,0,0,1539,1539,1457,1500,1420,1420
1747542049.969856,-0.01,-0.01,-0.03,-0.003272492347489368,-0.003272492347489368,0.001090830782496456,1.611894964296258,-0.2997262643589189,-0.3121214834274118,0,0,2.639319,0,0,0,1539,1539,1457,1500,1380,1380
1747542050.065196,0.0,-0.03,0.02,-0.001090830782496456,0.0,0.002181661564992912,1.611894964296258,-0.2997262643589189,-0.3121214834274118,0,0,7.5,0,0,0,1539,1539,1457,1500,1354,1357
1747542050.0685396,0.0,-0.03,0.02,-0.001090830782496456,0.0,0.002181661564992912,1.611894964296258,-0.2997262643589189,-0.3121214834274118,0,0,7.5,0,0,0,1539,1539,1457,1500,1354,1357
1747542050.0729115,0.0,-0.03,0.02,-0.001090830782496456,0.0,0.002181661564992912,1.611894964296258,-0.2997262643589189,-0.3121214834274118,0,0,7.5,0,0,0,1539,1539,1457,1500,1354,1357
1747542050.1632056,-0.02,-0.05,0.02,0.003272492347489368,0.00545415391248228,0.003272492347489368,1.611894964296258,-0.2997262643589189,-0.3121214834274118,0,0,7.5,0,0,0,1539,1539,1457,1500,1354,1357
1747542050.1674483,-0.02,-0.05,0.02,0.003272492347489368,0.00545415391248228,0.003272492347489368,1.611894964296258,-0.2997262643589189,-0.3121214834274118,0,0,7.5,0,0,0,1539,1539,1457,1500,1354,1357
1747542050.1707082,-0.02,-0.05,0.02,0.003272492347489368,0.00545415391248228,0.003272492347489368,1.611894964296258,-0.2997262643589189,-0.3121214834274118,0,0,7.5,0,0,0,1539,1539,1457,1500,1354,1357
1747542050.2902534,-0.14,0.0,0.02,-0.037088246604879506,-0.007635815477475192,0.007635815477475192,1.6101919091701027,-0.30008707038587995,-0.3119628356165131,0,0,7.5,0,0,0,1539,1539,1457,1500,1354,1357
1747542050.3189907,-0.14,0.0,0.02,-0.037088246604879506,-0.007635815477475192,0.007635815477475192,1.6101919091701027,-0.30008707038587995,-0.3119628356165131,0,0,7.5,0,0,0,1539,1539,1457,1500,1354,1357
1747542050.3363001,-0.14,0.0,0.02,-0.037088246604879506,-0.007635815477475192,0.007635815477475192,1.6101919091701027,-0.30008707038587995,-0.3119628356165131,0,0,7.5,0,0,0,1539,1539,1457,1500,1354,1357
1747542050.4014485,0.13,0.44,0.26,-0.21925698728178766,-0.0272707695624114,0.04036073895236887,1.6040999285989843,-0.3018550922760447,-0.3138351879764718,0,0,7.5,0,0,0,1539,1539,1457,1500,1354,1357
1747542050.4024754,0.13,0.44,0.26,-0.21925698728178766,-0.0272707695624114,0.04036073895236887,1.6040999285989843,-0.3018550922760447,-0.3138351879764718,0,0,7.5,0,0,0,1539,1539,1457,1500,1354,1357
1747542050.446797,0.13,0.44,0.26,-0.21925698728178766,-0.0272707695624114,0.04036073895236887,1.6040999285989843,-0.3018550922760447,-0.3138351879764718,0,0,5.859133,0,0,0,1539,1539,1457,1500,1354,1357
1747542050.4996588,0.15,0.09,0.19,-0.6119560689805118,-0.003272492347489368,0.037088246604879506,1.5747737840129559,-0.30388884287619816,-0.3144241679097222,0,0,0.162539,0,0,0,1536,1536,1463,1500,1394,1397
1747542050.5051079,0.15,0.09,0.19,-0.6119560689805118,-0.003272492347489368,0.037088246604879506,1.5747737840129559,-0.30388884287619816,-0.3144241679097222,0,0,0.162539,0,0,0,1536,1536,1463,1500,1434,1437
1747542050.5502107,0.14,0.02,0.12,-0.8693921336496754,0.015271630954950384,0.04690572364734761,1.5248890265636832,-0.30674687830581404,-0.3139459089998465,0,0,0,0,0,0,1500,1500,1500,1500,1474,1477
1747542050.5984297,0.14,0.02,0.12,-0.8693921336496754,0.015271630954950384,0.04690572364734761,1.5248890265636832,-0.30674687830581404,-0.3139459089998465,0,0,0,0,0,0,1500,1500,1500,1500,1500,1500
1747542050.6017914,0.14,0.02,0.12,-0.8693921336496754,0.015271630954950384,0.04690572364734761,1.5248890265636832,-0.30674687830581404,-0.3139459089998465,0,0,0,0,0,0,1500,1500,1500,1500,1500,1500
1747542050.6403613,-0.15,-0.02,-0.32,-0.8279405639148101,0.017453292519943295,0.05890486225480862,1.3761428653744694,-0.31596145903461725,-0.3102866116453362,0,0,0,0,0,0,1500,1500,1500,1500,1500,1500
1747542050.6837597,-0.22,0.01,-0.38,-0.9315694882519734,0.009817477042468103,0.07090400086226964,1.4014338268261408,-0.31439853377554544,-0.31102994765576303,0,0,0,0,0,0,1500,1500,1500,1500,1500,1500
1747542050.6985292,-0.22,0.01,-0.38,-0.9315694882519734,0.009817477042468103,0.07090400086226964,1.4014338268261408,-0.31439853377554544,-0.31102994765576303,0,0,0,0,0,0,1500,1500,1500,1500,1500,1500
1747542050.732592,-0.22,0.01,-0.38,-0.9315694882519734,0.009817477042468103,0.07090400086226964,1.4014338268261408,-0.31439853377554544,-0.31102994765576303,0,0,0,0,0,0,1500,1500,1500,1500,1500,1500
1747542050.786105,-0.22,-0.05,-0.13,-0.581412807070611,0.004363323129985824,0.06654067773228381,1.316161935784422,-0.3212949050752733,-0.3081757945741643,0,0,0,0,0,0,1500,1500,1500,1500,1500,1500
1747542050.7975774,-0.22,-0.05,-0.13,-0.581412807070611,0.004363323129985824,0.06654067773228381,1.316161935784422,-0.3212949050752733,-0.3081757945741643,0,0,0,0,0,0,1500,1500,1500,1500,1500,1500
1747542050.833735,0.11,-0.08,-0.22,-0.5061454830783556,-0.00545415391248228,0.07526732399225546,1.2951886965759372,-0.32413009483656086,-0.3072077269401954,0,0,3.81579,0,0,0,1539,1539,1460,1500,1460,1460
1747542050.8808172,0.11,-0.08,-0.22,-0.5061454830783556,-0.00545415391248228,0.07526732399225546,1.2951886965759372,-0.32413009483656086,-0.3072077269401954,0,0,7.5,0,0,0,1539,1539,1457,1500,1420,1420
1747542050.8957949,0.0,-0.13,-0.05,-0.33597588100890846,-0.014180800172453928,0.0545415391248228,1.2508982098050694,-0.3311078869889027,-0.30594839529767415,0,0,7.5,0,0,0,1539,1539,1457,1500,1380,1380
1747542050.9342687,0.01,-0.09,-0.1,-0.36106498900632694,-0.013089969389957472,0.061086523819801536,1.2542274637173916,-0.3305055655441534,-0.3059642736913733,0,0,7.5,0,0,0,1539,1539,1457,1500,1354,1357
1747542050.9671834,0.01,-0.09,-0.1,-0.36106498900632694,-0.013089969389957472,0.061086523819801536,1.2542274637173916,-0.3305055655441534,-0.3059642736913733,0,0,7.5,0,0,0,1539,1539,1457,1500,1354,1357
1747542050.985275,-0.01,-0.11,-0.1,-0.2814343418840856,-0.016362461737446838,0.039269908169872414,-2.529306481486661,-0.4524634837286215,0.5862457752225658,0,0,7.5,0,0,0,1539,1539,1457,1500,1354,1357
1747542051.0308993,0.88,0.01,-0.33,-0.17998707911191522,-0.009817477042468103,0.025089107997418487,1.2148119448783126,-0.3363196823539798,-0.306632404013085,0,0,7.5,0,0,0,1539,1539,1457,1500,1354,1357
1747542051.0661573,-0.6,-0.2,-0.05,-0.20180369476184434,-0.018544123302439753,0.025089107997418487,1.2202176264926772,-0.33576775484005605,-0.3066725883577145,0,0,7.5,0,0,0,1539,1539,1457,1500,1354,1357
1747542051.0828416,-0.6,-0.2,-0.05,-0.20180369476184434,-0.018544123302439753,0.025089107997418487,1.2202176264926772,-0.33576775484005605,-0.3066725883577145,0,0,7.5,0,0,0,1539,1539,1457,1500,1354,1357
1747542051.125484,0.55,-0.33,-0.43,-0.1090830782496456,-0.01090830782496456,0.022907446432425576,1.208173525142845,-0.33664103867725087,-0.30671865100576196,0,0,7.5,0,0,0,1539,1539,1457,1500,1354,1357
1747542051.1535056,0.59,-0.54,-0.11,-0.04036073895236887,-0.01090830782496456,0.020725784867432664,1.2044623544008275,-0.3371745417314397,-0.30683058943603864,0,0,7.5,0,0,0,1539,1539,1457,1500,1354,1357
1747542051.1667519,0.59,-0.54,-0.11,-0.04036073895236887,-0.01090830782496456,0.020725784867432664,1.2044623544008275,-0.3371745417314397,-0.30683058943603864,0,0,7.5,0,0,0,1539,1539,1457,1500,1354,1357
1747542051.2152548,-0.65,0.0,0.06,-0.02945243112740431,-0.009817477042468103,0.032724923474893676,1.204901153116308,-0.3371740680236499,-0.30680212198980206,0,0,7.5,0,0,0,1539,1539,1457,1500,1354,1357
1747542051.2503483,-0.65,0.0,0.06,-0.02945243112740431,-0.009817477042468103,0.032724923474893676,1.204901153116308,-0.3371740680236499,-0.30680212198980206,0,0,7.5,0,0,0,1539,1539,1457,1500,1354,1357
1747542051.266488,-0.65,0.0,0.06,-0.02945243112740431,-0.009817477042468103,0.032724923474893676,1.204901153116308,-0.3371740680236499,-0.30680212198980206,0,0,7.5,0,0,0,1539,1539,1457,1500,1354,1357
1747542051.3158185,0.32,-0.49,0.15,-0.0272707695624114,-0.002181661564992912,0.016362461737446838,1.201743072875942,-0.33820366043057387,-0.30682005177352206,0,0,7.5,0,0,0,1539,1539,1457,1500,1354,1357
1747542051.3486164,0.0,0.16,0.3,-0.21380283336930536,0.004363323129985824,0.016362461737446838,1.1952801753665816,-0.33951140172596805,-0.30641228760016187,0,0,7.5,0,0,0,1539,1539,1457,1500,1354,1357
1747542051.3683858,0.0,0.16,0.3,-0.21380283336930536,0.004363323129985824,0.016362461737446838,1.1952801753665816,-0.33951140172596805,-0.30641228760016187,0,0,7.5,0,0,0,1539,1539,1457,1500,1354,1357
1747542051.416127,0.05,-0.08,0.13,-0.5825036378531074,0.03490658503988659,-0.008726646259971648,1.158348806927261,-0.33908463549446294,-0.3049032579738555,0,0,7.5,0,0,0,1539,1539,1457,1500,1354,1357
1747542051.4503431,0.04,-0.03,0.1,-0.5519603759432067,0.028361600344907856,-0.006544984694978736,1.163696985861014,-0.3391583949156992,-0.30508548280924924,0,0,7.5,0,0,0,1539,1539,1457,1500,1354,1357
1747542051.46607,0.04,-0.03,0.1,-0.5519603759432067,0.028361600344907856,-0.006544984694978736,1.163696985861014,-0.3391583949156992,-0.30508548280924924,0,0,7.5,0,0,0,1539,1539,1457,1500,1354,1357
1747542051.5152395,0.28,-0.21,-0.03,-0.7308566242726255,0.061086523819801536,-0.01090830782496456,1.1196955872595014,-0.3376472623802188,-0.3023947297520653,0,0,7.5,0,0,0,1539,1539,1457,1500,1354,1357
1747542051.5493412,-0.21,-0.26,-0.17,-0.8530296719122286,0.08617563181722002,-0.0272707695624114,1.0487147172262663,-0.33364666887564004,-0.2972636604709415,0,0,7.5,0,0,0,1539,1539,1457,1500,1354,1357
1747542051.567567,0.04,0.07,-0.17,-0.8137597637423561,0.0719948316447661,-0.013089969389957472,1.0737892384287766,-0.33534871292522567,-0.2992114536531048,0,0,7.5,0,0,0,1539,1539,1457,1500,1354,1357
1747542051.6169002,0.04,0.07,-0.17,-0.8137597637423561,0.0719948316447661,-0.013089969389957472,1.0737892384287766,-0.33534871292522567,-0.2992114536531048,0,0,7.5,0,0,0,1539,1539,1457,1500,1354,1357
1747542051.650443,0.04,0.07,-0.17,-0.8137597637423561,0.0719948316447661,-0.013089969389957472,1.0737892384287766,-0.33534871292522567,-0.2992114536531048,0,0,7.5,0,0,0,1539,1539,1457,1500,1354,1357
1747542051.6538439,0.04,0.07,-0.17,-0.8137597637423561,0.0719948316447661,-0.013089969389957472,1.0737892384287766,-0.33534871292522567,-0.2992114536531048,0,0,7.5,0,0,0,1539,1539,1457,1500,1354,1357
1747542051.7156868,-0.01,-0.15,-0.19,-0.9522952731194061,0.13962634015954636,-0.061086523819801536,0.9312216567378255,-0.3217796813055031,-0.2880552030214757,0,0,7.5,0,0,0,1539,1539,1457,1500,1354,1357
1747542051.750838,-0.01,-0.15,-0.19,-0.9522952731194061,0.13962634015954636,-0.061086523819801536,0.9312216567378255,-0.3217796813055031,-0.2880552030214757,0,0,7.5,0,0,0,1539,1539,1457,1500,1354,1357
1747542051.7563636,-0.01,-0.15,-0.19,-0.9522952731194061,0.13962634015954636,-0.061086523819801536,0.9312216567378255,-0.3217796813055031,-0.2880552030214757,0,0,7.5,0,0,0,1539,1539,1457,1500,1354,1357
1747542051.818641,-0.17,-0.04,-0.15,-0.9915651812892785,0.18762289458939044,-0.07417649320975901,0.8344093465337099,-0.3063871639242941,-0.27938756798987624,0,0,7.5,0,0,0,1539,1539,1457,1500,1354,1357
1747542051.8494937,0.01,0.04,-0.12,-0.9926560120717749,0.20507618710933373,-0.07853981633974483,0.8146193492440077,-0.3025922547573645,-0.27749857099725644,0,0,7.5,0,0,0,1539,1539,1457,1500,1354,1357
1747542051.863691,0.01,0.04,-0.12,-0.9926560120717749,0.20507618710933373,-0.07853981633974483,0.8146193492440077,-0.3025922547573645,-0.27749857099725644,0,0,7.5,0,0,0,1539,1539,1457,1500,1354,1357
1747542051.9130855,-0.16,-0.21,-0.21,-0.9992009967667537,0.2203478180642841,-0.0818123086872342,0.7749966043129854,-0.29439602768290213,-0.27389502915276964,0,0,7.5,0,0,0,1539,1539,1457,1500,1354,1357
1747542051.9465702,-0.15,-0.06,-0.13,-0.9937468428542714,0.29343348049154666,-0.09053895494720585,0.6554484382902986,-0.26435221254348285,-0.26128338019568254,0,0,7.5,0,0,0,1539,1539,1457,1500,1354,1357
1747542051.9487507,-0.15,-0.06,-0.13,-0.9937468428542714,0.29343348049154666,-0.09053895494720585,0.6554484382902986,-0.26435221254348285,-0.26128338019568254,0,0,7.5,0,0,0,1539,1539,1457,1500,1354,1357
1747542052.019021,0.13,-0.04,-0.27,-1.0013826583317467,0.2716168648416175,-0.08508480103472356,0.6953562780031677,-0.27528026043581916,-0.2655828273262649,0,0,7.5,0,0,0,1539,1539,1457,1500,1354,1357
1747542052.0518606,-0.1,-0.14,-0.27,-0.9893835197242855,0.31306843457648287,-0.08835729338221293,0.6159037732661335,-0.25282002061538333,-0.25675619162784546,0,0,7.5,0,0,0,1539,1539,1457,1500,1354,1357
1747542052.058593,-0.1,-0.14,-0.27,-0.9893835197242855,0.31306843457648287,-0.08835729338221293,0.6159037732661335,-0.25282002061538333,-0.25675619162784546,0,0,7.5,0,0,0,1539,1539,1457,1500,1354,1357
1747542052.108249,-0.03,-0.1,-0.52,-0.9730210579868387,0.3436116964863836,-0.07526732399225546,0.5474908009267159,-0.23117594947764894,-0.24876396098496853,0,0,7.5,0,0,0,1539,1539,1457,1500,1354,1357
1747542052.1450605,-0.03,-0.1,-0.52,-0.9730210579868387,0.3436116964863836,-0.07526732399225546,0.5474908009267159,-0.23117594947764894,-0.24876396098496853,0,0,7.5,0,0,0,1539,1539,1457,1500,1354,1357
1747542052.1615314,-0.03,-0.1,-0.52,-0.9730210579868387,0.3436116964863836,-0.07526732399225546,0.5474908009267159,-0.23117594947764894,-0.24876396098496853,0,0,7.5,0,0,0,1539,1539,1457,1500,1354,1357
