time,ay,ax,az,gy,gx,gz,roll,pitch,yaw,cmd_fx,cmd_fy,cmd_fz,cmd_tx,cmd_ty,cmd_tz,pwm_1,pwm_2,pwm_3,pwm_4,pwm_5,pwm_6
1747552817.5671742,0.0,0.0,0.0,0.0,0.0,0.0,0.0,0.0,0.0,0,0,0,0,0,0,1500,1500,1500,1500,1500,1500
1747552817.6582582,0.0,0.0,0.0,0.00545415391248228,-0.003272492347489368,0.002181661564992912,0.0,0.0,0.0,0,0,0,0,0,0,1500,1500,1500,1500,1500,1500
1747552817.7575269,0.0,0.0,0.0,0.00545415391248228,-0.003272492347489368,0.002181661564992912,0.0,0.0,0.0,0,0,0,0,0,0,1500,1500,1500,1500,1500,1500
1747552817.8571932,-0.1,-0.3,0.13,-0.002181661564992912,-0.004363323129985824,-0.00545415391248228,2.013006422118457,-0.22325013253074436,-0.35053432717765254,0,0,0,0,0,0,1500,1500,1500,1500,1500,1500
1747552817.954329,-0.08,-0.24,0.08,-0.009817477042468103,-0.004363323129985824,-0.004363323129985824,2.013050159065772,-0.22322446157737666,-0.35053432717765254,0,0,0,0,0,0,1500,1500,1500,1500,1500,1500
1747552818.040371,-0.08,-0.24,0.08,-0.009817477042468103,-0.004363323129985824,-0.004363323129985824,2.013050159065772,-0.22322446157737666,-0.35053432717765254,0,0,0,0,0,0,1500,1500,1500,1500,1500,1500
1747552818.1408067,-0.08,-0.28,0.15,-0.006544984694978736,-0.001090830782496456,-0.001090830782496456,2.013050159065772,-0.22322446157737666,-0.35053432717765254,0,0,0,0,0,0,1500,1500,1500,1500,1500,1500
1747552818.2410078,-0.08,-0.28,0.15,-0.006544984694978736,-0.001090830782496456,-0.001090830782496456,2.013050159065772,-0.22322446157737666,-0.35053432717765254,0,0,0,0,0,0,1500,1500,1500,1500,1500,1500
1747552818.3243864,-0.06,-0.27,0.14,-0.001090830782496456,0.0,-0.004363323129985824,2.013006422118457,-0.22325013253074436,-0.35053432717765254,0,0,0,0,0,0,1500,1500,1500,1500,1500,1500
1747552818.4207277,-0.09,-0.3,0.13,-0.003272492347489368,-0.001090830782496456,0.001090830782496456,2.013006422118457,-0.22325013253074436,-0.35053432717765254,0,0,0,0,0,0,1500,1500,1500,1500,1500,1500
1747552818.5071874,-0.09,-0.3,0.13,-0.003272492347489368,-0.001090830782496456,0.001090830782496456,2.013006422118457,-0.22325013253074436,-0.35053432717765254,0,0,0,0,0,0,1500,1500,1500,1500,1500,1500
1747552818.6074336,-0.06,-0.26,0.12,0.002181661564992912,-0.002181661564992912,0.006544984694978736,2.013006422118457,-0.22325013253074436,-0.35053432717765254,0,0,0,0,0,0,1500,1500,1500,1500,1500,1500
1747552818.7074466,-0.06,-0.26,0.12,0.002181661564992912,-0.002181661564992912,0.006544984694978736,2.013006422118457,-0.22325013253074436,-0.35053432717765254,0,0,0,0,0,0,1500,1500,1500,1500,1500,1500
1747552818.790316,-0.08,-0.24,0.07,0.00545415391248228,-0.003272492347489368,0.002181661564992912,2.0130391725734573,-0.22312226057745949,-0.35059778169821365,0,0,0,0,0,0,1500,1500,1500,1500,1500,1500
1747552818.8909578,-0.08,-0.24,0.07,0.00545415391248228,-0.003272492347489368,0.002181661564992912,2.0130391725734573,-0.22312226057745949,-0.35059778169821365,0,0,0,0,0,0,1500,1500,1500,1500,1500,1500
1747552818.9907694,0.02,0.0,0.0,0.003272492347489368,0.001090830782496456,-0.00545415391248228,2.0130391725734573,-0.22312226057745949,-0.35059778169821365,0,0,0,0,0,0,1500,1500,1500,1500,1500,1500
1747552819.0747042,-0.01,-0.03,0.03,0.004363323129985824,0.0,-0.001090830782496456,2.0130391725734573,-0.22312226057745949,-0.35059778169821365,0,0,0,0,0,0,1500,1500,1500,1500,1500,1500
1747552819.1738112,-0.01,-0.03,0.03,0.004363323129985824,0.0,-0.001090830782496456,2.0130391725734573,-0.22312226057745949,-0.35059778169821365,0,0,0,0,0,0,1500,1500,1500,1500,1500,1500
1747552819.257407,0.02,-0.02,0.01,0.002181661564992912,0.00545415391248228,0.001090830782496456,2.0130391725734573,-0.22312226057745949,-0.35059778169821365,0,0,0,0,0,0,1500,1500,1500,1500,1500,1500
1747552819.3573267,0.02,-0.02,0.01,0.002181661564992912,0.00545415391248228,0.001090830782496456,2.0130391725734573,-0.22312226057745949,-0.35059778169821365,0,0,0,0,0,0,1500,1500,1500,1500,1500,1500
1747552819.45714,-0.03,-0.02,0.0,-0.006544984694978736,-0.004363323129985824,-0.003272492347489368,2.0130391725734573,-0.22312226057745949,-0.35059778169821365,0,0,0,0,0,0,1500,1500,1500,1500,1500,1500
1747552819.5408797,0.01,0.0,0.0,-0.009817477042468103,-0.00545415391248228,-0.007635815477475192,2.0130391725734573,-0.22312226057745949,-0.35059778169821365,0,0,0,0,0,0,1500,1500,1500,1500,1500,1500
1747552819.6413162,0.01,0.0,0.0,-0.009817477042468103,-0.00545415391248228,-0.007635815477475192,2.0130391725734573,-0.22312226057745949,-0.35059778169821365,0,0,0,0,0,0,1500,1500,1500,1500,1500,1500
1747552819.7406852,0.0,0.0,0.0,-0.00545415391248228,-0.001090830782496456,-0.01090830782496456,2.012826715509414,-0.22224058970698904,-0.3500806194283474,0,0,0,0,0,0,1500,1500,1500,1500,1500,1500
1747552819.823656,0.0,0.0,0.0,-0.00545415391248228,-0.001090830782496456,-0.01090830782496456,2.012826715509414,-0.22224058970698904,-0.3500806194283474,0,0,0,0,0,0,1500,1500,1500,1500,1500,1500
1747552819.9241192,0.03,0.01,0.03,0.00545415391248228,-0.001090830782496456,0.001090830782496456,2.0129143720575255,-0.22196862376219545,-0.35011807590179744,0,0,0,0,0,0,1500,1500,1500,1500,1500,1500
1747552820.0235026,0.0,-0.02,0.0,0.002181661564992912,0.002181661564992912,0.006544984694978736,2.0129143720575255,-0.22196862376219545,-0.35011807590179744,0,0,0,0,0,0,1500,1500,1500,1500,1500,1500
1747552820.1240869,0.0,-0.02,0.0,0.002181661564992912,0.002181661564992912,0.006544984694978736,2.0129143720575255,-0.22196862376219545,-0.35011807590179744,0,0,0,0,0,0,1500,1500,1500,1500,1500,1500
1747552820.2238662,0.01,-0.01,0.01,-0.001090830782496456,0.0,0.00545415391248228,2.012925326650092,-0.22207081335458015,-0.35005459539259737,0,0,0,0,0,0,1500,1500,1500,1500,1500,1500
1747552820.307169,0.01,-0.01,0.01,-0.001090830782496456,0.0,0.00545415391248228,2.012925326650092,-0.22207081335458015,-0.35005459539259737,0,0,0,0,0,0,1500,1500,1500,1500,1500,1500
1747552820.4078271,-0.01,-0.02,0.0,0.002181661564992912,0.004363323129985824,-0.003272492347489368,2.012925326650092,-0.22207081335458015,-0.35005459539259737,0,0,0,0,0,0,1500,1500,1500,1500,1500,1500
1747552820.5073652,0.04,0.03,-0.06,0.007635815477475192,0.006544984694978736,-0.013089969389957472,2.01266588904664,-0.22080775051705906,-0.34934852759150903,0,0,0,0,0,0,1500,1500,1500,1500,1500,1500
1747552820.6073678,0.04,0.03,-0.06,0.007635815477475192,0.006544984694978736,-0.013089969389957472,2.01266588904664,-0.22080775051705906,-0.34934852759150903,0,0,0,0,0,0,1500,1500,1500,1500,1500,1500
1747552820.7074165,0.01,-0.03,-0.03,0.001090830782496456,0.002181661564992912,-0.006544984694978736,2.0125548661248853,-0.21975646925426665,-0.34880650976597016,0,0,0,0,0,0,1500,1500,1500,1500,1500,1500
1747552820.7900858,0.03,-0.02,0.01,0.001090830782496456,0.002181661564992912,0.00545415391248228,2.0125548661248853,-0.21975646925426665,-0.34880650976597016,0,0,0,0,0,0,1500,1500,1500,1500,1500,1500
1747552820.8902555,0.03,-0.02,0.01,0.001090830782496456,0.002181661564992912,0.00545415391248228,2.0125548661248853,-0.21975646925426665,-0.34880650976597016,0,0,0,0,0,0,1500,1500,1500,1500,1500,1500
1747552820.99038,0.0,-0.05,0.01,-0.00545415391248228,0.002181661564992912,0.001090830782496456,2.0125548661248853,-0.21975646925426665,-0.34880650976597016,0,0,0,0,0,0,1500,1500,1500,1500,1500,1500
1747552821.074369,0.0,-0.05,0.01,-0.00545415391248228,0.002181661564992912,0.001090830782496456,2.0125548661248853,-0.21975646925426665,-0.34880650976597016,0,0,0,0,0,0,1500,1500,1500,1500,1500,1500
1747552821.1737967,0.03,0.0,0.03,-0.008726646259971648,-0.001090830782496456,-0.018544123302439753,2.012490927936347,-0.2187727835129597,-0.3483783382327766,0,0,0,0,0,0,1500,1500,1500,1500,1500,1500
1747552821.2625911,0.05,0.0,0.0,0.003272492347489368,0.002181661564992912,-0.006544984694978736,2.0123768289482653,-0.2169077467349206,-0.34745951178602863,0,0,0,0,0,0,1500,1500,1500,1500,1500,1500
1747552821.3573906,0.05,0.0,0.0,0.003272492347489368,0.002181661564992912,-0.006544984694978736,2.0123768289482653,-0.2169077467349206,-0.34745951178602863,0,0,0,0,0,0,1500,1500,1500,1500,1500,1500
1747552821.4574978,0.07,0.0,0.02,0.003272492347489368,0.008726646259971648,0.007635815477475192,2.0123312387551726,-0.21684027322391725,-0.3473462580931046,0,0,0,0,0,0,1500,1500,1500,1500,1500,1500
1747552821.5410974,0.07,0.0,0.02,0.003272492347489368,0.008726646259971648,0.007635815477475192,2.0123312387551726,-0.21684027322391725,-0.3473462580931046,0,0,0,0,0,0,1500,1500,1500,1500,1500,1500
1747552821.6404905,0.02,-0.05,-0.06,0.001090830782496456,0.003272492347489368,0.003272492347489368,2.012207753250822,-0.21714694093934553,-0.34713169373771335,0,0,0,0,0,0,1500,1500,1500,1500,1500,1500
1747552821.736169,0.08,-0.01,0.03,0.001090830782496456,-0.003272492347489368,-0.013089969389957472,2.012205323818755,-0.21674000321369866,-0.346942937279975,0,0,0,0,0,0,1500,1500,1500,1500,1500,1500
1747552821.82465,0.08,-0.01,0.03,0.001090830782496456,-0.003272492347489368,-0.013089969389957472,2.012205323818755,-0.21674000321369866,-0.346942937279975,0,0,0,0,0,0,1500,1500,1500,1500,1500,1500
1747552821.9243975,0.09,-0.04,0.03,0.003272492347489368,0.004363323129985824,-0.015271630954950384,2.0119279631184086,-0.2143665758191774,-0.345877509657748,0,0,0,0,0,0,1500,1500,1500,1500,1500,1500
1747552822.0077477,0.09,-0.04,0.03,0.003272492347489368,0.004363323129985824,-0.015271630954950384,2.0119279631184086,-0.2143665758191774,-0.345877509657748,0,0,0,0,0,0,1500,1500,1500,1500,1500,1500
1747552822.1074176,0.13,0.01,0.02,0.002181661564992912,0.007635815477475192,0.002181661564992912,2.0118805333064205,-0.21348541111219949,-0.3453878736537141,0,0,0,0,0,0,1500,1500,1500,1500,1500,1500
1747552822.206097,0.08,-0.02,-0.01,-0.002181661564992912,0.007635815477475192,0.009817477042468103,2.0118805333064205,-0.21348541111219949,-0.3453878736537141,0,0,0,0,0,0,1500,1500,1500,1500,1500,1500
1747552822.2911758,0.08,-0.02,-0.01,-0.002181661564992912,0.007635815477475192,0.009817477042468103,2.0118805333064205,-0.21348541111219949,-0.3453878736537141,0,0,0,0,0,0,1500,1500,1500,1500,1500,1500
1747552822.3903103,0.11,-0.01,0.0,-0.001090830782496456,0.004363323129985824,0.002181661564992912,2.011901917556849,-0.2136896532076822,-0.3452605198105943,0,0,0,0,0,0,1500,1500,1500,1500,1500,1500
1747552822.4900525,0.11,-0.01,0.0,-0.001090830782496456,0.004363323129985824,0.002181661564992912,2.011901917556849,-0.2136896532076822,-0.3452605198105943,0,0,0,0,0,0,1500,1500,1500,1500,1500,1500
1747552822.573803,0.06,-0.06,-0.01,0.001090830782496456,0.0,-0.009817477042468103,2.0118009533522434,-0.21345268290062663,-0.34509811667575896,0,0,0,0,0,0,1500,1500,1500,1500,1500,1500
1747552822.674335,0.06,-0.06,-0.01,0.001090830782496456,0.0,-0.009817477042468103,2.0118009533522434,-0.21345268290062663,-0.34509811667575896,0,0,0,0,0,0,1500,1500,1500,1500,1500,1500
1747552822.7745562,0.1,-0.05,0.0,-0.004363323129985824,-0.001090830782496456,-0.013089969389957472,2.011632561412333,-0.21172363152476384,-0.34438610891515525,0,0,0,0,0,0,1500,1500,1500,1500,1500,1500
1747552822.8745837,0.1,-0.01,0.0,-0.004363323129985824,0.001090830782496456,-0.004363323129985824,2.0112892043487696,-0.21113015003103808,-0.34401351785507644,0,0,0,0,0,0,1500,1500,1500,1500,1500,1500
1747552822.9741051,0.1,-0.01,0.0,-0.004363323129985824,0.001090830782496456,-0.004363323129985824,2.0112892043487696,-0.21113015003103808,-0.34401351785507644,0,0,0,0,0,0,1500,1500,1500,1500,1500,1500
1747552823.057585,0.15,0.01,0.05,0.0,0.00545415391248228,0.0,2.0112892043487696,-0.21113015003103808,-0.34401351785507644,0,0,0,0,0,0,1500,1500,1500,1500,1500,1500
1747552823.1573203,0.15,0.01,0.05,0.0,0.00545415391248228,0.0,2.0112892043487696,-0.21113015003103808,-0.34401351785507644,0,0,0,0,0,0,1500,1500,1500,1500,1500,1500
1747552823.2573195,0.08,-0.04,0.0,0.013089969389957472,-0.003272492347489368,0.001090830782496456,2.0115322443322277,-0.21107994357002063,-0.34403612804893446,0,0,0,0,0,0,1500,1500,1500,1500,1500,1500
1747552823.3572068,0.11,-0.07,0.03,0.008726646259971648,-0.002181661564992912,-0.002181661564992912,2.011731746984866,-0.21105462338183734,-0.3440591467437133,0,0,0,0,0,0,1500,1500,1500,1500,1500,1500
1747552823.4572642,0.11,-0.07,0.03,0.008726646259971648,-0.002181661564992912,-0.002181661564992912,2.011731746984866,-0.21105462338183734,-0.3440591467437133,0,0,0,0,0,0,1500,1500,1500,1500,1500,1500
1747552823.540218,0.08,-0.08,-0.02,0.003272492347489368,0.003272492347489368,-0.001090830782496456,2.011731746984866,-0.21105462338183734,-0.3440591467437133,0,0,0,0,0,0,1500,1500,1500,1500,1500,1500
1747552823.6412532,0.13,0.0,0.0,-0.002181661564992912,0.004363323129985824,0.004363323129985824,2.011731746984866,-0.21105462338183734,-0.3440591467437133,0,0,0,0,0,0,1500,1500,1500,1500,1500,1500
1747552823.7412124,0.13,0.0,0.0,-0.002181661564992912,0.004363323129985824,0.004363323129985824,2.011731746984866,-0.21105462338183734,-0.3440591467437133,0,0,0,0,0,0,1500,1500,1500,1500,1500,1500
1747552823.8235674,0.07,0.0,0.0,0.002181661564992912,0.004363323129985824,0.008726646259971648,2.011731746984866,-0.21105462338183734,-0.3440591467437133,0,0,0,0,0,0,1500,1500,1500,1500,1500,1500
1747552823.923845,0.07,0.0,0.0,0.002181661564992912,0.004363323129985824,0.008726646259971648,2.011731746984866,-0.21105462338183734,-0.3440591467437133,0,0,0,0,0,0,1500,1500,1500,1500,1500,1500
1747552824.007753,0.11,-0.05,0.01,0.002181661564992912,0.0,0.001090830782496456,2.011731746984866,-0.21105462338183734,-0.3440591467437133,0,0,0,0,0,0,1500,1500,1500,1500,1500,1500
1747552824.1085482,0.11,-0.05,0.01,0.002181661564992912,0.0,0.001090830782496456,2.011731746984866,-0.21105462338183734,-0.3440591467437133,0,0,0,0,0,0,1500,1500,1500,1500,1500,1500
1747552824.207103,0.08,-0.06,0.0,-0.006544984694978736,0.002181661564992912,-0.002181661564992912,2.011731746984866,-0.21105462338183734,-0.3440591467437133,0,0,0,0,0,0,1500,1500,1500,1500,1500,1500
1747552824.290635,0.14,-0.04,0.02,-0.004363323129985824,0.001090830782496456,-0.001090830782496456,2.011731746984866,-0.21105462338183734,-0.3440591467437133,0,0,0,0,0,0,1500,1500,1500,1500,1500,1500
1747552824.3915877,0.14,-0.04,0.02,-0.004363323129985824,0.001090830782496456,-0.001090830782496456,2.011731746984866,-0.21105462338183734,-0.3440591467437133,0,0,0,0,0,0,1500,1500,1500,1500,1500,1500
1747552824.4904013,0.12,-0.02,-0.04,-0.00545415391248228,-0.007635815477475192,0.0,2.011731746984866,-0.21105462338183734,-0.3440591467437133,0,0,0,0,0,0,1500,1500,1500,1500,1500,1500
1747552824.5744693,0.12,-0.02,-0.04,-0.00545415391248228,-0.007635815477475192,0.0,2.011731746984866,-0.21105462338183734,-0.3440591467437133,0,0,0,0,0,0,1500,1500,1500,1500,1500,1500
1747552824.6741545,0.1,-0.01,0.01,0.002181661564992912,0.001090830782496456,-0.002181661564992912,2.011731746984866,-0.21105462338183734,-0.3440591467437133,0,0,0,0,0,0,1500,1500,1500,1500,1500,1500
1747552824.7704089,0.11,0.0,-0.05,0.008726646259971648,0.008726646259971648,-0.002181661564992912,2.011731746984866,-0.21105462338183734,-0.3440591467437133,0,0,0,0,0,0,1500,1500,1500,1500,1500,1500
1747552824.857736,0.11,0.0,-0.05,0.008726646259971648,0.008726646259971648,-0.002181661564992912,2.011731746984866,-0.21105462338183734,-0.3440591467437133,0,0,0,0,0,0,1500,1500,1500,1500,1500,1500
1747552824.9573271,0.13,0.0,0.01,0.009817477042468103,0.004363323129985824,0.002181661564992912,2.011731746984866,-0.21105462338183734,-0.3440591467437133,0,0,0,0,0,0,1500,1500,1500,1500,1500,1500
1747552825.0407972,0.13,0.0,0.01,0.009817477042468103,0.004363323129985824,0.002181661564992912,2.011731746984866,-0.21105462338183734,-0.3440591467437133,0,0,0,0,0,0,1500,1500,1500,1500,1500,1500
1747552825.1410832,0.09,-0.04,-0.04,0.001090830782496456,-0.006544984694978736,0.001090830782496456,2.011731746984866,-0.21105462338183734,-0.3440591467437133,0,0,0,0,0,0,1500,1500,1500,1500,1500,1500
1747552825.2405748,0.12,-0.05,0.01,0.002181661564992912,-0.004363323129985824,-0.004363323129985824,2.011731746984866,-0.21105462338183734,-0.3440591467437133,0,0,0,0,0,0,1500,1500,1500,1500,1500,1500
1747552825.324096,0.12,-0.05,0.01,0.002181661564992912,-0.004363323129985824,-0.004363323129985824,2.011731746984866,-0.21105462338183734,-0.3440591467437133,0,0,0,0,0,0,1500,1500,1500,1500,1500,1500
1747552825.4236739,0.12,-0.03,-0.03,-0.001090830782496456,0.0,-0.009817477042468103,2.0116869254984207,-0.21098724324316506,-0.3439462425137402,0,0,0,0,0,0,1500,1500,1500,1500,1500,1500
1747552825.5205207,0.13,-0.03,0.02,-0.011999138607461015,-0.004363323129985824,-0.009817477042468103,2.0111355454116833,-0.20950337364159893,-0.3432395933525325,0,0,0,0,0,0,1500,1500,1500,1500,1500,1500
1747552825.607332,0.13,-0.03,0.02,-0.011999138607461015,-0.004363323129985824,-0.009817477042468103,2.0111355454116833,-0.20950337364159893,-0.3432395933525325,0,0,0,0,0,0,1500,1500,1500,1500,1500,1500
1747552825.7060163,0.15,-0.02,0.01,-0.001090830782496456,-0.00545415391248228,0.006544984694978736,2.0111355454116833,-0.20950337364159893,-0.3432395933525325,0,0,0,0,0,0,1500,1500,1500,1500,1500,1500
1747552825.790656,0.15,-0.02,0.01,-0.001090830782496456,-0.00545415391248228,0.006544984694978736,2.0111355454116833,-0.20950337364159893,-0.3432395933525325,0,0,0,0,0,0,1500,1500,1500,1500,1500,1500
1747552825.8909833,0.08,-0.05,0.01,0.007635815477475192,0.004363323129985824,0.008726646259971648,2.011190754307715,-0.20967283508470091,-0.3432886222073931,0,0,0,0,0,0,1500,1500,1500,1500,1500,1500
1747552825.9901915,0.08,-0.05,0.01,0.007635815477475192,0.004363323129985824,0.008726646259971648,2.011190754307715,-0.20967283508470091,-0.3432886222073931,0,0,0,0,0,0,1500,1500,1500,1500,1500,1500
1747552826.0736985,0.1,-0.02,-0.03,0.004363323129985824,0.004363323129985824,-0.003272492347489368,2.011190754307715,-0.20967283508470091,-0.3432886222073931,0,0,0,0,0,0,1500,1500,1500,1500,1500,1500
1747552826.1735988,0.12,-0.03,0.02,0.001090830782496456,-0.004363323129985824,-0.01090830782496456,2.011136564978471,-0.20909658292501632,-0.34305211189903057,0,0,0,0,0,0,1500,1500,1500,1500,1500,1500
1747552826.2738132,0.12,-0.03,0.02,0.001090830782496456,-0.004363323129985824,-0.01090830782496456,2.011136564978471,-0.20909658292501632,-0.34305211189903057,0,0,0,0,0,0,1500,1500,1500,1500,1500,1500
1747552826.373955,0.17,-0.03,0.01,0.002181661564992912,-0.009817477042468103,0.0,2.011192840646159,-0.20885924426574182,-0.3429136577636588,0,0,0,0,0,0,1500,1500,1500,1500,1500,1500
1747552826.4623392,0.11,-0.08,0.01,0.002181661564992912,0.0,0.008726646259971648,2.0112703543579595,-0.20879978580295114,-0.3430897384952096,0,-0.043231,0,0,0,0,1500,1500,1500,1500,1500,1500
1747552826.5573092,0.11,-0.08,0.01,0.002181661564992912,0.0,0.008726646259971648,2.0112703543579595,-0.20879978580295114,-0.3430897384952096,0,0,0,0,0,0,1500,1500,1500,1500,1500,1500
1747552826.6573772,0.13,-0.03,-0.02,0.001090830782496456,0.007635815477475192,0.004363323129985824,2.0112914914160718,-0.20950287852788807,-0.34326293355096815,0,0,0,0,0,0,1500,1500,1500,1500,1500,1500
1747552826.7575212,0.13,-0.03,-0.02,0.001090830782496456,0.007635815477475192,0.004363323129985824,2.0112914914160718,-0.20950287852788807,-0.34326293355096815,0,0,0,0,0,0,1500,1500,1500,1500,1500,1500
1747552826.8576205,0.1,-0.02,-0.02,-0.004363323129985824,0.001090830782496456,-0.00545415391248228,2.0112914914160718,-0.20950287852788807,-0.34326293355096815,0,0,0,0,0,0,1500,1500,1500,1500,1500,1500
1747552826.9571962,0.12,-0.05,0.0,-0.003272492347489368,-0.006544984694978736,-0.007635815477475192,2.0112914914160718,-0.20950287852788807,-0.34326293355096815,0,-0.008311,0,0,0,0,1500,1500,1500,1500,1500,1500
1747552827.0406063,0.12,-0.05,0.0,-0.003272492347489368,-0.006544984694978736,-0.007635815477475192,2.0112914914160718,-0.20950287852788807,-0.34326293355096815,0,-0.146734,0,0,0,0,1500,1500,1500,1500,1500,1500
1747552827.1414669,0.09,-0.07,0.0,0.003272492347489368,0.001090830782496456,0.00545415391248228,2.0112914914160718,-0.20950287852788807,-0.34326293355096815,0,-0.992096,0,0,0,0,1460,1460,1538,1500,1500,1500
1747552827.2412503,0.09,-0.07,0.0,0.003272492347489368,0.001090830782496456,0.00545415391248228,2.0112914914160718,-0.20950287852788807,-0.34326293355096815,0,-0.992096,0,0,0,0,1457,1458,1538,1500,1500,1500
1747552827.323693,0.13,-0.04,0.03,0.003272492347489368,0.006544984694978736,0.01090830782496456,2.011301233208091,-0.21001177631018106,-0.3433867207218468,0,-1.051097,0,0,0,0,1456,1457,1539,1500,1500,1500
1747552827.4235106,0.03,0.09,-0.07,-0.014180800172453928,0.015271630954950384,0.01090830782496456,2.0111334989925855,-0.21165613502460232,-0.3438487704459256,0,-1.051097,0,0,0,0,1456,1457,1539,1500,1500,1500
1747552827.524333,0.03,0.09,-0.07,-0.014180800172453928,0.015271630954950384,0.01090830782496456,2.0111334989925855,-0.21165613502460232,-0.3438487704459256,0,-1.051097,0,0,0,0,1456,1457,1539,1500,1500,1500
1747552827.6238568,0.14,-0.04,0.05,-0.018544123302439753,0.06435901616729091,-0.00545415391248228,2.006901582515146,-0.21466335465925587,-0.3374871491335518,0,-1.051097,0,0,0,0,1456,1457,1539,1500,1500,1500
1747552827.716154,0.14,-0.02,0.02,-0.019634954084936207,0.08290313946973066,-0.007635815477475192,2.001362385572596,-0.2192210170829693,-0.32609335251027305,0,-1.051097,0,0,0,0,1456,1457,1539,1500,1500,1500
1747552827.806041,0.14,-0.02,0.02,-0.019634954084936207,0.08290313946973066,-0.007635815477475192,2.001362385572596,-0.2192210170829693,-0.32609335251027305,0,-1.111801,0,0,0,0,1455,1456,1539,1500,1500,1500
1747552827.9072633,0.04,-0.06,0.03,-0.019634954084936207,0.10471975511965978,-0.00545415391248228,1.995440391964661,-0.22527444641331598,-0.3124788631025405,0,-1.174209,0,0,0,0,1455,1455,1539,1500,1500,1500
1747552828.0075877,0.04,-0.06,0.03,-0.019634954084936207,0.10471975511965978,-0.00545415391248228,1.995440391964661,-0.22527444641331598,-0.3124788631025405,0,-2.140585,0,0,0,0,1444,1445,1546,1500,1500,1500
1747552828.1073122,0.02,0.02,0.0,-0.02945243112740431,0.11671889372712078,-0.007635815477475192,1.988310485969151,-0.2319230728607601,-0.29720154048770786,0,-3.079918,0,0,0,0,1435,1436,1551,1500,1500,1500
1747552828.2073183,0.0,0.0,0.03,-0.04036073895236887,0.14944381720201447,-0.0272707695624114,1.9790472799964305,-0.2384845231128909,-0.27835672695874264,0,-3.183224,0,0,0,0,1434,1435,1551,1500,1500,1500
1747552828.2910707,0.0,0.0,0.03,-0.04036073895236887,0.14944381720201447,-0.0272707695624114,1.9790472799964305,-0.2384845231128909,-0.27835672695874264,0,-3.725313,0,0,0,0,1430,1431,1555,1500,1500,1500
1747552828.390929,0.11,0.07,-0.06,-0.061086523819801536,0.22689280275926285,-0.0719948316447661,1.963509786434796,-0.24355774849611544,-0.24684437331056314,0,-4.189658,0,0,0,0,1425,1427,1558,1500,1500,1500
1747552828.4901106,0.11,0.07,-0.06,-0.061086523819801536,0.22689280275926285,-0.0719948316447661,1.963509786434796,-0.24355774849611544,-0.24684437331056314,0,-4.937296,0,0,0,0,1420,1421,1562,1500,1500,1500
1747552828.5738032,-0.07,-0.03,0.03,-0.07526732399225546,0.2628902185816459,-0.11235557059713497,1.943858764617424,-0.24377202382993768,-0.20750848070604647,0,-6.029575,0,0,0,0,1411,1413,1568,1500,1500,1500
1747552828.6743279,-0.05,0.05,0.04,-0.09926560120717749,0.3196134192714616,-0.13744467859455345,1.9178662154324035,-0.24168020537054874,-0.15700530425510276,0,-7.872483,0,0,0,0,1398,1400,1577,1500,1500,1500
1747552828.773351,-0.05,0.05,0.04,-0.09926560120717749,0.3196134192714616,-0.13744467859455345,1.9178662154324035,-0.24168020537054874,-0.15700530425510276,0,-8.712783,0,0,0,0,1393,1395,1581,1500,1500,1500
1747552828.8734367,-0.07,0.05,0.02,-0.136353847812057,0.4177881896961426,-0.22252947962927702,1.8843950987511686,-0.23412172964051822,-0.09288052520152126,0,-9.237412,0,0,0,0,1389,1392,1583,1500,1500,1500
1747552828.9703157,-0.15,-0.05,0.18,-0.15926129424448257,0.5094179754258449,-0.32179508083645453,1.8446493072674575,-0.21478180466780109,-0.014540244817255016,0,-9.237412,0,0,0,0,1389,1392,1583,1500,1500,1500
1747552829.0558789,-0.15,-0.05,0.18,-0.15926129424448257,0.5094179754258449,-0.32179508083645453,1.8446493072674575,-0.21478180466780109,-0.014540244817255016,0,-9.595686,0,0,0,0,1387,1389,1585,1500,1500,1500
1747552829.157666,-0.33,-0.14,0.16,-0.16907877128695067,0.5835944686356039,-0.3883357585687383,1.7986924051693935,-0.18193237297678244,0.0841185954441505,0,-9.595686,0,0,0,0,1387,1389,1585,1500,1500,1500
1747552829.2572951,-0.33,-0.14,0.16,-0.16907877128695067,0.5835944686356039,-0.3883357585687383,1.7986924051693935,-0.18193237297678244,0.0841185954441505,0,-9.777377,0,0,0,0,1386,1388,1585,1500,1500,1500
1747552829.3575327,-0.18,0.0,0.15,-0.15271630954950383,0.6501351463678877,-0.4079707126536745,1.758566968435252,-0.14284482748867186,0.18590060998114757,0,-9.777377,0,0,0,0,1386,1388,1585,1500,1500,1500
1747552829.4572678,-0.2,-0.19,0.03,-0.13853550937704992,0.6795875774952921,-0.4068798818711781,1.7239319484512416,-0.09959758588744644,0.2923533596835138,0,-9.777377,0,0,0,0,1386,1388,1585,1500,1500,1500
1747552829.5408804,-0.2,-0.19,0.03,-0.13853550937704992,0.6795875774952921,-0.4068798818711781,1.7239319484512416,-0.09959758588744644,0.2923533596835138,0,-9.960774,0,0,0,0,1384,1387,1586,1500,1500,1500
1747552829.6410084,-0.22,-0.21,-0.05,-0.1090830782496456,0.6904958853202566,-0.38288160465625604,1.6959633628461905,-0.05301649096111469,0.4065224042138791,0,-9.960774,0,0,0,0,1384,1387,1586,1500,1500,1500
1747552829.740552,-0.06,-0.09,0.0,-0.08617563181722002,0.6763150851478027,-0.3523383427463553,1.677829063902891,-0.007178494891551965,0.5179132655457122,0,-9.960774,0,0,0,0,1384,1387,1586,1500,1500,1500
1747552829.8236687,-0.06,-0.09,0.0,-0.08617563181722002,0.6763150851478027,-0.3523383427463553,1.677829063902891,-0.007178494891551965,0.5179132655457122,0,-9.960774,0,0,0,0,1384,1387,1586,1500,1500,1500
1747552829.9239192,-0.15,-0.19,0.03,-0.07526732399225546,0.693768377667746,-0.3327033886614191,1.6673095160014477,0.03406321314996956,0.6218256260564143,0,-9.960774,0,0,0,0,1384,1387,1586,1500,1500,1500
1747552830.0244112,-0.15,-0.19,0.03,-0.07526732399225546,0.693768377667746,-0.3327033886614191,1.6673095160014477,0.03406321314996956,0.6218256260564143,0,-9.960774,0,0,0,0,1384,1387,1586,1500,1500,1500
1747552830.124075,-0.19,-0.26,0.08,-0.07963064712224129,0.7046766854927106,-0.32506757318394386,1.6627783237330027,0.07703788217993317,0.7346825952817043,0,-9.960774,0,0,0,0,1384,1387,1586,1500,1500,1500
1747552830.2128038,-0.16,-0.1,-0.08,-0.06981317007977318,0.7003133623627247,-0.33052172709642613,1.6635765122508632,0.12109538035734539,0.848604273474556,0,-8.37155,0,0,0,0,1395,1397,1579,1500,1500,1500
1747552830.3073158,-0.16,-0.1,-0.08,-0.06981317007977318,0.7003133623627247,-0.33052172709642613,1.6635765122508632,0.12109538035734539,0.848604273474556,0,-8.20349,0,0,0,0,1396,1398,1578,1500,1500,1500
1747552830.405958,-0.24,-0.31,-0.03,-0.04799655442984406,0.6501351463678877,-0.31525009614147576,1.6709226883898258,0.162400838050878,0.953802902321377,0,-0.311584,0,0,0,0,1436,1438,1538,1500,1500,1500
1747552830.5075712,-0.24,-0.31,-0.03,-0.04799655442984406,0.6501351463678877,-0.31525009614147576,1.6709226883898258,0.162400838050878,0.953802902321377,0,0,0,0,0,0,1476,1478,1500,1500,1500,1500
1747552830.6057513,-0.11,-0.21,-0.32,-0.04690572364734761,0.5552328682906961,-0.23234695667174513,1.682272106099368,0.2001272063206954,1.0549451683510627,0,0,0,0,0,0,1500,1500,1500,1500,1500,1500
1747552830.706177,-0.37,-0.27,-0.02,0.009817477042468103,0.36760997370130566,-0.05235987755982989,1.6960639092188863,0.2187159369753386,1.124068630166706,0,0,0,0,0,0,1500,1500,1500,1500,1500,1500
1747552830.7898295,-0.37,-0.27,-0.02,0.009817477042468103,0.36760997370130566,-0.05235987755982989,1.6960639092188863,0.2187159369753386,1.124068630166706,0,0,0,0,0,0,1500,1500,1500,1500,1500,1500
1747552830.8901567,-0.15,-0.23,-0.03,0.017453292519943295,0.23671027980173096,0.0916297857297023,1.709593235684966,0.2141934662274523,1.1675502027966433,0,0,0,0,0,0,1500,1500,1500,1500,1500,1500
1747552830.990105,-0.15,-0.23,-0.03,0.017453292519943295,0.23671027980173096,0.0916297857297023,1.709593235684966,0.2141934662274523,1.1675502027966433,0,0,0,0,0,0,1500,1500,1500,1500,1500,1500
1747552831.074306,-0.15,-0.17,-0.05,0.026179938779914945,0.1712604328519436,0.1810779098944117,1.7197760547878775,0.19193167725059337,1.1959832496904952,0,0,0,0,0,0,1500,1500,1500,1500,1500,1500
1747552831.1741166,-0.15,-0.15,-0.01,0.030543261909900768,0.11344640137963143,0.23889194136672387,1.7277258576937853,0.16073407208470228,1.2122562957853122,0,0,0,0,0,0,1500,1500,1500,1500,1500,1500
1747552831.2730541,-0.15,-0.15,-0.01,0.030543261909900768,0.11344640137963143,0.23889194136672387,1.7277258576937853,0.16073407208470228,1.2122562957853122,0,0,0,0,0,0,1500,1500,1500,1500,1500,1500
1747552831.373366,-0.27,-0.03,0.01,0.02945243112740431,0.061086523819801536,0.27052603405912107,1.7334201633263437,0.1222183167792046,1.2190618058758782,0,0,0,0,0,0,1500,1500,1500,1500,1500,1500
1747552831.4734876,-0.21,0.01,0.02,0.037088246604879506,0.0272707695624114,0.2945243112740431,1.7385212777356145,0.08151400734951944,1.2182984646555424,0,0,0,0,0,0,1500,1500,1500,1500,1500,1500
1747552831.5574975,-0.21,0.01,0.02,0.037088246604879506,0.0272707695624114,0.2945243112740431,1.7385212777356145,0.08151400734951944,1.2182984646555424,0,-1.973167,0,0,0,0,1460,1460,1540,1500,1500,1500
1747552831.6573167,-0.25,0.01,-0.04,0.04908738521234052,-0.01090830782496456,0.28907015736156083,1.74518414263246,0.04027626966544624,1.2115375038858631,0,-11.096939,0,0,0,-0.001789,1420,1420,1580,1500,1500,1500
1747552831.7566373,-0.25,0.01,-0.04,0.04908738521234052,-0.01090830782496456,0.28907015736156083,1.74518414263246,0.04027626966544624,1.2115375038858631,0,-12.5,0,0,0,-0.003148,1380,1380,1596,1500,1500,1500
1747552831.8573637,-0.22,-0.19,0.01,0.04581489286485115,-0.03599741582238305,0.25743606466916363,1.7523798001408681,0.004471302030076772,1.2006131345123954,0,-12.5,0,0,0,-0.003148,1368,1371,1596,1500,1500,1500
1747552831.9572606,-0.32,-0.23,0.19,-0.009817477042468103,0.07308566242726255,0.24216443371421323,1.7553193084768848,-0.029226999438604077,1.1945533399405603,0,-12.5,0,0,0,-0.003148,1368,1371,1596,1500,1500,1500
1747552832.0411475,-0.32,-0.23,0.19,-0.009817477042468103,0.07308566242726255,0.24216443371421323,1.7553193084768848,-0.029226999438604077,1.1945533399405603,0,-12.5,0,0,0,-0.003148,1368,1371,1596,1500,1500,1500
1747552832.1401994,-0.3,-0.01,0.16,-0.13962634015954636,0.4461497900410505,0.05672320068981571,1.7379014649375897,-0.05588111943190897,1.232800137365972,0,-12.5,0,0,0,-0.003148,1368,1371,1596,1500,1500,1500
1747552832.2332318,-0.1,0.13,-0.09,-0.20398535632683726,0.6010477611555473,-0.031634092692397225,1.7063749850678034,-0.0641689703926294,1.3103472985760165,0,-12.5,0,0,0,-0.003148,1368,1371,1596,1500,1500,1500
1747552832.3249333,-0.1,0.13,-0.09,-0.20398535632683726,0.6010477611555473,-0.031634092692397225,1.7063749850678034,-0.0641689703926294,1.3103472985760165,0,-12.5,0,0,0,-0.003148,1368,1371,1596,1500,1500,1500
1747552832.4241953,-0.46,0.0,-0.01,-0.21707532571679475,0.7243116395776468,-0.04690572364734761,1.6667753928048719,-0.06596218595200758,1.4141179739160898,0,-12.5,0,0,0,-0.003148,1368,1371,1596,1500,1500,1500
1747552832.5236228,-0.46,0.0,-0.01,-0.21707532571679475,0.7243116395776468,-0.04690572364734761,1.6667753928048719,-0.06596218595200758,1.4141179739160898,0,-12.5,0,0,0,-0.003148,1368,1371,1596,1500,1500,1500
1747552832.6239617,-0.27,0.12,-0.01,-0.30652344988150415,0.8017606251348951,-0.05126904677733343,1.6212225978565415,-0.06494952488174147,1.5256240566363315,0,-12.5,0,0,0,-0.003148,1368,1371,1596,1500,1500,1500
1747552832.7243323,-0.06,-0.1,0.06,-0.3327033886614191,0.8519388411297321,-0.06326818538479445,1.5630567965639746,-0.05618952854770011,1.6551929892349035,0,-12.5,0,0,0,-0.003148,1368,1371,1596,1500,1500,1500
1747552832.8073835,-0.06,-0.1,0.06,-0.3327033886614191,0.8519388411297321,-0.06326818538479445,1.5630567965639746,-0.05618952854770011,1.6551929892349035,0,-12.5,0,0,0,-0.003148,1368,1371,1596,1500,1500,1500
1747552832.9075408,-0.08,0.05,0.0,-0.3174317577064687,0.8944812416470939,-0.07090400086226964,1.5060556629816653,-0.039248871839324954,1.7904668340251637,0,-12.5,0,0,0,-0.003148,1368,1371,1596,1500,1500,1500
1747552833.0074816,-0.08,0.05,0.0,-0.3174317577064687,0.8944812416470939,-0.07090400086226964,1.5060556629816653,-0.039248871839324954,1.7904668340251637,0,-12.5,0,0,0,-0.003148,1368,1371,1596,1500,1500,1500
1747552833.1073399,-0.42,-0.09,0.0,-0.2716168648416175,0.9392053037294485,-0.06544984694978735,1.4601232749845017,-0.016184783250710644,1.9227976659758836,0,-12.5,0,0,0,-0.003148,1368,1371,1596,1500,1500,1500
1747552833.207518,-0.14,0.0,0.07,-0.2552544031041707,0.9610219193793778,-0.031634092692397225,1.4201086176992812,0.012665997848905885,2.0686377978308896,0,-12.5,0,0,0,-0.003148,1368,1371,1596,1500,1500,1500
1747552833.2900894,-0.14,0.0,0.07,-0.2552544031041707,0.9610219193793778,-0.031634092692397225,1.4201086176992812,0.012665997848905885,2.0686377978308896,0,-12.5,0,0,0,-0.003148,1368,1371,1596,1500,1500,1500
1747552833.3899472,-0.18,-0.07,0.06,-0.2683443724941282,0.9610219193793778,-0.015271630954950384,1.3862161960348882,0.04210181724225998,2.205057666477661,0,-12.5,0,0,0,-0.003148,1368,1371,1596,1500,1500,1500
1747552833.4875047,-0.39,-0.12,0.0,-0.2781618495365963,0.9588402578143848,0.002181661564992912,1.3535296420005498,0.07283715727787195,2.3417600584781324,0,-12.5,0,0,0,-0.003148,1368,1371,1596,1500,1500,1500
1747552833.5734835,-0.39,-0.12,0.0,-0.2781618495365963,0.9588402578143848,0.002181661564992912,1.3535296420005498,0.07283715727787195,2.3417600584781324,0,-12.5,0,0,0,-0.003148,1368,1371,1596,1500,1500,1500
1747552833.6730008,-0.16,-0.2,0.13,-0.3108867730114899,0.9392053037294485,-0.10362892433716332,1.321797870962023,0.11463481323835667,2.48419166777281,0,-12.5,0,0,0,-0.003148,1368,1371,1596,1500,1500,1500
1747552833.7736173,-0.16,-0.2,0.13,-0.3108867730114899,0.9392053037294485,-0.10362892433716332,1.321797870962023,0.11463481323835667,2.48419166777281,0,-12.5,0,0,0,-0.003148,1368,1371,1596,1500,1500,1500
1747552833.8745005,-0.24,0.06,0.0,-0.3687008044838021,0.8933904108645975,-0.27052603405912107,1.2902262803454918,0.17505229246447834,2.607449463610758,0,-12.5,0,0,0,0,1368,1371,1596,1500,1500,1500
1747552833.9743168,-0.18,0.08,-0.29,-0.3959715740462135,0.8737554567796613,-0.3523383427463553,1.2563867622634242,0.2618737751353953,2.7263770666293046,0,-2.878419,0,0,0,0,1408,1411,1556,1500,1500,1500
1747552834.0574477,-0.18,0.08,-0.29,-0.3959715740462135,0.8737554567796613,-0.3523383427463553,1.2563867622634242,0.2618737751353953,2.7263770666293046,0,0,0,0,0,0,1448,1451,1516,1500,1500,1500
1747552834.156544,-0.37,-0.27,-0.27,-0.37960911230876665,0.8224864100023278,-0.40906154343617096,1.2295090212881334,0.36329767217144654,2.8378442035317852,0,0,0,0,0,0,1488,1491,1500,1500,1500,1500
1747552834.255951,-0.37,-0.27,-0.27,-0.37960911230876665,0.8224864100023278,-0.40906154343617096,1.2295090212881334,0.36329767217144654,2.8378442035317852,0,0,0,0,0,0,1500,1500,1500,1500,1500,1500
1747552834.340151,-0.3,-0.49,-0.23,-0.2792526803190927,0.5508695451607103,-0.22471114119426994,1.2155081168202353,0.4483280738679235,2.9263865479599245,0,0,0,0,0,0,1500,1500,1500,1500,1500,1500
1747552834.4393313,-0.19,-0.27,-0.15,-0.22689280275926285,0.31634092692397225,-0.05345070834232634,1.2083199036182979,0.49401798501256133,2.987218004278672,0,0,0,0,0,0,1500,1500,1500,1500,1500,1500
1747552834.5396812,-0.19,-0.27,-0.15,-0.22689280275926285,0.31634092692397225,-0.05345070834232634,1.2083199036182979,0.49401798501256133,2.987218004278672,0,0,0,0.124704,0,0,1460,1460,1540,1500,1500,1500
1747552834.639956,-0.14,-0.21,-0.2,-0.24107360293171676,0.18435040224190105,0.026179938779914945,1.194056077265372,0.5119651449500328,3.025287263724515,0,0,0,0.7,0.016191,0,1420,1420,1580,1500,1460,1460
1747552834.7406588,-0.17,-0.2,-0.19,-0.25416357232167425,0.08072147790473774,0.10144726277217041,1.1722103963150443,0.5152535232678277,3.0509060023785493,0,0,0,0.7,0.016191,0,1416,1418,1605,1500,1420,1420
1747552834.8244014,-0.17,-0.2,-0.19,-0.25416357232167425,0.08072147790473774,0.10144726277217041,1.1722103963150443,0.5152535232678277,3.0509060023785493,0,0,0,0.7,0.016191,0,1416,1418,1605,1500,1420,1420
1747552834.9235852,0.38,0.0,-0.04,-0.3108867730114899,0.0916297857297023,0.11780972450961724,1.1410216037466876,0.5051527730950656,3.0702270136819982,0,0,0,0.7,0.016191,0,1416,1418,1605,1500,1420,1420
1747552835.0233004,0.38,0.0,-0.04,-0.3108867730114899,0.0916297857297023,0.11780972450961724,1.1410216037466876,0.5051527730950656,3.0702270136819982,0,0,0,0.7,0.016191,0,1416,1418,1605,1500,1420,1420
1747552835.1230628,0.03,0.2,-0.18,-0.6501351463678877,0.284706834231575,0.05781403147231216,1.0857913198811908,0.5048113269816513,3.1018992724760173,0,0,0,0.7,0.016191,0,1416,1418,1605,1500,1420,1420
1747552835.2236207,-0.35000000000000003,-0.05,-0.26,-0.9381144729469522,0.38288160465625604,0.006544984694978736,0.9879850431450713,0.5313125280441605,-3.126426382387868,0,0,0,0.7,0.016191,0,1416,1418,1605,1500,1420,1420
1747552835.3067029,-0.35000000000000003,-0.05,-0.26,-0.9381144729469522,0.38288160465625604,0.006544984694978736,0.9879850431450713,0.5313125280441605,-3.126426382387868,0,0,0,0.7,0.016191,0,1416,1418,1605,1500,1420,1420
1747552835.4062164,-0.18,-0.4,-0.17,-1.0570150282390658,0.43196898986859655,-0.018544123302439753,0.8704701203793053,0.5683737607246458,-3.0706527574265965,0,0,0,0.7,0.016191,0,1416,1418,1605,1500,1420,1420
1747552835.5071754,-0.18,-0.4,-0.17,-1.0570150282390658,0.43196898986859655,-0.018544123302439753,0.8704701203793053,0.5683737607246458,-3.0706527574265965,0,0,0,0.7,0.016191,0,1416,1418,1605,1500,1420,1420
1747552835.6081302,-0.09,-0.1,-0.32,-1.0821041362364843,0.495237175253391,-0.015271630954950384,0.7375068135462332,0.6211981926938446,-3.010126298148156,0,0,0,0.7,0.016191,0,1416,1418,1605,1500,1420,1420
1747552835.7064123,-0.32,0.18,-0.32,-1.0897399517139594,0.5323254218582705,-0.007635815477475192,0.6054887954247808,0.68514051912892,-2.9501792982435995,0,0,0,0,0,0,1456,1458,1565,1500,1460,1460
1747552835.7904062,-0.32,0.18,-0.32,-1.0897399517139594,0.5323254218582705,-0.007635815477475192,0.6054887954247808,0.68514051912892,-2.9501792982435995,0,0,0,0,0,0,1496,1498,1525,1500,1500,1500
1747552835.8899727,-0.4,-0.36,-0.4,-1.002473489114243,0.507236313860852,-0.001090830782496456,0.475253192787994,0.7575097745166254,-2.8927819290535774,0,0,0,0,0,0,1500,1500,1500,1500,1500,1500
1747552835.9905677,-0.39,-0.26,-0.34,-0.6021385919380436,0.28361600344907856,0.06435901616729091,0.3906624863277844,0.8092232398839668,-2.852690729990591,0,0,0,0,0,0,1500,1500,1500,1500,1500,1500
1747552836.073889,-0.39,-0.26,-0.34,-0.6021385919380436,0.28361600344907856,0.06435901616729091,0.3906624863277844,0.8092232398839668,-2.852690729990591,0,0,0,0,0,0,1500,1500,1500,1500,1500,1500
1747552836.1737862,-0.2,-0.12,-0.25,-0.3741549583962844,0.1090830782496456,0.10690141668465268,0.34461713162763097,0.8377028138870812,-2.8211549755203165,0,0,0,0,0,0,1500,1500,1500,1500,1500,1500
1747552836.257413,-0.2,-0.12,-0.25,-0.3741549583962844,0.1090830782496456,0.10690141668465268,0.34461713162763097,0.8377028138870812,-2.8211549755203165,0,0,0,0,0,0,1500,1500,1500,1500,1500,1500
1747552836.3564808,-0.14,-0.15,-0.16,-0.24434609527920614,0.019634954084936207,0.1265363707695889,0.31887153386042927,0.8455778948950463,-2.7914889897048036,0,0,0,0,0,0,1500,1500,1500,1500,1500,1500
1747552836.4559052,-0.11,-0.13,-0.17,-0.12217304763960307,-0.04145156973486533,0.1505346479845109,0.3132092655425644,0.8407823250463997,-2.7643469285334334,0,0,0,-0.06227,0,0,1500,1500,1460,1500,1500,1500
1747552836.539972,-0.11,-0.13,-0.17,-0.12217304763960307,-0.04145156973486533,0.1505346479845109,0.3132092655425644,0.8407823250463997,-2.7643469285334334,0,0,0,-0.7,0,0,1540,1540,1420,1500,1500,1500
1747552836.640361,-0.14,-0.09,-0.12,-0.025089107997418487,-0.07744898555724837,0.16689710972195776,0.3241559207171024,0.8267819631102351,-3.0016015625599497,0,0,0,-0.7,0,0,1573,1571,1385,1500,1500,1500
1747552836.7399402,-0.14,-0.09,-0.12,-0.025089107997418487,-0.07744898555724837,0.16689710972195776,0.3241559207171024,0.8267819631102351,-3.0016015625599497,0,0,0,-0.7,0,0,1573,1571,1385,1500,1500,1500
1747552836.8237581,-0.05,-0.18,-0.12,0.06435901616729091,-0.1308996938995747,0.17998707911191522,0.34614517791596316,0.8077046964944543,-2.972263537167785,0,0,0,-0.7,0,0,1573,1571,1385,1500,1500,1500
1747552836.9231155,-0.53,-0.24,-0.13,0.19853120241435498,-0.33597588100890846,0.18980455615438332,0.38058634921617107,0.7711912783007622,-2.942856394827277,0,0,0,-0.7,0,0,1573,1571,1385,1500,1500,1500
1747552837.0236125,-0.53,-0.24,-0.13,0.19853120241435498,-0.33597588100890846,0.18980455615438332,0.38058634921617107,0.7711912783007622,-2.942856394827277,0,0,0,-0.7,0,0,1573,1571,1385,1500,1500,1500
1747552837.1232815,0.0,-0.17,-0.1,0.30325095753401476,-0.5879577917655898,0.22471114119426994,0.4201251102481321,0.6936452831919928,-2.9439869099118874,0,0,0,-0.7,0,0,1573,1571,1385,1500,1500,1500
1747552837.2222757,0.01,-0.07,-0.12,0.358883327441334,-0.7286749627076325,0.23343778745424157,0.4591514839649726,0.5924453016483592,-2.9595675175189036,0,0,0,-0.7,0,0,1573,1571,1385,1500,1500,1500
1747552837.306147,0.01,-0.07,-0.12,0.358883327441334,-0.7286749627076325,0.23343778745424157,0.4591514839649726,0.5924453016483592,-2.9595675175189036,0,0,0,-0.7,0,0,1573,1571,1385,1500,1500,1500
1747552837.4059806,-0.01,-0.02,-0.12,0.37742745074377376,-0.8104872713948668,0.2530727415391778,0.5034673031312327,0.46915341066138777,-2.985706049401565,0,0,0,-0.7,0,0,1573,1571,1385,1500,1500,1500
1747552837.5060754,-0.01,-0.02,-0.12,0.37742745074377376,-0.8104872713948668,0.2530727415391778,0.5034673031312327,0.46915341066138777,-2.985706049401565,0,0,0,-0.7,0,0,1573,1571,1385,1500,1500,1500
1747552837.6068156,0.13,-0.04,-0.23,0.37742745074377376,-0.8541205026947251,0.2781618495365963,0.546618365898048,0.34481692614836135,-3.0157649780585833,0,0,0,-0.7,0,0,1573,1571,1385,1500,1500,1500
1747552837.7058165,0.22,-0.09,-0.26,0.385063266221249,-0.8999353955595761,0.3119776037939864,0.5960211952559197,0.20519730887175225,-3.052317516718326,0,0,0,-0.7,0,0,1573,1571,1385,1500,1500,1500
1747552837.7902176,0.22,-0.09,-0.26,0.385063266221249,-0.8999353955595761,0.3119776037939864,0.5960211952559197,0.20519730887175225,-3.052317516718326,0,0,0,-0.7,0,0,1573,1571,1385,1500,1500,1500
1747552837.8898547,0.21,-0.16,-0.3,0.3916082509162277,-0.9315694882519734,0.33488505022641196,0.6472335430105556,0.06931116208391178,-3.09205737730812,0,0,0,-0.7,0,0,1573,1571,1385,1500,1500,1500
1747552837.9908824,0.21,-0.16,-0.3,0.3916082509162277,-0.9315694882519734,0.33488505022641196,0.6472335430105556,0.06931116208391178,-3.09205737730812,0,0,0,-0.7,0,0,1573,1571,1385,1500,1500,1500
1747552838.074266,0.19,-0.05,-0.38,0.38942658935123475,-0.9195703496445123,0.35124751196385884,0.7049425289279482,-0.06725180564994938,-3.1377103977742213,0,-0.722657,0,-0.161202,0,0,1533,1531,1425,1500,1500,1500
1747552838.1742306,0.33,-0.37,-0.23,0.4265148359561143,-0.7461282552275759,0.3119776037939864,0.7736189055365181,-0.19736745381567813,3.0972363755234475,0,-12.5,0,0,0,0,1493,1491,1465,1500,1500,1500
1747552838.2737064,0.33,-0.37,-0.23,0.4265148359561143,-0.7461282552275759,0.3119776037939864,0.7736189055365181,-0.19736745381567813,3.0972363755234475,0,-12.5,0,0,0,0,1453,1451,1505,1500,1500,1500
1747552838.3735423,0.12,-0.17,-0.43,0.45487643630102215,-0.5650503453331642,0.210530341021816,0.8531905250535452,-0.2963359679680383,3.05077758090044,0,-12.5,0,0,0,0,1413,1411,1545,1500,1500,1500
1747552838.470214,-0.1,-0.16,-0.32,0.5214171140333059,-0.4046982203061852,0.08835729338221293,0.9453277412192694,-0.3610393777479858,3.0037993829942047,0,-12.5,0,0,0,0,1373,1371,1585,1500,1500,1500
1747552838.5558507,-0.1,-0.16,-0.32,0.5214171140333059,-0.4046982203061852,0.08835729338221293,0.9453277412192694,-0.3610393777479858,3.0037993829942047,0,-12.5,0,0,0,0,1368,1371,1596,1500,1500,1500
1747552838.6562073,-0.54,-0.32,-0.1,0.4886921905584123,-0.136353847812057,-0.03490658503988659,1.0336580332034822,-0.38504312937611684,2.9685131924497803,0,-12.5,0,0,0,0,1368,1371,1596,1500,1500,1500
1747552838.7568395,-0.54,-0.32,-0.1,0.4886921905584123,-0.136353847812057,-0.03490658503988659,1.0336580332034822,-0.38504312937611684,2.9685131924497803,0,-12.5,0,0,0,0,1368,1371,1596,1500,1500,1500
1747552838.8405783,-0.07,-0.25,-0.2,0.3916082509162277,0.09599310885968812,-0.06544984694978735,1.104436915995961,-0.37506326668662476,2.963288009568859,0,-12.5,0,0,0,0,1368,1371,1596,1500,1500,1500
1747552838.9306898,0.3,-0.06,-0.45,0.2716168648416175,0.25089107997418486,-0.013089969389957472,1.1449074004112214,-0.35895520007514287,2.9859421624232785,0,-12.5,0,0,0,0,1368,1371,1596,1500,1500,1500
1747552839.023328,0.3,-0.06,-0.45,0.2716168648416175,0.25089107997418486,-0.013089969389957472,1.1449074004112214,-0.35895520007514287,2.9859421624232785,0,-12.5,0,0,0,0,1368,1371,1596,1500,1500,1500
1747552839.1238542,-0.06,0.0,-0.27,0.07963064712224129,0.3948807432637171,-0.013089969389957472,1.154593998730113,-0.33774233710409796,3.0356186697114493,0,-12.5,0,0,0,0,1368,1371,1596,1500,1500,1500
1747552839.2238033,-0.06,0.0,-0.27,0.07963064712224129,0.3948807432637171,-0.013089969389957472,1.154593998730113,-0.33774233710409796,3.0356186697114493,0,-12.5,0,0,0,0,1368,1371,1596,1500,1500,1500
1747552839.3063128,0.0,-0.06,0.02,-0.04908738521234052,0.5083271446433485,-0.02399827721492203,1.136087737471527,-0.3074015247236561,3.0986341997046476,0,-12.5,0,0,0,0,1368,1371,1596,1500,1500,1500
1747552839.406006,-0.05,-0.15,-0.17,-0.12326387842209953,0.6130468997630083,0.008726646259971648,1.0986890408738414,-0.2691383246014016,-3.1028104928323637,0,-12.5,0,0,0,0,1368,1371,1596,1500,1500,1500
1747552839.505804,-0.05,-0.15,-0.17,-0.12326387842209953,0.6130468997630083,0.008726646259971648,1.0986890408738414,-0.2691383246014016,-3.1028104928323637,0,-12.5,0,0,0,0,1368,1371,1596,1500,1500,1500
1747552839.589947,-0.1,-0.19,-0.1,-0.19744037163185854,0.6850417314077744,0.05345070834232634,1.0540765823622364,-0.2286945827668146,-3.0146047885616545,0,-12.5,0,0,0,0,1368,1371,1596,1500,1500,1500
1747552839.6901646,-0.1,-0.19,-0.1,-0.19744037163185854,0.6850417314077744,0.05345070834232634,1.0540765823622364,-0.2286945827668146,-3.0146047885616545,0,-12.5,0,0,0,0,1368,1371,1596,1500,1500,1500
1747552839.773187,0.06,-0.15,-0.13,-0.32288591161895097,0.7603090554000298,0.13199052468207118,0.9912981119670314,-0.18243546218182352,-2.908340099551824,0,-12.5,0,0,0,0,1368,1371,1596,1500,1500,1500
1747552839.8733978,0.08,-0.15,-0.06,-0.43960480534607177,0.7592182246175333,0.17780541754692233,0.9176947132755449,-0.13743508710295643,-2.802334749608146,0,-12.5,0,0,0,0,1368,1371,1596,1500,1500,1500
1747552839.9730299,0.08,-0.15,-0.06,-0.43960480534607177,0.7592182246175333,0.17780541754692233,0.9176947132755449,-0.13743508710295643,-2.802334749608146,0,-12.5,0,0,0,0,1368,1371,1596,1500,1500,1500
1747552840.0557597,-0.1,-0.31,0.0,-0.48105637508093707,0.7286749627076325,0.2301652951067522,0.8340841865740162,-0.08800701807636588,-2.6942841337081713,0,-12.5,0,0,0,0,1368,1371,1596,1500,1500,1500
1747552840.1576593,-0.1,-0.31,0.0,-0.48105637508093707,0.7286749627076325,0.2301652951067522,0.8340841865740162,-0.08800701807636588,-2.6942841337081713,0,-12.5,0,0,0,0,1368,1371,1596,1500,1500,1500
1747552840.2573092,-0.03,-0.36,-0.08,-0.533416252640767,0.729765793490129,0.2748893571891069,0.7478274427058945,-0.03657422473133069,-2.585201073998124,0,-12.5,0,0,0,0,1368,1371,1596,1500,1500,1500
1747552840.358741,-0.38,-0.25,-0.15,-0.5705044992456465,0.7395832705325971,0.30652344988150415,0.6665914843481502,0.01805520550548356,-2.4832131253716083,0,-12.5,0,0,0,0,1368,1371,1596,1500,1500,1500
1747552840.4583786,-0.38,-0.25,-0.15,-0.5705044992456465,0.7395832705325971,0.30652344988150415,0.6665914843481502,0.01805520550548356,-2.4832131253716083,0,-12.5,0,0,0,0,1368,1371,1596,1500,1500,1500
1747552840.5416656,-0.05,-0.29,-0.08,-0.5781403147231217,0.7603090554000298,0.29343348049154666,0.5823696948453273,0.0853454833739783,-2.3776355316461784,0,-12.5,0,0,0,0,1368,1371,1596,1500,1500,1500
1747552840.639966,-0.05,-0.29,-0.08,-0.5781403147231217,0.7603090554000298,0.29343348049154666,0.5823696948453273,0.0853454833739783,-2.3776355316461784,0,-12.5,0,0,0,0,1368,1371,1596,1500,1500,1500
1747552840.7402909,-0.08,-0.21,-0.21,-0.5846852994181004,0.7603090554000298,0.29888763440402893,0.5091530509783871,0.1574240499046665,-2.282202345482528,0,-12.5,0,0,0,0,1368,1371,1596,1500,1500,1500
1747552840.8236535,-0.4,-0.29,-0.15,-0.5715953300281429,0.7744898555724837,0.2999784651865254,0.43858907652846774,0.24220143723957088,-2.184561578291284,0,-12.5,0,0,0,0,1368,1371,1596,1500,1500,1500
1747552840.9231226,-0.4,-0.29,-0.15,-0.5715953300281429,0.7744898555724837,0.2999784651865254,0.43858907652846774,0.24220143723957088,-2.184561578291284,0,-12.5,0,0,0,0,1368,1371,1596,1500,1500,1500
1747552841.0227191,-0.31,-0.37,-0.25,-0.5475970528132209,0.7821256710499589,0.3196134192714616,0.3823587514460114,0.32834145116457414,-2.095126879177148,0,0,0,0,0,0,1408,1411,1556,1500,1500,1500
1747552841.1234624,-0.22,-0.5700000000000001,-0.37,-0.5475970528132209,0.7984881327874057,0.32506757318394386,0.33146628697867403,0.4277023680423756,-1.9992428125036483,0,0,0,0,0,0,1448,1451,1516,1500,1500,1500
1747552841.2233925,-0.22,-0.5700000000000001,-0.37,-0.5475970528132209,0.7984881327874057,0.32506757318394386,0.33146628697867403,0.4277023680423756,-1.9992428125036483,0,0,6.075851,0,0,0,1408,1411,1556,1500,1460,1460
1747552841.3074071,-0.12,-0.31,-0.34,-0.3817907738737596,0.4821472058634335,0.34579335805137656,0.29748517368405597,0.5062187386488934,-1.9098794145693427,0,0,7.5,0,0,0,1368,1371,1596,1500,1420,1420
1747552841.405899,-0.12,-0.31,-0.34,-0.3817907738737596,0.4821472058634335,0.34579335805137656,0.29748517368405597,0.5062187386488934,-1.9098794145693427,0,0,7.5,0,0,0,1328,1331,1636,1500,1380,1380
1747552841.5072927,-0.91,-0.18,-0.11,-0.31525009614147576,0.36106498900632694,0.37742745074377376,0.28807371167487816,0.5467853703497021,-1.82871608200193,0,0,7.5,0,0,0,1312,1319,1676,1500,1340,1340
1747552841.6058466,-0.23,-0.28,-0.16,-0.4908738521234052,0.5312345910757741,0.38288160465625604,0.2795587685489708,0.5990551711935479,-1.7451046407786293,0,0,7.5,0,0,0,1312,1319,1716,1500,1300,1300
1747552841.7066486,-0.23,-0.28,-0.16,-0.4908738521234052,0.5312345910757741,0.38288160465625604,0.2795587685489708,0.5990551711935479,-1.7451046407786293,0,0,7.5,0,0,0,1312,1319,1746,1500,1260,1260
1747552841.7904117,0.43,0.34,-0.33,-1.7791450062517198,1.0755591515415055,0.29670597283903605,0.21292788598082787,0.6865365495217036,-1.6501654132950687,0,0,7.5,0,0,0,1312,1319,1746,1500,1220,1220
1747552841.889898,0.43,0.34,-0.33,-1.7791450062517198,1.0755591515415055,0.29670597283903605,0.21292788598082787,0.6865365495217036,-1.6501654132950687,0,0,6.199691,0,0,0,1332,1339,1720,1500,1180,1180
1747552841.9901433,1.62,0.43,-0.8,-3.464478565208744,1.4322608174178466,0.04799655442984406,-0.16706243689405428,0.8831859669181624,-1.6062352088447047,0,0,0,0,0,0,1372,1379,1680,1500,1220,1220
1747552842.073077,0.02,0.2,-1.79,-3.464478565208744,1.4322608174178466,0.04799655442984406,-0.9305416523637577,1.0673928051319015,-1.7573561244258908,0,0,0,0,0,0,1412,1419,1640,1500,1260,1260
1747552842.1737971,0.02,0.2,-1.79,-3.464478565208744,1.4322608174178466,0.04799655442984406,-0.9305416523637577,1.0673928051319015,-1.7573561244258908,0,0,0,0,0,0,1452,1459,1600,1500,1300,1300
1747552842.273167,-0.8200000000000001,0.11,-1.76,-4.993823322268775,0.918479518862016,-0.09272061651219876,-2.061009444782494,1.0837049580103377,-2.1229214905638827,0,0,0,0,0,0,1492,1499,1560,1500,1340,1340
1747552842.3689365,-0.52,0.32,-1.33,-4.998186645398762,0.5508695451607103,-0.2519819107566813,-2.9203528570441,0.985068372008819,-2.2185234723656313,0,0,0,0,0,0,1500,1500,1520,1500,1380,1380
1747552842.4737499,-0.52,0.32,-1.33,-4.998186645398762,0.5508695451607103,-0.2519819107566813,-2.9203528570441,0.985068372008819,-2.2185234723656313,0,0,0,0,0,0,1500,1500,1500,1500,1420,1420
1747552842.557055,0.01,0.15,-0.8,-4.027347248976915,0.11671889372712078,-0.3392483733563978,2.732881665675946,0.9443564060279056,-2.1309998749819967,0,0,0,0,0,0,1500,1500,1500,1500,1460,1460
1747552842.655941,0.01,0.15,-0.8,-4.027347248976915,0.11671889372712078,-0.3392483733563978,2.732881665675946,0.9443564060279056,-2.1309998749819967,0,0,0,0,0,0,1500,1500,1500,1500,1500,1500
1747552842.7560792,0.08,-0.31,-0.36,-3.136138499677311,0.02181661564992912,-0.26725354171163174,2.253565956864497,0.9648494931052628,-2.0679145950375397,0,0,0,0,0,0,1500,1500,1500,1500,1500,1500
1747552842.8397741,-0.15,-0.02,-0.13,-2.1663899340379618,0.017453292519943295,-0.2476185876266955,1.8808271039214297,0.9983297521754979,-2.0307860844787458,0,0,0,0,0,0,1500,1500,1500,1500,1500,1500
1747552842.9404216,-0.15,-0.02,-0.13,-2.1663899340379618,0.017453292519943295,-0.2476185876266955,1.8808271039214297,0.9983297521754979,-2.0307860844787458,0,0,0,0,0,0,1500,1500,1500,1500,1500,1500
1747552843.0227542,-0.14,-0.08,0.03,-1.5871587885323435,0.031634092692397225,-0.2552544031041707,1.6291997063828412,1.0334657095898907,-2.012320249846165,0,0,0,0,0,0,1500,1500,1500,1500,1500,1500
1747552843.1229765,-0.14,-0.08,0.03,-1.5871587885323435,0.031634092692397225,-0.2552544031041707,1.6291997063828412,1.0334657095898907,-2.012320249846165,0,0,0,0,0,0,1500,1500,1500,1500,1500,1500
1747552843.2225635,-0.06,-0.02,-0.02,-1.1301006906663285,0.04145156973486533,-0.2716168648416175,1.4294015511763558,1.0744660950718365,-2.0052130637571635,0,0,0,0,0,0,1500,1500,1500,1500,1500,1500
1747552843.306093,-0.1,-0.01,0.0,-0.8213955792198313,0.06217735460229799,-0.29888763440402893,1.2860225539735384,1.1165570384100403,-2.0089491020409027,0,0,0,0,0,0,1500,1500,1500,1500,1500,1500
1747552843.4059618,-0.1,-0.01,0.0,-0.8213955792198313,0.06217735460229799,-0.29888763440402893,1.2860225539735384,1.1165570384100403,-2.0089491020409027,0,0,0,0,0,0,1500,1500,1500,1500,1500,1500
1747552843.5062041,-0.09,-0.05,0.07,-0.5530512067257032,0.08290313946973066,-0.3119776037939864,1.1766649278248802,1.1623876736905099,-2.0228734129838646,0,0,0,0,0,0,1500,1500,1500,1500,1500,1500
1747552843.5897133,-0.09,-0.05,0.07,-0.5530512067257032,0.08290313946973066,-0.3119776037939864,1.1766649278248802,1.1623876736905099,-2.0228734129838646,0,0,0,0,0,0,1500,1500,1500,1500,1500,1500
1747552843.6891828,-0.09,-0.07,0.07,-0.32070425005395803,0.09926560120717749,-0.32288591161895097,1.0888533226357926,1.2130943626432122,-2.0539003432082756,0,0,0,0,0,0,1500,1500,1500,1500,1500,1500
1747552843.7906654,-0.12,-0.04,0.04,-0.1559888018969932,0.12326387842209953,-0.3174317577064687,1.0280937561342967,1.2614210513753887,-2.0975928249807487,0,0,1.431888,0,0,0,1460,1460,1540,1500,1460,1460
1747552843.890657,-0.12,-0.04,0.04,-0.1559888018969932,0.12326387842209953,-0.3174317577064687,1.0280937561342967,1.2614210513753887,-2.0975928249807487,0,0,2.360681,0,0,0,1420,1420,1580,1500,1420,1420
1747552843.9896152,-0.09,-0.04,0.15,-0.037088246604879506,0.13199052468207118,-0.2825251726665821,0.9865692475087343,1.3115579140510172,-2.134981487114095,0,0,2.360681,0,0,0,1404,1406,1620,1500,1380,1380
1747552844.0737681,-0.09,-0.04,0.15,-0.037088246604879506,0.13199052468207118,-0.2825251726665821,0.9865692475087343,1.3115579140510172,-2.134981487114095,0,0,2.48452,0,0,0,1401,1404,1624,1500,1340,1340
1747552844.1733446,-0.05,0.32,0.04,-0.08944812416470939,0.18435040224190105,-0.24107360293171676,0.9624029288604696,1.3575059373873182,-2.1613421087844196,0,0,2.639319,0,0,0,1398,1401,1629,1500,1300,1300
1747552844.2736597,-0.41000000000000003,0.25,0.5,-0.954476934684399,0.48432886742842646,-0.23343778745424157,1.007059776522518,1.4106731004983937,-2.0595490925451614,0,0,2.825077,0,0,0,1394,1397,1635,1500,1260,1260
1747552844.3738852,-0.41000000000000003,0.25,0.5,-0.954476934684399,0.48432886742842646,-0.23343778745424157,1.007059776522518,1.4106731004983937,-2.0595490925451614,0,0,2.856037,0,0,0,1394,1397,1636,1500,1220,1220
1747552844.472976,0.29,0.46,-0.43,-2.7303494485886293,0.6774059159302992,-0.3174317577064687,1.2505292152676846,1.4889130431933995,-1.5343196412675106,0,0,2.329721,0,0,0,1405,1407,1621,1500,1180,1180
1747552844.557365,-0.15,-0.36,-0.79,-4.369868114680803,0.7374016089676042,-0.23671027980173096,2.4842926700546775,1.504379889860663,0.22220437681855032,0,0,0.936532,0,0,0,1437,1439,1581,1500,1220,1220
1747552844.6560202,-0.15,-0.36,-0.79,-4.369868114680803,0.7374016089676042,-0.23671027980173096,2.4842926700546775,1.504379889860663,0.22220437681855032,0,0,0,0,0,0,1477,1479,1541,1500,1260,1260
1747552844.7557411,-0.62,-0.56,-1.83,-4.369868114680803,0.7374016089676042,-0.23671027980173096,2.536427966159011,1.4327862137800103,1.047639750216467,0,0,0,0,0,0,1500,1500,1501,1500,1300,1300
1747552844.839985,-0.62,-0.56,-1.83,-4.369868114680803,0.7374016089676042,-0.23671027980173096,2.536427966159011,1.4327862137800103,1.047639750216467,0,0,0,0,0,0,1500,1500,1500,1500,1340,1340
1747552844.940418,-0.16,-0.68,-1.35,-4.369868114680803,0.7374016089676042,-0.23671027980173096,2.1182162362658796,1.409044832754505,1.4256889070111987,0,0,0,0,0,0,1500,1500,1500,1500,1380,1380
1747552845.0237727,-0.15,0.28,-1.0,-4.305509098513512,0.14289883250703572,-0.0545415391248228,1.5416980480136548,1.4138936315834219,1.600496992403225,0,0,0,0,0,0,1500,1500,1500,1500,1420,1420
1747552845.123365,-0.15,0.28,-1.0,-4.305509098513512,0.14289883250703572,-0.0545415391248228,1.5416980480136548,1.4138936315834219,1.600496992403225,0,0,0,0,0,0,1500,1500,1500,1500,1460,1460
1747552845.2235615,-0.01,-0.05,-0.35000000000000003,-3.0106929596902186,0.21380283336930536,0.06435901616729091,1.1588340477443477,1.4229620614712037,1.7595061014946853,0,0,0,0,0,0,1500,1500,1500,1500,1500,1500
1747552845.3058243,-0.01,-0.05,-0.35000000000000003,-3.0106929596902186,0.21380283336930536,0.06435901616729091,1.1588340477443477,1.4229620614712037,1.7595061014946853,0,0,-1.865325,0,0,0,1540,1540,1460,1500,1540,1540
1747552845.4057639,-0.14,0.12,-0.15,-1.9896753472735358,0.23889194136672387,0.29670597283903605,1.0778086693891973,1.4131010647072184,2.0686596101879213,0,0,-3.691951,0,0,0,1580,1580,1420,1500,1580,1580
1747552845.5057569,0.16,0.42,-0.14,-1.1966413683986121,0.2007128639793479,0.43196898986859655,1.1684994784993499,1.3753266920298115,2.4010226255724962,0,0,-2.979876,0,0,0,1596,1593,1380,1500,1620,1620
1747552845.6058645,0.16,0.42,-0.14,-1.1966413683986121,0.2007128639793479,0.43196898986859655,1.1684994784993499,1.3753266920298115,2.4010226255724962,0,0,-2.608359,0,0,0,1590,1587,1353,1500,1660,1660
1747552845.7060819,-0.17,0.14,0.1,-0.37306412761378793,0.12326387842209953,0.47451139038595835,1.2605916623551099,1.3178519100270947,2.6221477209953585,0,0,-2.360681,0,0,0,1585,1583,1360,1500,1700,1700
1747552845.789518,-0.17,0.14,0.1,-0.37306412761378793,0.12326387842209953,0.47451139038595835,1.2605916623551099,1.3178519100270947,2.6221477209953585,0,0,-2.205882,0,0,0,1583,1580,1366,1500,1740,1740
1747552845.8898268,-0.38,-0.17,-0.31,0.7472190860100724,-0.14289883250703572,0.49741883681838395,1.3571487346744289,1.2487491123448504,2.7029611023300655,0,0,-2.082043,0,0,0,1580,1578,1370,1500,1780,1780
1747552845.9902248,0.01,-0.16,-0.65,2.9703322207378497,-0.32615840396644036,0.2519819107566813,1.5485453366772313,1.189735699794485,2.6233773548276837,0,0,-1.834365,0,0,0,1576,1574,1379,1500,1820,1820
1747552846.0738056,0.01,-0.16,-0.65,2.9703322207378497,-0.32615840396644036,0.2519819107566813,1.5485453366772313,1.189735699794485,2.6233773548276837,0,0,-1.462848,0,0,0,1568,1566,1394,1500,1809,1804
