time,ay,ax,az,gy,gx,gz,roll,pitch,yaw,cmd_fx,cmd_fy,cmd_fz,cmd_tx,cmd_ty,cmd_tz,pwm_1,pwm_2,pwm_3,pwm_4,pwm_5,pwm_6
1747554278.976922,0.0,0.0,0.0,0.0,0.0,0.0,0.0,0.0,0.0,0,0,0,0,0,0,1500,1500,1500,1500,1500,1500
1747554279.0751894,-0.07,-0.27,0.04,-0.003272492347489368,0.0,0.0,2.0675749151943035,-0.16721636828225528,-0.279905578117544,0,0,0,0,0,0,1500,1500,1500,1500,1500,1500
1747554279.176033,-0.07,-0.27,0.04,-0.003272492347489368,0.0,0.0,2.0675749151943035,-0.16721636828225528,-0.279905578117544,0,0,0,0,0,0,1500,1500,1500,1500,1500,1500
1747554279.2599614,-0.01,-0.25,0.15,-0.006544984694978736,0.0,0.001090830782496456,2.067624590960106,-0.16719634498993757,-0.2799055708556543,0,0,0,0,0,0,1500,1500,1500,1500,1500,1500
1747554279.360561,-0.01,-0.25,0.15,-0.006544984694978736,0.0,0.001090830782496456,2.067624590960106,-0.16719634498993757,-0.2799055708556543,0,0,0,0,0,0,1500,1500,1500,1500,1500,1500
1747554279.459616,-0.05,-0.27,0.05,-0.01090830782496456,-0.002181661564992912,-0.003272492347489368,2.0675749151943035,-0.16721636828225528,-0.279905578117544,0,0,0,0,0,0,1500,1500,1500,1500,1500,1500
1747554279.5436177,0.04,-0.02,0.03,-0.004363323129985824,-0.003272492347489368,0.001090830782496456,2.067169818422782,-0.16725643018196967,-0.2798671042006586,0,0,0,0,0,0,1500,1500,1500,1500,1500,1500
1747554279.6434503,0.04,-0.02,0.03,-0.004363323129985824,-0.003272492347489368,0.001090830782496456,2.067169818422782,-0.16725643018196967,-0.2798671042006586,0,0,0,0,0,0,1500,1500,1500,1500,1500,1500
1747554279.7422857,-0.02,-0.02,0.02,-0.001090830782496456,0.002181661564992912,-0.002181661564992912,2.067169818422782,-0.16725643018196967,-0.2798671042006586,0,0,0,0,0,0,1500,1500,1500,1500,1500,1500
1747554279.8403008,0.0,0.0,-0.07,0.004363323129985824,-0.001090830782496456,-0.002181661564992912,2.067169818422782,-0.16725643018196967,-0.2798671042006586,0,0,0,0,0,0,1500,1500,1500,1500,1500,1500
1747554279.9433868,0.0,0.0,-0.07,0.004363323129985824,-0.001090830782496456,-0.002181661564992912,2.067169818422782,-0.16725643018196967,-0.2798671042006586,0,0,0,0,0,0,1500,1500,1500,1500,1500,1500
1747554280.02588,0.02,-0.03,0.01,0.001090830782496456,-0.004363323129985824,-0.001090830782496456,2.067169818422782,-0.16725643018196967,-0.2798671042006586,0,0,0,0,0,0,1500,1500,1500,1500,1500,1500
1747554280.12604,0.02,-0.03,0.01,0.001090830782496456,-0.004363323129985824,-0.001090830782496456,2.067169818422782,-0.16725643018196967,-0.2798671042006586,0,0,0,0,0,0,1500,1500,1500,1500,1500,1500
1747554280.2261703,-0.02,-0.04,-0.07,-0.001090830782496456,-0.004363323129985824,0.0,2.067169818422782,-0.16725643018196967,-0.2798671042006586,0,0,0,0,0,0,1500,1500,1500,1500,1500,1500
1747554280.3272467,-0.02,-0.02,-0.06,-0.002181661564992912,-0.002181661564992912,-0.001090830782496456,2.067169818422782,-0.16725643018196967,-0.2798671042006586,0,0,0,0,0,0,1500,1500,1500,1500,1500,1500
1747554280.426628,-0.02,-0.02,-0.06,-0.002181661564992912,-0.002181661564992912,-0.001090830782496456,2.067169818422782,-0.16725643018196967,-0.2798671042006586,0,0,0,0,0,0,1500,1500,1500,1500,1500,1500
1747554280.5111682,0.0,-0.02,0.02,0.001090830782496456,-0.003272492347489368,0.002181661564992912,2.067169818422782,-0.16725643018196967,-0.2798671042006586,0,0,0,0,0,0,1500,1500,1500,1500,1500,1500
1747554280.6099744,0.0,-0.02,0.02,0.001090830782496456,-0.003272492347489368,0.002181661564992912,2.067169818422782,-0.16725643018196967,-0.2798671042006586,0,0,0,0,0,0,1500,1500,1500,1500,1500,1500
1747554280.710165,-0.04,-0.01,-0.03,-0.004363323129985824,-0.003272492347489368,-0.001090830782496456,2.067169818422782,-0.16725643018196967,-0.2798671042006586,0,0,0,0,0,0,1500,1500,1500,1500,1500,1500
1747554280.7928054,-0.02,-0.04,0.03,-0.002181661564992912,0.00545415391248228,-0.001090830782496456,2.067169818422782,-0.16725643018196967,-0.2798671042006586,3,0,0,0,0,0,1460,1539,1500,1540,1540,1540
1747554280.8937035,-0.02,-0.04,0.03,-0.002181661564992912,0.00545415391248228,-0.001090830782496456,2.067169818422782,-0.16725643018196967,-0.2798671042006586,3,0,0,0,0,0,1460,1539,1500,1563,1550,1550
1747554280.9936855,-0.05,-0.02,-0.05,0.0,0.001090830782496456,0.0,2.067169818422782,-0.16725643018196967,-0.2798671042006586,3,0,0,0,0,0,1460,1539,1500,1563,1550,1550
1747554281.0930486,-0.05,-0.02,-0.05,0.0,0.001090830782496456,0.0,2.067169818422782,-0.16725643018196967,-0.2798671042006586,3,0,0,0,0,0,1460,1539,1500,1563,1550,1550
1747554281.193238,0.1,0.06,0.0,0.044724062082354694,0.004363323129985824,-0.055632369907319255,2.068949271591602,-0.16547940581445558,-0.27888835233767173,3,0,0,0,0,0,1460,1539,1500,1563,1550,1550
1747554281.2772307,-0.07,0.05,-0.01,0.037088246604879506,0.016362461737446838,-0.11671889372712078,2.0749329696705003,-0.1534343340825229,-0.2708803562817086,3,0,0,0,0,0,1460,1539,1500,1563,1550,1550
1747554281.3759098,-0.07,0.05,-0.01,0.037088246604879506,0.016362461737446838,-0.11671889372712078,2.0749329696705003,-0.1534343340825229,-0.2708803562817086,3,0,0,0,0,0,1460,1539,1500,1563,1550,1550
1747554281.4765563,-0.03,0.0,-0.03,0.050178215994836975,0.04036073895236887,-0.14944381720201447,2.084365496023469,-0.14508034406415163,-0.27105998295682876,3,0,0,0,0,0,1460,1539,1500,1563,1550,1550
1747554281.576467,-0.03,0.0,-0.03,0.050178215994836975,0.04036073895236887,-0.14944381720201447,2.084365496023469,-0.14508034406415163,-0.27105998295682876,3,0,0,0,0,0,1460,1539,1500,1563,1550,1550
1747554281.6765597,0.07,-0.02,-0.01,0.06326818538479445,0.06435901616729091,-0.15489797111449674,2.0863482721725757,-0.12103285190501119,-0.23958992920609654,3,0,0,0,0,0,1460,1539,1500,1563,1550,1550
1747554281.759593,-0.03,0.01,0.09,0.0719948316447661,0.08944812416470939,-0.14180800172453928,2.094453029078948,-0.10640827090015224,-0.2178051202234889,3,0,0,0,0,0,1460,1539,1500,1563,1550,1550
1747554281.8599048,-0.03,0.01,0.09,0.0719948316447661,0.08944812416470939,-0.14180800172453928,2.094453029078948,-0.10640827090015224,-0.2178051202234889,3,0,0,0,0,0,1460,1539,1500,1563,1550,1550
1747554281.9596813,-0.11,-0.02,0.08,0.06544984694978735,0.11453723216212788,-0.12544553998709243,2.102139986399342,-0.09683424341725058,-0.1951958184894734,3,0,0,0,0,0,1460,1539,1500,1563,1550,1550
1747554282.0427227,-0.01,0.0,-0.02,0.06217735460229799,0.136353847812057,-0.10690141668465268,2.1093357504111725,-0.09149454726472604,-0.1711333769639978,3,0,0,0,0,0,1460,1539,1500,1563,1550,1550
1747554282.143067,-0.01,0.0,-0.02,0.06217735460229799,0.136353847812057,-0.10690141668465268,2.1093357504111725,-0.09149454726472604,-0.1711333769639978,3,0,0,0,0,0,1460,1539,1500,1563,1550,1550
1747554282.2432578,-0.05,0.0,0.05,0.050178215994836975,0.1439896632895322,-0.10144726277217041,2.1155445970744506,-0.08869358473289998,-0.14407294744898752,3,0,0,0,0,0,1460,1539,1500,1563,1550,1550
1747554282.3434584,-0.05,0.0,0.05,0.050178215994836975,0.1439896632895322,-0.10144726277217041,2.1155445970744506,-0.08869358473289998,-0.14407294744898752,3,0,0,0,0,0,1460,1539,1500,1563,1550,1550
1747554282.4435694,-0.04,0.02,0.07,0.0272707695624114,0.15489797111449674,-0.08508480103472356,2.1189682643354195,-0.08821274434217534,-0.11665689955748838,0,0,0,0,0,0,1500,1500,1500,1523,1510,1510
1747554282.5262818,0.0,0.14,0.13,0.008726646259971648,0.16253378659197193,-0.07417649320975901,2.1189757599007306,-0.09016916839954772,-0.08900946109420128,0,0,0,0,0,0,1500,1500,1500,1500,1500,1500
1747554282.626185,0.0,0.14,0.13,0.008726646259971648,0.16253378659197193,-0.07417649320975901,2.1189757599007306,-0.09016916839954772,-0.08900946109420128,0,0,0,0,0,0,1500,1500,1500,1500,1500,1500
1747554282.72613,-0.07,-0.05,0.0,0.011999138607461015,0.1538071403320003,0.011999138607461015,2.1183743964035284,-0.09845293341599598,-0.06582015153946476,0,0,0,0,0,0,1500,1500,1500,1500,1500,1500
1747554282.8263953,-0.07,-0.05,0.0,0.011999138607461015,0.1538071403320003,0.011999138607461015,2.1183743964035284,-0.09845293341599598,-0.06582015153946476,0,0,0,0,0,0,1500,1500,1500,1500,1500,1500
1747554282.927037,-0.1,0.03,0.0,-0.002181661564992912,0.14180800172453928,0.05126904677733343,2.1167972546459572,-0.11346966148148123,-0.04975740585907286,0,0,0,0,0,0,1500,1500,1500,1500,1500,1500
1747554283.009561,-0.11,0.02,0.03,-0.013089969389957472,0.13199052468207118,0.07744898555724837,2.114720932370531,-0.13264022594895994,-0.03676862268752653,0,0,0,0,0,0,1500,1500,1500,1500,1500,1500
1747554283.109326,-0.11,0.02,0.03,-0.013089969389957472,0.13199052468207118,0.07744898555724837,2.114720932370531,-0.13264022594895994,-0.03676862268752653,0,0,0,0,0,0,1500,1500,1500,1500,1500,1500
1747554283.2093978,-0.1,0.03,0.06,-0.025089107997418487,0.11780972450961724,0.0818123086872342,2.1107677835827467,-0.15123628212756066,-0.027293440217027475,0,0,0,0,0,0,1500,1500,1500,1500,1500,1500
1747554283.291072,-0.12,0.03,0.04,-0.038179077387375956,0.09817477042468103,0.07417649320975901,2.10438876165065,-0.16828712383203165,-0.019255147888109746,0,0,0,0,0,0,1500,1500,1500,1500,1500,1500
1747554283.393057,-0.12,0.03,0.04,-0.038179077387375956,0.09817477042468103,0.07417649320975901,2.10438876165065,-0.16828712383203165,-0.019255147888109746,0,0,0,0,0,0,1500,1500,1500,1500,1500,1500
1747554283.4935067,-0.16,0.07,-0.03,-0.0545415391248228,0.08508480103472356,0.06544984694978735,2.095747280214149,-0.18363798677567367,-0.01213545488883004,0,0,0,0,0,0,1500,1500,1500,1500,1500,1500
1747554283.5939345,-0.16,0.07,-0.03,-0.0545415391248228,0.08508480103472356,0.06544984694978735,2.095747280214149,-0.18363798677567367,-0.01213545488883004,0,0,0,0,0,0,1500,1500,1500,1500,1500,1500
1747554283.694741,-0.11,0.08,0.02,-0.05781403147231216,0.07635815477475191,0.05345070834232634,2.0859082309959693,-0.19670631181396164,-0.0060622050755860316,0,0,0,0,0,0,1500,1500,1500,1500,1500,1500
1747554283.7944891,-0.16,0.06,-0.03,-0.05999569303730508,0.05999569303730508,0.04254240051736178,2.0761634275972547,-0.20832755667189973,-0.000827767737188348,0,0,0,0,0,0,1500,1500,1500,1500,1500,1500
1747554283.8936658,-0.16,0.06,-0.03,-0.05999569303730508,0.05999569303730508,0.04254240051736178,2.0761634275972547,-0.20832755667189973,-0.000827767737188348,-3,0,0,0,0,0,1540,1460,1500,1460,1460,1460
1747554283.9785533,-0.12,0.04,0.04,-0.05781403147231216,0.04908738521234052,0.025089107997418487,2.065911482241062,-0.21675461291150802,0.003839490484404204,-3,0,0,0,0,0,1548,1447,1500,1420,1423,1423
1747554284.0780456,-0.12,0.04,0.04,-0.05781403147231216,0.04908738521234052,0.025089107997418487,2.065911482241062,-0.21675461291150802,0.003839490484404204,-3,0,0,0,0,0,1548,1447,1500,1398,1423,1423
1747554284.1772876,-0.18,0.02,0.04,-0.05781403147231216,0.03381575425739013,0.007635815477475192,2.0564496263087357,-0.22096276351816807,0.007849663243766415,-3,0,0,0,0,0,1548,1447,1500,1398,1423,1423
1747554284.259653,-0.17,0.15,0.04,-0.10690141668465268,0.011999138607461015,0.11235557059713497,2.0449135104348195,-0.22689409177673422,0.00875225941267365,-3,0,0,0,0,0,1548,1447,1500,1398,1423,1423
1747554284.3605516,-0.17,0.15,0.04,-0.10690141668465268,0.011999138607461015,0.11235557059713497,2.0449135104348195,-0.22689409177673422,0.00875225941267365,-3,0,0,0,0,0,1548,1447,1500,1398,1423,1423
1747554284.4600773,-0.19,-0.18,0.27,-0.08944812416470939,-0.003272492347489368,0.2530727415391778,2.031792014915716,-0.2514335003380321,-0.0032802669864824057,-3,0,0,0,0,0,1548,1447,1500,1398,1423,1423
1747554284.5604374,-0.03,-0.03,-0.06,-0.09053895494720585,-0.016362461737446838,0.3337942194439155,2.024717640460497,-0.29240034937627907,-0.026105449704728747,-3,0,0,0,0,0,1548,1447,1500,1398,1423,1423
1747554284.6604402,-0.03,-0.03,-0.06,-0.09053895494720585,-0.016362461737446838,0.3337942194439155,2.024717640460497,-0.29240034937627907,-0.026105449704728747,-3,0,0,0,0,0,1548,1447,1500,1398,1423,1423
1747554284.7427158,-0.22,-0.11,0.0,-0.136353847812057,-0.03599741582238305,0.3959715740462135,2.016200890392156,-0.34091965607791924,-0.05637605861655757,-3,0,0,0,0,0,1548,1447,1500,1398,1423,1423
1747554284.8432634,-0.22,-0.11,0.0,-0.136353847812057,-0.03599741582238305,0.3959715740462135,2.016200890392156,-0.34091965607791924,-0.05637605861655757,-3,0,0,0,0,0,1548,1447,1500,1398,1423,1423
1747554284.9440327,-0.14,-0.08,-0.06,-0.16580627893946132,-0.06763150851478027,0.4461497900410505,2.0069901802634034,-0.39267055923474975,-0.09187821760783424,-3,0,0,0,0,0,1548,1447,1500,1398,1423,1423
1747554285.025833,-0.03,-0.05,0.07,-0.19525871006686563,-0.10253809355466686,0.4734205596034619,1.9981178934417099,-0.45144796755069805,-0.13795480529995424,-3,0,0,0,0,0,1548,1447,1500,1398,1423,1423
1747554285.1271913,-0.03,-0.05,0.07,-0.19525871006686563,-0.10253809355466686,0.4734205596034619,1.9981178934417099,-0.45144796755069805,-0.13795480529995424,-3,0,0,0,0,0,1548,1447,1500,1398,1423,1423
1747554285.2274463,0.0,0.03,0.07,-0.21162117180431245,-0.13526301702956053,0.48323803664593,1.9919948793846534,-0.5112472496736356,-0.1915226710423827,-3,0,0,0,0,0,1548,1447,1500,1398,1423,1423
1747554285.326409,0.0,0.03,0.07,-0.21162117180431245,-0.13526301702956053,0.48323803664593,1.9919948793846534,-0.5112472496736356,-0.1915226710423827,-3,0,0,0,0,0,1548,1447,1500,1398,1423,1423
1747554285.4269068,-0.08,-0.02,-0.01,-0.22689280275926285,-0.16035212502697901,0.4854196982109229,1.989391765761582,-0.5663094293362787,-0.2482893745968697,-3,0,0,0,0,0,1548,1447,1500,1398,1423,1423
1747554285.5093534,-0.04,-0.06,-0.04,-0.2585268954516601,-0.18544123302439752,0.48432886742842646,1.9888807900457437,-0.623956513899963,-0.31527037691553883,-3,0,0,0,0,0,1548,1447,1500,1398,1423,1423
1747554285.6098282,-0.04,-0.06,-0.04,-0.2585268954516601,-0.18544123302439752,0.48432886742842646,1.9888807900457437,-0.623956513899963,-0.31527037691553883,-3,0,0,0,0,0,1548,1447,1500,1398,1423,1423
1747554285.709553,-0.04,-0.07,0.07,-0.29561514205653955,-0.21162117180431245,0.4701480672559725,1.9896788829226124,-0.6755910553883572,-0.3841841094587169,-3,0,0,0,0,0,1548,1447,1500,1398,1423,1423
1747554285.7931232,-0.04,-0.07,0.07,-0.29561514205653955,-0.21162117180431245,0.4701480672559725,1.9896788829226124,-0.6755910553883572,-0.3841841094587169,-3,0,0,0,0,0,1548,1447,1500,1398,1423,1423
1747554285.8935118,-0.13,-0.03,0.11,-0.33815754257390135,-0.23671027980173096,0.4559672670835186,1.9920598117734545,-0.7270171503662433,-0.46447211696650237,-3,0,0,0,0,0,1548,1447,1500,1398,1423,1423
1747554285.9931164,-0.02,-0.09,-0.02,-0.3785182815262702,-0.2552544031041707,0.43960480534607177,1.9955484503303977,-0.7740662337506569,-0.5516711419380604,-3,0,0,0,0,0,1548,1447,1500,1398,1423,1423
1747554286.0938385,-0.02,-0.09,-0.02,-0.3785182815262702,-0.2552544031041707,0.43960480534607177,1.9955484503303977,-0.7740662337506569,-0.5516711419380604,-3,0,0,0,0,0,1548,1447,1500,1398,1423,1423
1747554286.1928005,0.02,-0.12,-0.02,-0.41233403578366035,-0.27052603405912107,0.4276056667386107,1.9994816019414485,-0.8155651920876823,-0.6382824922457674,-3,0,0,0,0,0,1548,1447,1500,1398,1423,1423
1747554286.275987,-0.03,-0.12,0.1,-0.45487643630102215,-0.28361600344907856,0.4112432050011639,2.0057040575625638,-0.8567967129919922,-0.7364649984596491,-3,0,0,0,0,0,1548,1447,1500,1398,1423,1423
1747554286.3762655,-0.03,-0.12,0.1,-0.45487643630102215,-0.28361600344907856,0.4112432050011639,2.0057040575625638,-0.8567967129919922,-0.7364649984596491,-3,0,0,0,0,0,1548,1447,1500,1398,1423,1423
1747554286.4761577,-0.08,-0.13,0.09,-0.49632800603588745,-0.2814343418840856,0.3948807432637171,2.010319482065637,-0.8942171211202486,-0.8392773075655827,-3,0,0,0,0,0,1548,1447,1500,1398,1423,1423
1747554286.5914962,-0.08,-0.13,0.09,-0.49632800603588745,-0.2814343418840856,0.3948807432637171,2.010319482065637,-0.8942171211202486,-0.8392773075655827,-3,0,0,0,0,0,1548,1447,1500,1398,1423,1423
1747554286.693502,0.17,-0.27,-0.1,-0.5181446216858165,-0.2825251726665821,0.38069994309126315,2.015695782966173,-0.9270325019023171,-0.9399380883385318,-3,0,0,0,0,0,1548,1447,1500,1398,1423,1423
1747554286.7761996,0.1,-0.31,0.03,-0.5486878835957173,-0.28579766501407144,0.3741549583962844,2.0252522753727007,-0.963208708929396,-1.0531698050411733,-3,0,0,0,0,0,1548,1447,1500,1398,1423,1423
1747554286.8762279,0.1,-0.31,0.03,-0.5486878835957173,-0.28579766501407144,0.3741549583962844,2.0252522753727007,-0.963208708929396,-1.0531698050411733,-3,0,0,0,0,0,1548,1447,1500,1398,1423,1423
1747554286.9759607,0.11,-0.22,0.03,-0.5639595145506677,-0.2814343418840856,0.37088246604879505,2.0375935036125123,-0.9963793880155661,-1.164239808740489,-3,0,0,0,0,0,1548,1447,1500,1398,1423,1423
1747554287.0760694,0.12,-0.32,-0.06,-0.5737769915931359,-0.27707101875409984,0.36542831213631277,2.0562665141608623,-1.0308519693552674,-1.2895127855161859,-3,0,0,0,0,0,1548,1447,1500,1398,1423,1423
1747554287.1761265,0.12,-0.32,-0.06,-0.5737769915931359,-0.27707101875409984,0.36542831213631277,2.0562665141608623,-1.0308519693552674,-1.2895127855161859,-3,0,0,0,0,0,1548,1447,1500,1398,1423,1423
1747554287.2598982,0.17,-0.21,0.01,-0.5890486225480862,-0.2716168648416175,0.3741549583962844,2.0822460850307736,-1.0640378903059653,-1.4224674753100397,-3,0,0,0,0,0,1548,1447,1500,1398,1423,1423
1747554287.3596127,0.17,-0.21,0.01,-0.5890486225480862,-0.2716168648416175,0.3741549583962844,2.0822460850307736,-1.0640378903059653,-1.4224674753100397,-3,0,0,0,0,0,1548,1447,1500,1398,1423,1423
1747554287.459265,0.06,-0.27,0.04,-0.5912302841130791,-0.2596177262341565,0.37088246604879505,2.1138435745011215,-1.0943586907581233,-1.5547199420135946,-3,0,0,0,0,0,1548,1447,1500,1398,1423,1423
1747554287.559325,0.03,-0.34,-0.09,-0.5977752688080579,-0.25743606466916363,0.37088246604879505,2.156245299905909,-1.1245516386812544,-1.7044560885106772,-3,0,0,0,0,0,1548,1447,1500,1398,1423,1423
1747554287.6594641,0.03,-0.34,-0.09,-0.5977752688080579,-0.25743606466916363,0.37088246604879505,2.156245299905909,-1.1245516386812544,-1.7044560885106772,-3,0,0,0,0,0,1548,1447,1500,1398,1423,1423
1747554287.7426038,0.1,-0.33,-0.06,-0.605411084285533,-0.25416357232167425,0.37306412761378793,2.211232523791748,-1.1520791977251974,-1.8666982967663603,-3,0,0,0,0,0,1548,1447,1500,1398,1423,1423
1747554287.857113,-0.03,-0.26,0.0,-0.6021385919380436,-0.25089107997418486,0.37960911230876665,2.2763321893977166,-1.174798938117957,-2.0316027986697485,-3,0,0,0,0,0,1548,1447,1500,1398,1423,1423
1747554287.9593098,-0.03,-0.26,0.0,-0.6021385919380436,-0.25089107997418486,0.37960911230876665,2.2763321893977166,-1.174798938117957,-2.0316027986697485,-3,0,0,0,0,0,1548,1447,1500,1398,1423,1423
1747554288.0436347,0.18,-0.3,-0.06,-0.6021385919380436,-0.2454369260617026,0.385063266221249,2.3607515596466784,-1.1943168141501763,-2.2216245712292677,-3,0,0,0,0,0,1548,1447,1500,1398,1423,1423
1747554288.1420686,0.18,-0.3,-0.06,-0.6021385919380436,-0.2454369260617026,0.385063266221249,2.3607515596466784,-1.1943168141501763,-2.2216245712292677,-3,0,0,0,0,0,1548,1447,1500,1398,1423,1423
1747554288.243257,0.08,-0.28,-0.08,-0.6119560689805118,-0.23125612588924865,0.38069994309126315,2.4460502214461033,-1.2081407283696683,-2.4068176068901392,-3,0,0,0,0,0,1548,1447,1500,1398,1423,1423
1747554288.3430674,0.16,-0.25,-0.14,-0.6250460383704692,-0.22580197197676638,0.38069994309126315,2.542092847929179,-1.2171414225892006,-2.61032110182334,-3,0,0,0,0,0,1548,1447,1500,1398,1423,1423
1747554288.44244,0.16,-0.25,-0.14,-0.6250460383704692,-0.22580197197676638,0.38069994309126315,2.542092847929179,-1.2171414225892006,-2.61032110182334,-3,0,0,0,0,0,1548,1447,1500,1398,1423,1423
1747554288.5259786,0.0,-0.32,-0.17,-0.6435901616729091,-0.21271200258680892,0.3741549583962844,2.6380483392266307,-1.220120284850888,-2.8158907263609665,-3,0,0,0,0,0,1548,1447,1500,1398,1423,1423
1747554288.6219354,0.04,-0.33,-0.14,-0.65558930028037,-0.21162117180431245,0.36542831213631277,2.720919797120778,-1.2165156227528207,-3.0038054846235407,-3,0,0,0,0,0,1548,1447,1500,1398,1423,1423
1747554288.7263973,0.04,-0.33,-0.14,-0.65558930028037,-0.21162117180431245,0.36542831213631277,2.720919797120778,-1.2165156227528207,-3.0038054846235407,0,0,0,0,0,0,1508,1487,1500,1438,1463,1463
1747554288.8260005,0.09,-0.28,0.02,-0.65558930028037,-0.2007128639793479,0.35452000431134817,2.8000957299017952,-1.2078403738204795,3.0881921421271983,0,0,0,0,0,0,1500,1500,1500,1478,1500,1500
1747554288.9264352,0.09,-0.28,0.02,-0.65558930028037,-0.2007128639793479,0.35452000431134817,2.8000957299017952,-1.2078403738204795,3.0881921421271983,0,0,0,0,0,0,1500,1500,1500,1500,1500,1500
1747554289.0094864,-0.24,-0.15,0.07,-0.6174102228929941,-0.16798794050445423,0.2628902185816459,2.8567214933875924,-1.1963806283694631,2.921180763776767,3,0,0,0,0,0,1460,1540,1500,1540,1540,1540
1747554289.1094935,0.02,0.0,-0.19,-0.6174102228929941,-0.16798794050445423,0.2628902185816459,2.8446994965220456,-1.1792699881534352,2.845143522770704,3,0,0,0,0,0,1447,1548,1500,1580,1568,1568
1747554289.209551,0.02,0.0,-0.19,-0.6174102228929941,-0.16798794050445423,0.2628902185816459,2.8446994965220456,-1.1792699881534352,2.845143522770704,3,0,0,0,0,0,1447,1548,1500,1591,1568,1568
1747554289.293893,0.0,0.17,-0.19,-0.25089107997418486,-0.16035212502697901,-0.09490227807719166,2.803205181582418,-1.1553538198492082,2.8207857145633257,3,0,0,0,0,0,1447,1548,1500,1591,1568,1568
1747554289.393184,0.0,0.17,-0.19,-0.25089107997418486,-0.16035212502697901,-0.09490227807719166,2.803205181582418,-1.1553538198492082,2.8207857145633257,3,0,0,0,0,0,1447,1548,1500,1591,1568,1568
1747554289.4921997,0.25,0.26,-0.13,-0.16907877128695067,-0.13199052468207118,-0.3337942194439155,2.7302239437232494,-1.123175045270746,2.8707711961826945,3,0,0,0,0,0,1447,1548,1500,1591,1568,1568
1747554289.5921135,0.1,-0.11,-0.13,-0.24216443371421323,-0.09272061651219876,-0.5246896063807953,2.594008172937071,-1.0763719693114133,2.9852941364767154,3,0,0,0,0,0,1447,1548,1500,1591,1568,1568
1747554289.6932523,0.1,-0.11,-0.13,-0.24216443371421323,-0.09272061651219876,-0.5246896063807953,2.594008172937071,-1.0763719693114133,2.9852941364767154,3,0,0,0,0,0,1447,1548,1500,1591,1568,1568
1747554289.7760997,0.21,-0.17,-0.23,-0.25089107997418486,-0.06544984694978735,-0.6588617926278594,2.440463631808838,-1.012382858180618,3.120331059707356,3,0,0,0,0,0,1447,1548,1500,1591,1568,1568
1747554289.8748665,0.22,-0.14,-0.12,-0.23671027980173096,-0.07635815477475191,-0.7515824091400581,2.299808644818799,-0.9279766050204196,-3.038097364271609,3,0,0,0,0,0,1447,1548,1500,1591,1568,1568
1747554289.9762785,0.22,-0.14,-0.12,-0.23671027980173096,-0.07635815477475191,-0.7515824091400581,2.299808644818799,-0.9279766050204196,-3.038097364271609,3,0,0,0,0,0,1447,1548,1500,1591,1568,1568
1747554290.0763407,0.27,-0.12,-0.09,-0.1908953869368798,-0.10362892433716332,-0.8093964406123704,2.189709205287996,-0.8245307177618352,-2.9373559670935063,3,0,0,0,0,0,1447,1548,1500,1591,1568,1568
1747554290.1762886,0.27,-0.12,-0.09,-0.1908953869368798,-0.10362892433716332,-0.8093964406123704,2.189709205287996,-0.8245307177618352,-2.9373559670935063,3,0,0,0,0,0,1447,1548,1500,1591,1568,1568
1747554290.2591186,0.24,-0.21,-0.09,-0.12762720155208535,-0.09053895494720585,-0.856302164259718,2.114850364780306,-0.7167145598028025,-2.8625446492556312,3,0,0,0,0,0,1447,1548,1500,1591,1568,1568
1747554290.3589873,0.35000000000000003,-0.05,-0.12,-0.05672320068981571,-0.06763150851478027,-0.8650288105196896,2.060613654250339,-0.5961977579436242,-2.7949613493659133,3,0,0,0,0,0,1447,1548,1500,1591,1568,1568
1747554290.4596772,0.35000000000000003,-0.05,-0.12,-0.05672320068981571,-0.06763150851478027,-0.8650288105196896,2.060613654250339,-0.5961977579436242,-2.7949613493659133,3,0,0,0,0,0,1447,1548,1500,1591,1568,1568
1747554290.5430272,0.37,-0.14,-0.12,0.00545415391248228,-0.030543261909900768,-0.878118779909647,2.026551666600179,-0.480282776767826,-2.7348624971741446,0,0,0,0,0,0,1487,1508,1500,1551,1528,1528
1747554290.642192,0.37,-0.14,-0.12,0.00545415391248228,-0.030543261909900768,-0.878118779909647,2.026551666600179,-0.480282776767826,-2.7348624971741446,-3,0,0,0,0,0,1527,1468,1500,1511,1488,1488
1747554290.7421467,0.62,-0.21,-0.21,0.0545415391248228,0.0,-0.8508480103472357,2.0056339420909555,-0.3570837259715989,-2.6728772743004927,-3,0,0,0,0,0,1548,1447,1500,1471,1448,1448
1747554290.8428078,0.31,-0.28,0.0,0.1265363707695889,0.002181661564992912,-0.6806784082777885,2.0038068353980374,-0.2572484265803494,-2.6244684024246903,-3,0,0,0,0,0,1548,1447,1500,1431,1423,1423
1747554290.9431636,0.31,-0.28,0.0,0.1265363707695889,0.002181661564992912,-0.6806784082777885,2.0038068353980374,-0.2572484265803494,-2.6244684024246903,-3,0,0,0,0,0,1548,1447,1500,1398,1423,1423
1747554291.0259085,0.09,-0.33,0.17,0.18544123302439752,0.003272492347489368,-0.5410520681182421,2.0204007845697007,-0.1737480427516164,-2.5825159881855737,-3,0,0,0,0,0,1548,1447,1500,1398,1423,1423
1747554291.1262012,0.09,-0.33,0.17,0.18544123302439752,0.003272492347489368,-0.5410520681182421,2.0204007845697007,-0.1737480427516164,-2.5825159881855737,-3,0,0,0,0,0,1548,1447,1500,1398,1423,1423
1747554291.2260752,0.28,-0.26,-0.08,0.1265363707695889,-0.00545415391248228,-0.3239767424014474,2.0430473592054277,-0.11874930730255918,-2.5530760565015025,-3,0,0,0,0,0,1548,1447,1500,1398,1423,1423
1747554291.326033,0.23,-0.22,0.1,0.07963064712224129,0.009817477042468103,-0.09490227807719166,2.0563729513159994,-0.09443566941154698,-2.5384597318327558,-3,0,0,0,0,0,1548,1447,1500,1398,1423,1423
1747554291.425883,0.23,-0.22,0.1,0.07963064712224129,0.009817477042468103,-0.09490227807719166,2.0563729513159994,-0.09443566941154698,-2.5384597318327558,-3,0,0,0,0,0,1548,1447,1500,1398,1423,1423
1747554291.5091226,0.15,-0.19,0.07,-0.00545415391248228,0.031634092692397225,0.055632369907319255,-3.0367215512943586,1.5707963267948966,2.1171831847295977,-3,0,0,0,0,0,1548,1447,1500,1398,1423,1423
1747554291.6099823,0.28,-0.08,0.04,-0.06544984694978735,0.04690572364734761,0.18653206380689397,2.0539990590595494,-0.12006157898041576,-2.538032819064676,-3,0,0,0,0,0,1548,1447,1500,1398,1423,1423
1747554291.7096157,0.28,-0.08,0.04,-0.06544984694978735,0.04690572364734761,0.18653206380689397,2.0539990590595494,-0.12006157898041576,-2.538032819064676,-3,0,0,0,0,0,1548,1447,1500,1398,1423,1423
1747554291.795104,0.13,-0.09,0.09,-0.10799224746714914,0.04690572364734761,0.2814343418840856,2.043034735721205,-0.15540043000356354,-2.5480866191609253,-3,0,0,0,0,0,1548,1447,1500,1398,1423,1423
1747554291.8933246,0.13,-0.09,0.09,-0.10799224746714914,0.04690572364734761,0.2814343418840856,2.043034735721205,-0.15540043000356354,-2.5480866191609253,-3,0,0,0,0,0,1548,1447,1500,1398,1423,1423
1747554291.9927914,0.1,-0.1,-0.01,-0.1538071403320003,0.025089107997418487,0.35124751196385884,2.0263468342858943,-0.20295947471053075,-2.565941076593156,-3,0,0,0,0,0,1548,1447,1500,1398,1423,1423
1747554292.0958505,0.07,0.0,-0.06,-0.1908953869368798,0.00545415391248228,0.39269908169872414,2.0063171136592857,-0.25330561848738725,-2.5884178905780844,-3,0,0,0,0,0,1548,1447,1500,1398,1423,1423
1747554292.1941166,0.07,0.0,-0.06,-0.1908953869368798,0.00545415391248228,0.39269908169872414,2.0063171136592857,-0.25330561848738725,-2.5884178905780844,-3,0,0,0,0,0,1548,1447,1500,1398,1423,1423
1747554292.2769673,0.0,-0.06,0.0,-0.20616701789183017,-0.022907446432425576,0.4276056667386107,1.9837670879606173,-0.31139756600508056,-2.617519830053968,-3,0,0,0,0,0,1548,1447,1500,1398,1423,1423
1747554292.3771315,0.0,-0.06,0.0,-0.20616701789183017,-0.022907446432425576,0.4276056667386107,1.9837670879606173,-0.31139756600508056,-2.617519830053968,-3,0,0,0,0,0,1548,1447,1500,1398,1423,1423
1747554292.4760404,0.1,0.04,0.03,-0.2279836335417593,-0.04799655442984406,0.45160394395353276,1.961677738315477,-0.37226015774906207,-2.6515826399109796,-3,0,0,0,0,0,1548,1447,1500,1398,1423,1423
1747554292.575988,0.03,-0.04,-0.06,-0.24870941840919197,-0.05672320068981571,0.47123889803846897,1.9405994108468072,-0.431636927838109,-2.6865380640549597,-3,0,0,0,0,0,1548,1447,1500,1398,1423,1423
1747554292.676049,0.03,-0.04,-0.06,-0.24870941840919197,-0.05672320068981571,0.47123889803846897,1.9405994108468072,-0.431636927838109,-2.6865380640549597,-3,0,0,0,0,0,1548,1447,1500,1398,1423,1423
1747554292.7592988,0.13,-0.06,-0.09,-0.2596177262341565,-0.06981317007977318,0.4854196982109229,1.9195154489923403,-0.4977458889666892,-2.7264327776050648,-3,0,0,0,0,0,1548,1447,1500,1398,1423,1423
1747554292.859092,0.1,-0.04,0.06,-0.26616271092913524,-0.08726646259971647,0.48978302134090873,1.9015122799480169,-0.5609589727036811,-2.7660423912676877,-3,0,0,0,0,0,1548,1447,1500,1398,1423,1423
1747554292.9589005,0.1,-0.04,0.06,-0.26616271092913524,-0.08726646259971647,0.48978302134090873,1.9015122799480169,-0.5609589727036811,-2.7660423912676877,-3,0,0,0,0,0,1548,1447,1500,1398,1423,1423
1747554293.042151,-0.06,-0.03,0.04,-0.25743606466916363,-0.10471975511965978,0.48432886742842646,1.8868393685824112,-0.6277608554227823,-2.8123657148187955,-3,0,0,0,0,0,1548,1447,1500,1398,1423,1423
1747554293.142532,-0.06,-0.03,0.04,-0.25743606466916363,-0.10471975511965978,0.48432886742842646,1.8868393685824112,-0.6277608554227823,-2.8123657148187955,-3,0,0,0,0,0,1548,1447,1500,1398,1423,1423
1747554293.2418108,0.12,-0.11,-0.17,-0.2617993877991494,-0.12435470920459599,0.48323803664593,1.8781270765679052,-0.6895390681244794,-2.8596166173741477,-3,0,0,0,0,0,1548,1447,1500,1398,1423,1423
1747554293.3423193,0.09,-0.09,-0.08,-0.272707695624114,-0.13199052468207118,0.47669305195095124,1.8727014292501445,-0.7545039352590699,-2.9146104263729185,-3,0,0,0,0,0,1548,1447,1500,1398,1423,1423
1747554293.442371,0.09,-0.09,-0.08,-0.272707695624114,-0.13199052468207118,0.47669305195095124,1.8727014292501445,-0.7545039352590699,-2.9146104263729185,-3,0,0,0,0,0,1548,1447,1500,1398,1423,1423
1747554293.525898,-0.02,-0.06,0.03,-0.30652344988150415,-0.1461713248545251,0.4723297288209654,1.870461298325571,-0.8189658884085113,-2.9750719504432954,-3,0,0,0,0,0,1548,1447,1500,1398,1423,1423
1747554293.6239622,0.0,-0.08,0.05,-0.32179508083645453,-0.16253378659197193,0.4526947747360292,1.8719920792833207,-0.8764518312486063,-3.0385211909593552,-3,0,0,0,0,0,1548,1447,1500,1398,1423,1423
1747554293.7259288,0.0,-0.08,0.05,-0.32179508083645453,-0.16253378659197193,0.4526947747360292,1.8719920792833207,-0.8764518312486063,-3.0385211909593552,-3,0,0,0,0,0,1548,1447,1500,1398,1423,1423
1747554293.824519,0.05,-0.15,-0.07,-0.32615840396644036,-0.17235126363444003,0.4374231437810788,1.8800492740732868,-0.9347967905846477,-3.1125968346233917,-3,0,0,0,0,0,1548,1447,1500,1398,1423,1423
1747554293.92519,0.05,-0.15,-0.07,-0.32615840396644036,-0.17235126363444003,0.4374231437810788,1.8800492740732868,-0.9347967905846477,-3.1125968346233917,-3,0,0,0,0,0,1548,1447,1500,1398,1423,1423
1747554294.0083103,0.07,-0.15,0.0,-0.33161255787892263,-0.18544123302439752,0.4188790204786391,1.89705025699885,-0.9889002002348471,3.0876914912504265,-3,0,0,0,0,0,1548,1447,1500,1398,1423,1423
1747554294.1093223,0.08,-0.14,0.03,-0.346884188833873,-0.20180369476184434,0.4036073895236887,1.9244938040013966,-1.0386263218967353,2.9933126705275925,-3,0,0,0,0,0,1548,1447,1500,1398,1423,1423
1747554294.2086544,0.08,-0.14,0.03,-0.346884188833873,-0.20180369476184434,0.4036073895236887,1.9244938040013966,-1.0386263218967353,2.9933126705275925,-3,0,0,0,0,0,1548,1447,1500,1398,1423,1423
1747554294.292399,0.01,-0.19,0.04,-0.35561083509384467,-0.21271200258680892,0.4014257279586958,1.9620995483843064,-1.0822270352293717,2.8916037173192746,-3,0,0,0,0,0,1548,1447,1500,1398,1423,1423
1747554294.3927443,0.01,-0.19,0.04,-0.35561083509384467,-0.21271200258680892,0.4014257279586958,1.9620995483843064,-1.0822270352293717,2.8916037173192746,-3,0,0,0,0,0,1548,1447,1500,1398,1423,1423
1747554294.4922605,0.13,-0.12,-0.09,-0.3719732968312915,-0.210530341021816,0.39706240482870997,2.009786002688374,-1.1228340376303803,2.7787774046578946,-3,0,0,0,0,0,1548,1447,1500,1398,1423,1423
1747554294.5921807,0.01,-0.15,-0.03,-0.40033489717619936,-0.210530341021816,0.3861540970037454,2.0762966259894613,-1.1623729097064763,2.64050145391697,-3,0,0,0,0,0,1548,1447,1500,1398,1423,1423
1747554294.692739,0.01,-0.15,-0.03,-0.40033489717619936,-0.210530341021816,0.3861540970037454,2.0762966259894613,-1.1623729097064763,2.64050145391697,-3,0,0,0,0,0,1548,1447,1500,1398,1423,1423
1747554294.7760177,0.03,-0.21,-0.06,-0.4374231437810788,-0.20943951023931956,0.3763366199612773,2.15684355848292,-1.1965545000425175,2.4836511816525095,-3,0,0,0,0,0,1548,1447,1500,1398,1423,1423
1747554294.8752167,0.03,-0.21,-0.06,-0.4374231437810788,-0.20943951023931956,0.3763366199612773,2.15684355848292,-1.1965545000425175,2.4836511816525095,-3,0,0,0,0,0,1548,1447,1500,1398,1423,1423
1747554294.9760718,0.0,-0.16,0.0,-0.4505131131710363,-0.20943951023931956,0.36542831213631277,2.251841683949546,-1.2243898184965116,2.3089564486595253,-3,0,0,0,0,0,1548,1447,1500,1398,1423,1423
1747554295.0761905,0.01,-0.21,-0.16,-0.4603305902135044,-0.20398535632683726,0.36106498900632694,2.3635520641096845,-1.2454266372994063,2.1168463159827624,-3,0,0,0,0,0,1548,1447,1500,1398,1423,1423
1747554295.1758616,0.01,-0.21,-0.16,-0.4603305902135044,-0.20398535632683726,0.36106498900632694,2.3635520641096845,-1.2454266372994063,2.1168463159827624,-3,0,0,0,0,0,1548,1447,1500,1398,1423,1423
1747554295.2583327,-0.02,-0.16,0.01,-0.46142142099600086,-0.19198621771937624,0.36542831213631277,2.4793968364392622,-1.2597632191951358,1.9243879552413359,-3,0,0,0,0,0,1548,1447,1500,1398,1423,1423
1747554295.3593955,0.06,-0.22,0.02,-0.45705809786601503,-0.18544123302439752,0.358883327441334,2.613283506943015,-1.2681353227201162,1.709528593595186,-3,0,0,0,0,0,1548,1447,1500,1398,1423,1423
1747554295.4591684,0.06,-0.22,0.02,-0.45705809786601503,-0.18544123302439752,0.358883327441334,2.613283506943015,-1.2681353227201162,1.709528593595186,-3,0,0,0,0,0,1548,1447,1500,1398,1423,1423
1747554295.5426915,-0.08,-0.23,-0.08,-0.45160394395353276,-0.17780541754692233,0.34797501961636945,2.7396419422191687,-1.2682344007786672,1.5085946862834723,-3,0,0,0,0,0,1548,1447,1500,1398,1423,1423
1747554295.64257,-0.08,-0.23,-0.08,-0.45160394395353276,-0.17780541754692233,0.34797501961636945,2.7396419422191687,-1.2682344007786672,1.5085946862834723,-3,0,0,0,0,0,1548,1447,1500,1398,1423,1423
1747554295.7426662,-0.04,-0.33,-0.06,-0.46142142099600086,-0.16907877128695067,0.34143003492139073,2.858624023774792,-1.262131333175417,1.3149522671799103,-3,0,0,0,0,0,1548,1447,1500,1398,1423,1423
1747554295.8423982,-0.03,-0.24,0.03,-0.44724062082354693,-0.1538071403320003,0.34143003492139073,2.9730829879333647,-1.2495781568143045,1.1204224021902465,-3,0,0,0,0,0,1548,1447,1500,1398,1423,1423
1747554295.943086,-0.03,-0.24,0.03,-0.44724062082354693,-0.1538071403320003,0.34143003492139073,2.9730829879333647,-1.2495781568143045,1.1204224021902465,-3,0,0,0,0,0,1548,1447,1500,1398,1423,1423
1747554296.0259745,-0.02,-0.22,0.04,-0.4494222823885399,-0.14508049407202864,0.3327033886614191,3.0719446727881867,-1.2320365907742703,0.9435327291294607,-3,0,0,0,0,0,1548,1447,1500,1398,1423,1423
1747554296.1257563,-0.02,-0.22,0.04,-0.4494222823885399,-0.14508049407202864,0.3327033886614191,3.0719446727881867,-1.2320365907742703,0.9435327291294607,-3,0,0,0,0,0,1548,1447,1500,1398,1423,1423
1747554296.2259133,-0.11,-0.24,0.0,-0.45814892864851153,-0.13526301702956053,0.3141592653589793,-3.1384247738175812,-1.2126519170292875,0.7966999368335621,-3,0,0,0,0,0,1548,1447,1500,1398,1423,1423
1747554296.3275666,0.09,-0.22,-0.23,-0.4734205596034619,-0.13199052468207118,0.2912518189265537,-3.0846034261762774,-1.1896435761063002,0.6625547732460174,-3,0,0,0,0,0,1548,1447,1500,1398,1423,1423
1747554296.4263093,0.09,-0.22,-0.23,-0.4734205596034619,-0.13199052468207118,0.2912518189265537,-3.0846034261762774,-1.1896435761063002,0.6625547732460174,-3,0,0,0,0,0,1548,1447,1500,1398,1423,1423
1747554296.5088277,0.03,-0.21,-0.08,-0.49960049838337683,-0.13526301702956053,0.2683443724941282,-3.0539603597475544,-1.1645787420260931,0.548635145216504,-3,0,0,0,0,0,1548,1447,1500,1398,1423,1423
1747554296.6083958,-0.08,-0.23,0.0,-0.5126904677733343,-0.1341721862470641,0.2585268954516601,-3.0399020250244653,-1.1403725344620963,0.4535506116632337,-3,0,0,0,0,0,1548,1447,1500,1398,1423,1423
1747554296.708395,-0.08,-0.23,0.0,-0.5126904677733343,-0.1341721862470641,0.2585268954516601,-3.0399020250244653,-1.1403725344620963,0.4535506116632337,-3,0,0,0,0,0,1548,1447,1500,1398,1423,1423
1747554296.792542,0.0,-0.21,-0.11,-0.519235452468313,-0.1308996938995747,0.2552544031041707,-3.0341323877988935,-1.114902431497802,0.3602268468777942,-3,0,0,0,0,0,1548,1447,1500,1398,1423,1423
1747554296.8925424,0.0,-0.21,-0.11,-0.519235452468313,-0.1308996938995747,0.2552544031041707,-3.0341323877988935,-1.114902431497802,0.3602268468777942,-3,0,0,0,0,0,1548,1447,1500,1398,1423,1423
1747554296.9924073,0.02,-0.28,-0.12,-0.5410520681182421,-0.12980886311707826,0.25089107997418486,-3.038672076346409,-1.0891452330890719,0.2743150832255681,-3,0,0,0,0,0,1548,1447,1500,1398,1423,1423
1747554297.0923955,0.03,-0.14,-0.07,-0.5475970528132209,-0.12544553998709243,0.24107360293171676,-3.050221600584424,-1.0658522687795284,0.19819045653840597,-3,0,0,0,0,0,1548,1447,1500,1398,1423,1423
1747554297.1919048,0.03,-0.14,-0.07,-0.5475970528132209,-0.12544553998709243,0.24107360293171676,-3.050221600584424,-1.0658522687795284,0.19819045653840597,-3,0,0,0,0,0,1548,1447,1500,1398,1423,1423
1747554297.2760117,0.01,-0.27,-0.07,-0.5737769915931359,-0.11344640137963143,0.23452861823673804,-3.0696725595804066,-1.0435936788336728,0.1219443201576928,-3,0,0,0,0,0,1548,1447,1500,1398,1423,1423
1747554297.3745666,0.01,-0.27,-0.07,-0.5737769915931359,-0.11344640137963143,0.23452861823673804,-3.0696725595804066,-1.0435936788336728,0.1219443201576928,-3,0,0,0,0,0,1548,1447,1500,1398,1423,1423
1747554297.47458,0.0,-0.23,-0.13,-0.5825036378531074,-0.11017390903214205,0.22907446432425577,-3.095378634644882,-1.022967945602408,0.049399795855753825,-3,0,0,0,0,0,1548,1447,1500,1398,1423,1423
1747554297.5750422,-0.07,-0.16,0.02,-0.5857761302005968,-0.09926560120717749,0.21489366415180183,-3.125305668341199,-1.003964976647462,-0.01952262993145906,-3,0,0,0,0,0,1548,1447,1500,1398,1423,1423
1747554297.6746373,-0.07,-0.16,0.02,-0.5857761302005968,-0.09926560120717749,0.21489366415180183,-3.125305668341199,-1.003964976647462,-0.01952262993145906,0,0,0,0,0,0,1508,1487,1500,1438,1463,1463
1747554297.758964,-0.01,-0.28,-0.13,-0.595593607243065,-0.0916297857297023,0.21598449493429828,3.1256450219756524,-0.9893677416887592,-0.08130583975397541,0,0,0,0,0,0,1500,1500,1500,1478,1500,1500
1747554297.8578897,-0.13,-0.23,0.0,-0.56941366846315,-0.06544984694978735,0.14835298641951802,3.08340342603101,-0.9780503220076295,-0.1397875966712364,3,0,0,0,0,0,1460,1540,1500,1518,1540,1540
1747554297.958335,-0.13,-0.23,0.0,-0.56941366846315,-0.06544984694978735,0.14835298641951802,3.08340342603101,-0.9780503220076295,-0.1397875966712364,3,0,0,0,0,0,1447,1548,1500,1558,1568,1568
1747554298.0418942,0.21,-0.22,-0.24,-0.43524148221608594,-0.06326818538479445,-0.055632369907319255,3.017489014224133,-0.9698390490061313,-0.1506569126405833,3,0,0,0,0,0,1447,1548,1500,1591,1568,1568
1747554298.1422017,0.21,-0.22,-0.24,-0.43524148221608594,-0.06326818538479445,-0.055632369907319255,3.017489014224133,-0.9698390490061313,-0.1506569126405833,3,0,0,0,0,0,1447,1548,1500,1591,1568,1568
1747554298.2428067,0.18,-0.09,-0.24,-0.15489797111449674,-0.0719948316447661,-0.23561944901923448,2.9453429992985822,-0.9551065205817943,-0.1198994889721801,3,0,0,0,0,0,1447,1548,1500,1591,1568,1568
1747554298.3423772,0.07,-0.01,-0.01,0.004363323129985824,-0.055632369907319255,-0.41233403578366035,2.875732257276379,-0.9335194920523148,-0.041380677213801294,3,0,0,0,0,0,1447,1548,1500,1591,1568,1568
1747554298.442285,0.07,-0.01,-0.01,0.004363323129985824,-0.055632369907319255,-0.41233403578366035,2.875732257276379,-0.9335194920523148,-0.041380677213801294,3,0,0,0,0,0,1447,1548,1500,1591,1568,1568
1747554298.5260172,0.13,0.14,-0.2,-0.11780972450961724,-0.019634954084936207,-0.5966844380255614,2.783192897260107,-0.9057121728720066,0.0699669506803469,3,0,0,0,0,0,1447,1548,1500,1591,1568,1568
1747554298.6249485,0.13,0.14,-0.2,-0.11780972450961724,-0.019634954084936207,-0.5966844380255614,2.783192897260107,-0.9057121728720066,0.0699669506803469,3,0,0,0,0,0,1447,1548,1500,1591,1568,1568
1747554298.7260973,0.23,0.0,-0.15,-0.1810779098944117,0.00545415391248228,-0.7210391472301574,2.6452848574062324,-0.8623818076725862,0.2172312554705222,3,0,0,0,0,0,1447,1548,1500,1591,1568,1568
1747554298.8247786,0.19,0.03,-0.12,-0.2181661564992912,0.013089969389957472,-0.8093964406123704,2.5025623016636382,-0.799449942156138,0.36762087501170304,3,0,0,0,0,0,1447,1548,1500,1591,1568,1568
1747554298.9253666,0.19,0.03,-0.12,-0.2181661564992912,0.013089969389957472,-0.8093964406123704,2.5025623016636382,-0.799449942156138,0.36762087501170304,3,0,0,0,0,0,1447,1548,1500,1591,1568,1568
1747554299.0088599,0.3,-0.05,-0.17,-0.21489366415180183,0.016362461737446838,-0.8759371183446542,2.379069515349839,-0.7219929242948392,0.4997835460214556,3,0,0,0,0,0,1447,1548,1500,1591,1568,1568
1747554299.109027,0.3,-0.05,-0.17,-0.21489366415180183,0.016362461737446838,-0.8759371183446542,2.379069515349839,-0.7219929242948392,0.4997835460214556,3,0,0,0,0,0,1447,1548,1500,1591,1568,1568
1747554299.2088728,0.42,0.0,-0.23,-0.17453292519943295,0.002181661564992912,-0.9021170571245691,2.2745927368673264,-0.6230106928023236,0.6199110603013424,3,0,0,0,0,0,1447,1548,1500,1591,1568,1568
1747554299.2923489,0.42,-0.01,-0.15,-0.1407171709420428,0.017453292519943295,-0.9326603190344699,2.200366084068328,-0.522062393373509,0.7183421958665739,3,0,0,0,0,0,1447,1548,1500,1591,1568,1568
1747554299.3922937,0.42,-0.01,-0.15,-0.1407171709420428,0.017453292519943295,-0.9326603190344699,2.200366084068328,-0.522062393373509,0.7183421958665739,3,0,0,0,0,0,1447,1548,1500,1591,1568,1568
1747554299.491974,0.4,0.0,-0.13,-0.10471975511965978,0.025089107997418487,-0.9348419805994628,2.139416502372451,-0.40478379858853325,0.812462707377396,3,0,0,0,0,0,1447,1548,1500,1591,1568,1568
1747554299.5923588,0.4,-0.02,-0.02,-0.04690572364734761,0.04581489286485115,-0.9348419805994628,2.099097848494169,-0.28397457447140334,0.8976732688855196,3,0,0,0,0,0,1447,1548,1500,1591,1568,1568
1747554299.6920996,0.4,-0.02,-0.02,-0.04690572364734761,0.04581489286485115,-0.9348419805994628,2.099097848494169,-0.28397457447140334,0.8976732688855196,0,0,0,0,0,0,1487,1508,1500,1551,1528,1528
1747554299.775941,0.4,0.04,-0.04,0.01090830782496456,0.09490227807719166,-0.918479518862016,2.0783165007360225,-0.1645408252566426,0.9806729148206739,-3,0,0,0,0,0,1527,1468,1500,1511,1488,1488
1747554299.875803,0.4,0.04,-0.04,0.01090830782496456,0.09490227807719166,-0.918479518862016,2.0783165007360225,-0.1645408252566426,0.9806729148206739,-3,0,0,0,0,0,1548,1447,1500,1471,1448,1448
1747554299.976161,-0.02,-0.36,0.08,0.09053895494720585,0.13853550937704992,-0.815941425307349,2.0757755859037066,-0.055625838407559657,1.0649216024199606,-3,0,0,0,0,0,1548,1447,1500,1431,1423,1423
1747554300.076448,0.36,-0.23,-0.02,0.038179077387375956,0.17889624832941878,-0.5617778529856748,2.0907325459853805,0.0181886598663958,1.1331899109110215,-3,0,0,0,0,0,1548,1447,1500,1398,1423,1423
1747554300.1762788,0.36,-0.23,-0.02,0.038179077387375956,0.17889624832941878,-0.5617778529856748,2.0907325459853805,0.0181886598663958,1.1331899109110215,-3,0,0,0,0,0,1548,1447,1500,1398,1423,1423
1747554300.259437,0.17,-0.38,0.35000000000000003,-0.11999138607461016,0.2181661564992912,-0.2781618495365963,2.0810845294982236,0.053851089206158775,1.1951661646694391,-3,0,0,0,0,0,1548,1447,1500,1398,1423,1423
1747554300.3594747,0.17,-0.38,0.35000000000000003,-0.11999138607461016,0.2181661564992912,-0.2781618495365963,2.0810845294982236,0.053851089206158775,1.1951661646694391,-3,0,0,0,0,0,1548,1447,1500,1398,1423,1423
1747554300.4593976,0.27,-0.33,0.29,0.04690572364734761,0.2454369260617026,0.00545415391248228,2.074785534951033,0.05130540268879069,1.2341456419165753,-3,0,0,0,0,0,1548,1447,1500,1398,1423,1423
1747554300.560419,0.08,-0.27,0.34,0.27052603405912107,0.26725354171163174,0.22362031041177347,2.1046410965881086,0.012715220347961048,1.2574931196506227,-3,0,0,0,0,0,1548,1447,1500,1398,1423,1423
1747554300.6586099,0.08,-0.27,0.34,0.27052603405912107,0.26725354171163174,0.22362031041177347,2.1046410965881086,0.012715220347961048,1.2574931196506227,-3,0,0,0,0,0,1548,1447,1500,1398,1423,1423
1747554300.758473,0.0,-0.13,0.07,0.33597588100890846,0.2519819107566813,0.34470252726888007,2.150195126813328,-0.04312333257693054,1.2674916920923016,-3,0,0,0,0,0,1548,1447,1500,1398,1423,1423
1747554300.8585145,0.16,0.03,-0.04,0.29561514205653955,0.20616701789183017,0.4428772976935611,2.201668130628012,-0.11432494933229924,1.2612718664285123,-3,0,0,0,0,0,1548,1447,1500,1398,1423,1423
1747554300.9595172,0.16,0.03,-0.04,0.29561514205653955,0.20616701789183017,0.4428772976935611,2.201668130628012,-0.11432494933229924,1.2612718664285123,-3,0,0,0,0,0,1548,1447,1500,1398,1423,1423
1747554301.0421596,0.01,0.07,0.0,0.18216874067690814,0.13199052468207118,0.46687557490848314,2.241941931929973,-0.1863674887920636,1.2385430486405573,-3,0,0,0,0,0,1548,1447,1500,1398,1423,1423
1747554301.1421099,0.01,0.07,0.0,0.18216874067690814,0.13199052468207118,0.46687557490848314,2.241941931929973,-0.1863674887920636,1.2385430486405573,-3,0,0,0,0,0,1548,1447,1500,1398,1423,1423
1747554301.2420938,0.03,0.15,-0.13,0.06654067773228381,0.05672320068981571,0.47669305195095124,2.267773438766244,-0.25212979149224624,1.2030134455743478,-3,0,0,0,0,0,1548,1447,1500,1398,1423,1423
1747554301.341295,0.06,0.15,-0.13,-0.05781403147231216,0.0,0.49414634447089456,2.280249834377091,-0.308013609889531,1.1584724254626724,-3,0,0,0,0,0,1548,1447,1500,1398,1423,1423
1747554301.4431477,0.06,0.15,-0.13,-0.05781403147231216,0.0,0.49414634447089456,2.280249834377091,-0.308013609889531,1.1584724254626724,-3,0,0,0,0,0,1548,1447,1500,1398,1423,1423
1747554301.5251002,0.03,0.13,-0.13,-0.15489797111449674,-0.03599741582238305,0.507236313860852,2.281438920784099,-0.36492637196645805,1.1027792698412606,-3,0,0,0,0,0,1548,1447,1500,1398,1423,1423
1747554301.6208682,0.04,0.1,0.07,-0.21925698728178766,-0.061086523819801536,0.49741883681838395,2.2761160211375278,-0.4156163482795258,1.0453344056944078,-3,0,0,0,0,0,1548,1447,1500,1398,1423,1423
1747554301.7252495,0.04,0.1,0.07,-0.21925698728178766,-0.061086523819801536,0.49741883681838395,2.2761160211375278,-0.4156163482795258,1.0453344056944078,-3,0,0,0,0,0,1548,1447,1500,1398,1423,1423
1747554301.808796,0.02,0.14,0.06,-0.2716168648416175,-0.08290313946973066,0.4930555136883981,2.265555234768826,-0.4638238569702336,0.9851235373478007,-3,0,0,0,0,0,1548,1447,1500,1398,1423,1423
1747554301.908351,0.02,0.14,0.06,-0.2716168648416175,-0.08290313946973066,0.4930555136883981,2.265555234768826,-0.4638238569702336,0.9851235373478007,-3,0,0,0,0,0,1548,1447,1500,1398,1423,1423
1747554302.007849,0.11,0.11,-0.02,-0.3021601267515183,-0.08835729338221293,0.4908738521234052,2.2523530360329684,-0.5139497960945008,0.9185396493387926,-3,0,0,0,0,0,1548,1447,1500,1398,1423,1423
1747554302.1081874,0.19,0.1,-0.05,-0.3370667117914049,-0.10471975511965978,0.4930555136883981,2.2376758582747502,-0.5637259205267162,0.8496661435967146,-3,0,0,0,0,0,1548,1447,1500,1398,1423,1423
1747554302.2076795,0.19,0.1,-0.05,-0.3370667117914049,-0.10471975511965978,0.4930555136883981,2.2376758582747502,-0.5637259205267162,0.8496661435967146,-3,0,0,0,0,0,1548,1447,1500,1398,1423,1423
1747554302.2925706,0.09,0.04,0.02,-0.36324665057131983,-0.10690141668465268,0.5028729907308662,-2.849970341336007,1.5707963267948966,-3.0020554349844315,-3,0,0,0,0,0,1548,1447,1500,1398,1423,1423
1747554302.3922107,0.09,0.04,0.02,-0.36324665057131983,-0.10690141668465268,0.5028729907308662,-2.849970341336007,1.5707963267948966,-3.0020554349844315,-3,0,0,0,0,0,1548,1447,1500,1398,1423,1423
1747554302.4924402,0.02,-0.02,0.11,-0.3785182815262702,-0.10362892433716332,0.4985096676008804,2.210628476773975,-0.6662884518805544,0.7014309860022263,-3,0,0,0,0,0,1548,1447,1500,1398,1423,1423
1747554302.5919044,0.09,-0.02,-0.07,-0.3752457891787809,-0.0916297857297023,0.49741883681838395,2.2008533713878253,-0.7158098892247372,0.6303414238111568,-3,0,0,0,0,0,1548,1447,1500,1398,1423,1423
1747554302.6923323,0.09,-0.02,-0.07,-0.3752457891787809,-0.0916297857297023,0.49741883681838395,2.2008533713878253,-0.7158098892247372,0.6303414238111568,-3,0,0,0,0,0,1548,1447,1500,1398,1423,1423
1747554302.7743692,0.16,-0.04,-0.08,-0.3817907738737596,-0.0916297857297023,0.49741883681838395,2.194135179207117,-0.7690313839821274,0.5526426247910462,-3,0,0,0,0,0,1548,1447,1500,1398,1423,1423
1747554302.8750906,0.14,0.0,0.06,-0.385063266221249,-0.10799224746714914,0.48760135977591584,2.19310671406111,-0.8186454048129963,0.47576522318997977,-3,0,0,0,0,0,1548,1447,1500,1398,1423,1423
1747554302.9754179,0.14,0.0,0.06,-0.385063266221249,-0.10799224746714914,0.48760135977591584,2.19310671406111,-0.8186454048129963,0.47576522318997977,-3,0,0,0,0,0,1548,1447,1500,1398,1423,1423
1747554303.076149,0.11,0.01,0.05,-0.3959715740462135,-0.10581058590215622,0.47778388273344774,2.1965488198752645,-0.8697315027286313,0.39005477542836486,-3,0,0,0,0,0,1548,1447,1500,1398,1423,1423
1747554303.174758,0.11,0.01,0.05,-0.3959715740462135,-0.10581058590215622,0.47778388273344774,2.1965488198752645,-0.8697315027286313,0.39005477542836486,-3,0,0,0,0,0,1548,1447,1500,1398,1423,1423
1747554303.2585337,0.14,-0.07,-0.09,-0.3981532356112064,-0.11235557059713497,0.45814892864851153,2.203885941856166,-0.9153629226573932,0.30625066792634476,0,0,0,0,0,0,1508,1487,1500,1438,1463,1463
1747554303.3579638,0.08,-0.2,-0.07,-0.4036073895236887,-0.11562806294462433,0.4505131131710363,2.2186158387640846,-0.9609969732577773,0.21045985362830177,0,0,0,0,0,0,1500,1500,1500,1478,1500,1500
1747554303.4579747,0.08,-0.2,-0.07,-0.4036073895236887,-0.11562806294462433,0.4505131131710363,2.2186158387640846,-0.9609969732577773,0.21045985362830177,0,-4.555808,0,0,0,0,1460,1460,1460,1500,1500,1500
1747554303.5418391,0.23,0.07,-0.13,-0.3021601267515183,-0.11235557059713497,0.284706834231575,2.2371206889259483,-0.9961747213605894,0.12088082397297012,0,-12.5,0,0,0,0,1420,1420,1420,1500,1500,1500
1747554303.6420736,0.23,0.07,-0.13,-0.3021601267515183,-0.11235557059713497,0.284706834231575,2.2371206889259483,-0.9961747213605894,0.12088082397297012,0,-12.5,0,0,0,0,1380,1380,1391,1500,1500,1500
1747554303.742126,0.08,0.0,-0.03,-0.22907446432425577,-0.13199052468207118,0.12980886311707826,2.248799398546546,-1.0080498022977644,0.058799215184419454,0,-12.5,0,0,0,-0.009517,1369,1372,1391,1500,1500,1500
1747554303.8416257,0.11,-0.19,-0.08,-0.19198621771937624,-0.14180800172453928,0.0272707695624114,2.2538204763666703,-1.004157374862573,0.017604340659028526,0,-12.5,0,0,0,-0.012403,1369,1372,1391,1500,1500,1500
1747554303.9419253,0.11,-0.19,-0.08,-0.19198621771937624,-0.14180800172453928,0.0272707695624114,2.2538204763666703,-1.004157374862573,0.017604340659028526,0,-12.5,0,0,0,-0.01399,1369,1372,1391,1500,1500,1500
1747554304.0246618,-0.49,0.16,0.06,-0.24870941840919197,-0.05890486225480862,-0.06763150851478027,2.2353774683313903,-0.9895487206809126,-0.0016141701958015983,0,-12.5,0,0,0,-0.01399,1369,1372,1391,1500,1500,1500
1747554304.1248474,-0.23,-0.09,-0.01,-0.2999784651865254,-0.009817477042468103,-0.136353847812057,2.186136880176467,-0.9732937935875304,0.009303285559518338,0,-12.5,0,0,0,-0.01399,1369,1372,1391,1500,1500,1500
1747554304.2247005,-0.23,-0.09,-0.01,-0.2999784651865254,-0.009817477042468103,-0.136353847812057,2.186136880176467,-0.9732937935875304,0.009303285559518338,0,-12.5,0,0,0,-0.01399,1369,1372,1391,1500,1500,1500
1747554304.3075247,-0.09,0.03,-0.02,-0.30543261909900765,0.09599310885968812,-0.14835298641951802,2.1143092229371034,-0.95778057813915,0.039777704947153575,0,-12.5,0,0,0,-0.01399,1369,1372,1391,1500,1500,1500
1747554304.4076157,-0.09,0.03,-0.02,-0.30543261909900765,0.09599310885968812,-0.14835298641951802,2.1143092229371034,-0.95778057813915,0.039777704947153575,0,-12.5,0,0,0,-0.01399,1369,1372,1391,1500,1500,1500
1747554304.5082026,-0.06,0.0,-0.08,-0.3010692959690218,0.17453292519943295,-0.1265363707695889,2.0328971915753318,-0.9502289661760511,0.08567426411785764,0,-12.5,0,0,0,-0.01399,1369,1372,1391,1500,1500,1500
1747554304.608636,-0.03,-0.17,0.12,-0.2585268954516601,0.22252947962927702,-0.10690141668465268,1.939915949585523,-0.9474212940115513,0.14696946558582086,0,-12.5,0,0,0,-0.01399,1369,1372,1391,1500,1500,1500
1747554304.7080727,-0.03,-0.17,0.12,-0.2585268954516601,0.22252947962927702,-0.10690141668465268,1.939915949585523,-0.9474212940115513,0.14696946558582086,0,-12.5,0,0,0,-0.01399,1369,1372,1391,1500,1500,1500
1747554304.7912695,-0.05,-0.04,-0.01,-0.19634954084936207,0.23671027980173096,-0.10035643198967395,1.8517664986635622,-0.9446352984527736,0.2135175950634357,0,-12.5,0,0,0,-0.01399,1369,1372,1391,1500,1500,1500
1747554304.8916903,-0.05,-0.04,-0.01,-0.19634954084936207,0.23671027980173096,-0.10035643198967395,1.8517664986635622,-0.9446352984527736,0.2135175950634357,0,-12.5,0,0,0,-0.01399,1369,1372,1391,1500,1500,1500
1747554304.9921181,0.0,-0.32,0.04,-0.1538071403320003,0.26616271092913524,-0.08290313946973066,1.769990179677444,-0.9410776336315373,0.28218945603726003,0,-12.5,0,0,0,-0.01399,1369,1372,1391,1500,1500,1500
1747554305.0916896,0.0,-0.25,0.08,-0.12980886311707826,0.2596177262341565,-0.06326818538479445,1.6968426135508954,-0.9375702037103447,0.34900510337093765,0,-12.5,0,0,0,-0.01399,1369,1372,1391,1500,1500,1500
1747554305.1911738,0.0,-0.25,0.08,-0.12980886311707826,0.2596177262341565,-0.06326818538479445,1.6968426135508954,-0.9375702037103447,0.34900510337093765,0,-12.5,0,0,0,-0.01399,1369,1372,1391,1500,1500,1500
1747554305.2746627,-0.15,-0.21,0.11,-0.1461713248545251,0.2650718801466388,-0.05235987755982989,1.618105128053759,-0.932852631111335,0.41855554566419,0,-12.5,0,0,0,-0.01399,1369,1372,1391,1500,1500,1500
1747554305.3718846,-0.14,-0.28,0.09,-0.13744467859455345,0.25416357232167425,-0.022907446432425576,1.547279820090289,-0.928458928225195,0.48180812417161695,0,-12.5,0,0,0,-0.01399,1369,1372,1391,1500,1500,1500
1747554305.474387,-0.14,-0.28,0.09,-0.13744467859455345,0.25416357232167425,-0.022907446432425576,1.547279820090289,-0.928458928225195,0.48180812417161695,0,-12.5,0,0,0,-0.01399,1369,1372,1391,1500,1500,1500
1747554305.5583043,-0.09,-0.12,0.08,-0.12435470920459599,0.23671027980173096,-0.011999138607461015,1.477612034050118,-0.9240240110887732,0.5442296350674697,0,-12.5,0,0,0,-0.015672,1369,1372,1391,1500,1500,1500
1747554305.664115,-0.09,-0.12,0.08,-0.12435470920459599,0.23671027980173096,-0.011999138607461015,1.477612034050118,-0.9240240110887732,0.5442296350674697,0,-12.5,0,0,0,-0.015672,1369,1372,1391,1500,1500,1500
1747554305.758578,-0.23,-0.17,0.02,-0.11017390903214205,0.2203478180642841,-0.007635815477475192,1.4125620287542717,-0.9194219167254812,0.6022645793579816,0,-12.5,0,0,0,-0.015672,1369,1372,1391,1500,1500,1500
1747554305.8594077,-0.23,-0.27,0.0,-0.07635815477475191,0.20507618710933373,0.004363323129985824,1.355900883860309,-0.9135174502488373,0.6559864868572014,0,-2.683736,0,0,0,0,1409,1412,1431,1500,1500,1500
1747554305.9574316,-0.23,-0.27,0.0,-0.07635815477475191,0.20507618710933373,0.004363323129985824,1.355900883860309,-0.9135174502488373,0.6559864868572014,3,0,0,0,0,0,1447,1452,1471,1540,1540,1540
1747554306.041287,0.44,-0.08,-0.11,-0.026179938779914945,0.18653206380689397,0.011999138607461015,1.309524253642533,-0.9078050035387399,0.7033211558401673,3,0,0,0,0,0,1447,1492,1500,1580,1568,1568
1747554306.1420524,0.44,-0.08,-0.11,-0.026179938779914945,0.18653206380689397,0.011999138607461015,1.309524253642533,-0.9078050035387399,0.7033211558401673,3,0,0,0,0,0,1447,1532,1500,1591,1568,1568
1747554306.241733,0.12,-0.15,0.05,0.055632369907319255,0.17780541754692233,0.00545415391248228,1.2746141369464892,-0.9030828551010232,0.7491372350586838,3,0,0,0,0,0,1447,1548,1500,1591,1568,1568
1747554306.342336,0.21,0.07,0.04,0.19853120241435498,0.15707963267948966,-0.05999569303730508,1.2641568359343094,-0.8973312468338338,0.7844269030454116,3,0,0,0,0,0,1447,1548,1500,1591,1568,1568
1747554306.441818,0.21,0.07,0.04,0.19853120241435498,0.15707963267948966,-0.05999569303730508,1.2641568359343094,-0.8973312468338338,0.7844269030454116,3,0,0,0,0,0,1447,1548,1500,1591,1568,1568
1747554306.5247588,-0.11,0.35000000000000003,0.0,0.21925698728178766,0.16035212502697901,-0.1810779098944117,1.2777996639776703,-0.8759280652001713,0.8114465355916112,3,0,0,0,0,0,1447,1548,1500,1591,1568,1568
1747554306.6242769,-0.11,0.35000000000000003,0.0,0.21925698728178766,0.16035212502697901,-0.1810779098944117,1.2777996639776703,-0.8759280652001713,0.8114465355916112,3,0,0,0,0,0,1447,1548,1500,1591,1568,1568
1747554306.7248983,-0.07,0.13,0.08,0.17889624832941878,0.1734420944169365,-0.33815754257390135,1.2938220813650836,-0.8289452674994124,0.8310675718485026,3,0,0,0,0,0,1447,1548,1500,1591,1568,1568
1747554306.808553,0.01,0.12,0.06,0.1341721862470641,0.210530341021816,-0.4505131131710363,1.305207748667725,-0.7613327326903113,0.8483714137639067,3,0,0,0,0,0,1447,1548,1500,1591,1568,1568
1747554306.9086182,0.01,0.12,0.06,0.1341721862470641,0.210530341021816,-0.4505131131710363,1.305207748667725,-0.7613327326903113,0.8483714137639067,3,0,0,0,0,0,1447,1548,1500,1591,1568,1568
1747554307.0084152,0.0,0.17,0.07,0.10362892433716332,0.24434609527920614,-0.5628686837681712,1.3110961872334805,-0.6750692096792398,0.8667340807416699,3,0,0,0,0,0,1447,1548,1500,1591,1568,1568
1747554307.1082318,0.0,0.17,0.07,0.10362892433716332,0.24434609527920614,-0.5628686837681712,1.3110961872334805,-0.6750692096792398,0.8667340807416699,3,0,0,0,0,0,1447,1548,1500,1591,1568,1568
1747554307.2081892,0.0,0.04,0.07,0.07963064712224129,0.2748893571891069,-0.6479534848028948,1.3144349387491345,-0.5729756589577055,0.8852181305873091,3,0,0,0,0,0,1447,1548,1500,1591,1568,1568
1747554307.2920625,-0.08,-0.06,0.16,0.08617563181722002,0.3141592653589793,-0.7057675162752071,1.3165782039069271,-0.466292689864028,0.9046273118283561,3,0,0,0,0,0,1447,1548,1500,1591,1568,1568
1747554307.391676,-0.08,-0.06,0.16,0.08617563181722002,0.3141592653589793,-0.7057675162752071,1.3165782039069271,-0.466292689864028,0.9046273118283561,3,0,0,0,0,0,1447,1548,1500,1591,1568,1568
1747554307.4912634,0.01,-0.05,-0.01,0.09490227807719166,0.35015668118136234,-0.7515824091400581,1.3214485833074099,-0.3434393635838465,0.9284734181178742,3,0,0,0,0,0,1447,1548,1500,1591,1568,1568
1747554307.5904405,-0.04,-0.09,0.08,0.10253809355466686,0.3839724354387525,-0.779944009484966,1.3279795899431288,-0.2220141233889815,0.9545089986507,3,0,0,0,0,0,1447,1548,1500,1591,1568,1568
1747554307.6915286,-0.04,-0.09,0.08,0.10253809355466686,0.3839724354387525,-0.779944009484966,1.3279795899431288,-0.2220141233889815,0.9545089986507,3,0,0,0,0,0,1447,1548,1500,1591,1568,1568
1747554307.7741165,-0.07,-0.06,0.13,0.10362892433716332,0.42215151282612845,-0.791943148092427,1.3387435109981831,-0.08866233341089956,0.9874914434782454,3,0,0,0,0,0,1447,1548,1500,1591,1568,1568
1747554307.8750987,-0.07,-0.06,0.13,0.10362892433716332,0.42215151282612845,-0.791943148092427,1.3387435109981831,-0.08866233341089956,0.9874914434782454,3,0,0,0,0,0,1447,1548,1500,1591,1568,1568
1747554307.9750257,-0.06,-0.18,0.09,0.09053895494720585,0.459239759431008,-0.7941248096574199,1.3534874019676542,0.04688195714895412,1.0272901136181716,3,0,0,0,0,0,1447,1548,1500,1591,1568,1568
1747554308.057826,-0.07,-0.25,0.12,0.06981317007977318,0.49741883681838395,-0.8017606251348951,1.3718555383271964,0.18374845996397468,1.0749988345820847,0,0,0,0,0,0,1487,1508,1500,1551,1528,1528
