time,ay,ax,az,gy,gx,gz,roll,pitch,yaw,cmd_fx,cmd_fy,cmd_fz,cmd_tx,cmd_ty,cmd_tz,pwm_1,pwm_2,pwm_3,pwm_4,pwm_5,pwm_6
1748734597.654069,0.0,0.0,0.0,0.0,0.0,0.0,0.0,0.0,0.0,0.0,0.0,0.0,0.0,0.0,0.0,1500,1500,1500,1500,1500,1500
1748734597.7634692,0.0,-0.01,0.02,-0.001090830782496456,-0.004363323129985824,0.002181661564992912,0.006343881804785098,0.7277899762980852,1.6122820930313027,0.0,0.0,0.0,0.0,0.0,0.0,1500,1500,1500,1500,1500,1500
1748734597.8708544,0.0,-0.01,0.02,-0.001090830782496456,-0.004363323129985824,0.002181661564992912,0.006343881804785098,0.7277899762980852,1.6122820930313027,0.0,0.0,0.0,0.0,0.0,0.0,1500,1500,1500,1500,1500,1500
1748734597.980923,0.01,-0.01,0.03,-0.001090830782496456,0.001090830782496456,0.001090830782496456,0.006343881804785098,0.7277899762980852,1.6122820930313027,0.0,0.0,0.0,0.0,0.0,0.0,1500,1500,1500,1500,1500,1500
1748734598.0893352,0.02,-0.02,0.04,0.0,0.003272492347489368,0.001090830782496456,0.006343881804785098,0.7277899762980852,1.6122820930313027,0.0,0.0,0.0,0.0,0.0,0.0,1500,1500,1500,1500,1500,1500
1748734598.1892734,0.0,-0.03,0.06,0.002181661564992912,0.002181661564992912,-0.001090830782496456,0.006343881804785098,0.7277899762980852,1.6122820930313027,0.0,0.0,0.0,0.0,0.0,0.0,1500,1500,1500,1500,1500,1500
1748734598.3051236,0.0,-0.03,0.06,0.002181661564992912,0.002181661564992912,-0.001090830782496456,0.006343881804785098,0.7277899762980852,1.6122820930313027,0.0,0.0,0.0,0.0,0.0,0.0,1500,1500,1500,1500,1500,1500
1748734598.4280834,0.02,-0.02,0.03,0.001090830782496456,0.002181661564992912,-0.001090830782496456,0.006343881804785098,0.7277899762980852,1.6122820930313027,0.0,0.0,0.0,0.0,0.0,0.0,1500,1500,1500,1500,1500,1500
1748734598.5492644,0.02,0.02,0.02,0.001090830782496456,0.003272492347489368,-0.001090830782496456,0.006343881804785098,0.7277899762980852,1.6122820930313027,0.0,0.0,0.0,0.0,0.0,0.0,1500,1500,1500,1500,1500,1500
1748734598.6581833,0.02,0.02,0.02,0.001090830782496456,0.003272492347489368,-0.001090830782496456,0.006343881804785098,0.7277899762980852,1.6122820930313027,0.0,0.0,0.0,0.0,0.0,0.0,1500,1500,1500,1500,1500,1500
1748734598.7645721,0.02,-0.02,0.05,-0.002181661564992912,0.001090830782496456,0.002181661564992912,0.006343881804785098,0.7277899762980852,1.6122820930313027,0.0,0.0,0.0,0.0,0.0,0.0,1500,1500,1500,1500,1500,1500
1748734598.8733194,-0.01,-0.03,0.04,-0.001090830782496456,0.004363323129985824,0.001090830782496456,0.006343881804785098,0.7277899762980852,1.6122820930313027,0.0,0.0,0.0,0.0,0.0,0.0,1500,1500,1500,1500,1500,1500
1748734598.9820044,-0.01,-0.03,0.04,-0.001090830782496456,0.004363323129985824,0.001090830782496456,0.006343881804785098,0.7277899762980852,1.6122820930313027,0.0,0.0,0.0,0.0,0.0,0.0,1500,1500,1500,1500,1500,1500
1748734599.0898724,0.0,-0.03,0.03,-0.001090830782496456,-0.001090830782496456,0.001090830782496456,0.006343881804785098,0.7277899762980852,1.6122820930313027,0.0,0.0,0.0,0.0,0.0,0.0,1500,1500,1500,1500,1500,1500
1748734599.1982162,0.01,0.0,0.02,-0.004363323129985824,0.001090830782496456,0.001090830782496456,0.006343881804785098,0.7277899762980852,1.6122820930313027,0.0,0.0,0.0,0.0,0.0,0.0,1500,1500,1500,1500,1500,1500
1748734599.3080862,0.01,0.0,0.02,-0.004363323129985824,0.001090830782496456,0.001090830782496456,0.006343881804785098,0.7277899762980852,1.6122820930313027,0.0,0.0,0.0,0.0,0.0,0.0,1500,1500,1500,1500,1500,1500
1748734599.4153907,0.0,-0.05,0.05,-0.004363323129985824,0.0,0.001090830782496456,0.006343881804785098,0.7277899762980852,1.6122820930313027,0.0,0.0,0.0,0.0,0.0,0.0,1500,1500,1500,1500,1500,1500
1748734599.5383673,0.02,-0.03,0.03,-0.001090830782496456,0.0,0.0,0.006343881804785098,0.7277899762980852,1.6122820930313027,0.0,0.0,0.0,0.0,0.0,0.0,1500,1500,1500,1500,1500,1500
1748734599.6478682,0.01,0.0,0.04,0.001090830782496456,0.00545415391248228,-0.002181661564992912,0.006343881804785098,0.7277899762980852,1.6122820930313027,0.0,0.0,0.0,0.0,0.0,0.0,1500,1500,1500,1500,1500,1500
1748734599.7597606,0.01,0.0,0.04,0.001090830782496456,0.00545415391248228,-0.002181661564992912,0.006343881804785098,0.7277899762980852,1.6122820930313027,0.0,0.0,0.0,0.0,0.0,0.0,1500,1500,1500,1500,1500,1500
1748734599.880664,0.01,0.02,0.03,-0.001090830782496456,0.003272492347489368,0.0,0.006343881804785098,0.7277899762980852,1.6122820930313027,0.0,0.0,0.0,0.0,0.0,0.0,1500,1500,1500,1500,1500,1500
1748734599.9895809,0.01,-0.01,0.07,0.004363323129985824,0.001090830782496456,0.0,0.006343881804785098,0.7277899762980852,1.6122820930313027,0.0,0.0,0.0,0.0,0.0,0.0,1500,1500,1500,1500,1500,1500
1748734600.092043,0.0,-0.04,0.04,-0.001090830782496456,-0.001090830782496456,0.001090830782496456,0.006343881804785098,0.7277899762980852,1.6122820930313027,0.0,0.0,0.0,0.0,0.0,0.0,1500,1500,1500,1500,1500,1500
1748734600.2060096,0.0,-0.04,0.04,-0.001090830782496456,-0.001090830782496456,0.001090830782496456,0.006343881804785098,0.7277899762980852,1.6122820930313027,0.0,0.0,0.0,0.0,0.0,0.0,1500,1500,1500,1500,1500,1500
1748734600.3146272,0.01,0.01,0.0,-0.001090830782496456,0.008726646259971648,0.001090830782496456,0.006343881804785098,0.7277899762980852,1.6122820930313027,0.0,0.0,0.0,0.0,0.0,0.0,1500,1500,1500,1500,1500,1500
1748734600.4083486,0.0,0.0,0.01,0.0,-0.001090830782496456,0.0,0.006343881804785098,0.7277899762980852,1.6122820930313027,0.0,0.0,0.0,0.0,0.0,0.0,1500,1500,1500,1500,1500,1500
1748734600.5173166,0.0,0.0,0.01,0.0,-0.001090830782496456,0.0,0.006343881804785098,0.7277899762980852,1.6122820930313027,0.0,0.0,0.0,0.0,0.0,0.0,1500,1500,1500,1500,1500,1500
1748734600.6096745,0.0,-0.04,0.04,-0.001090830782496456,0.002181661564992912,0.0,0.006343881804785098,0.7277899762980852,1.6122820930313027,0.0,0.0,0.0,0.0,0.0,0.0,1500,1500,1500,1500,1500,1500
1748734600.718475,0.0,-0.04,0.04,-0.001090830782496456,0.002181661564992912,0.0,0.006343881804785098,0.7277899762980852,1.6122820930313027,0.0,0.0,0.0,0.0,0.0,0.0,1500,1500,1500,1500,1500,1500
1748734600.8290992,0.0,-0.03,0.08,0.001090830782496456,-0.004363323129985824,-0.001090830782496456,0.006343881804785098,0.7277899762980852,1.6122820930313027,0.0,0.0,0.0,0.0,0.0,0.0,1500,1500,1500,1500,1500,1500
1748734600.9218328,0.0,-0.01,0.02,0.001090830782496456,0.003272492347489368,0.001090830782496456,0.006343881804785098,0.7277899762980852,1.6122820930313027,0.0,0.0,0.0,0.0,0.0,0.0,1500,1500,1500,1500,1500,1500
1748734601.0295734,0.0,-0.01,0.02,0.001090830782496456,0.003272492347489368,0.001090830782496456,0.006343881804785098,0.7277899762980852,1.6122820930313027,0.0,0.0,0.0,0.0,0.0,0.0,1500,1500,1500,1500,1500,1500
1748734601.138334,0.0,-0.01,0.05,0.001090830782496456,-0.002181661564992912,0.002181661564992912,0.006343881804785098,0.7277899762980852,1.6122820930313027,0.0,0.0,0.0,0.0,0.0,0.0,1500,1500,1500,1500,1500,1500
1748734601.2459755,0.02,-0.05,0.05,0.001090830782496456,-0.001090830782496456,0.0,0.006343881804785098,0.7277899762980852,1.6122820930313027,0.0,0.0,0.0,0.0,0.0,0.0,1500,1500,1500,1500,1500,1500
1748734601.3544033,0.02,-0.05,0.05,0.001090830782496456,-0.001090830782496456,0.0,0.006343881804785098,0.7277899762980852,1.6122820930313027,0.0,0.0,0.0,0.0,0.0,0.0,1500,1500,1500,1500,1500,1500
1748734601.464065,0.01,0.0,0.02,0.004363323129985824,-0.003272492347489368,-0.002181661564992912,0.006343881804785098,0.7277899762980852,1.6122820930313027,0.0,0.0,0.0,0.0,0.0,0.0,1500,1500,1500,1500,1500,1500
1748734601.5859654,0.02,0.0,0.0,0.002181661564992912,0.0,-0.001090830782496456,0.006343881804785098,0.7277899762980852,1.6122820930313027,0.0,0.0,0.0,0.0,0.0,0.0,1500,1500,1500,1500,1500,1500
1748734601.6794205,0.0,0.02,0.02,0.0,0.004363323129985824,0.0,0.006343881804785098,0.7277899762980852,1.6122820930313027,0.0,0.0,0.0,0.0,0.0,0.0,1500,1500,1500,1500,1500,1500
1748734601.7889142,0.0,0.02,0.02,0.0,0.004363323129985824,0.0,0.006343881804785098,0.7277899762980852,1.6122820930313027,0.0,0.0,0.0,0.0,0.0,0.0,1500,1500,1500,1500,1500,1500
1748734601.8967178,0.04,-0.03,0.02,0.002181661564992912,0.0,0.0,0.006343881804785098,0.7277899762980852,1.6122820930313027,0.0,0.0,0.0,0.0,0.0,0.0,1500,1500,1500,1500,1500,1500
1748734601.993101,0.0,-0.02,0.02,0.001090830782496456,0.001090830782496456,-0.003272492347489368,0.006343881804785098,0.7277899762980852,1.6122820930313027,0.0,0.0,0.0,0.0,0.0,0.0,1500,1500,1500,1500,1500,1500
1748734602.0991576,0.0,-0.02,0.02,0.001090830782496456,0.001090830782496456,-0.003272492347489368,0.006343881804785098,0.7277899762980852,1.6122820930313027,0.0,0.0,0.0,0.0,0.0,0.0,1500,1500,1500,1500,1500,1500
1748734602.2095168,0.0,0.01,0.03,-0.004363323129985824,-0.001090830782496456,-0.004363323129985824,0.006343881804785098,0.7277899762980852,1.6122820930313027,0.0,0.0,0.0,0.0,0.0,0.0,1500,1500,1500,1500,1500,1500
1748734602.309373,0.0,-0.02,0.02,-0.002181661564992912,-0.003272492347489368,-0.001090830782496456,0.006343881804785098,0.7277899762980852,1.6122820930313027,0.0,0.0,0.0,0.0,0.0,0.0,1500,1500,1500,1500,1500,1500
1748734602.425655,0.0,-0.02,0.02,-0.002181661564992912,-0.003272492347489368,-0.001090830782496456,0.006343881804785098,0.7277899762980852,1.6122820930313027,0.0,0.0,0.0,0.0,0.0,0.0,1500,1500,1500,1500,1500,1500
1748734602.5490494,0.01,-0.03,0.03,0.004363323129985824,-0.002181661564992912,-0.001090830782496456,0.006343881804785098,0.7277899762980852,1.6122820930313027,0.0,0.0,0.0,0.0,0.0,0.0,1500,1500,1500,1500,1500,1500
1748734602.6608624,0.04,-0.04,0.04,-0.004363323129985824,0.002181661564992912,-0.001090830782496456,0.006343881804785098,0.7277899762980852,1.6122820930313027,0.0,0.0,0.0,0.0,0.0,0.0,1500,1500,1500,1500,1500,1500
1748734602.7716684,0.04,-0.04,0.04,-0.004363323129985824,0.002181661564992912,-0.001090830782496456,0.006343881804785098,0.7277899762980852,1.6122820930313027,0.0,0.0,0.0,0.0,0.0,0.0,1500,1500,1500,1500,1500,1500
1748734602.8947206,0.0,0.0,0.03,0.0,0.002181661564992912,-0.001090830782496456,0.006343881804785098,0.7277899762980852,1.6122820930313027,0.0,0.0,0.0,0.0,0.0,0.0,1500,1500,1500,1500,1500,1500
1748734603.0185106,0.0,-0.03,0.04,0.0,0.001090830782496456,0.0,0.006343881804785098,0.7277899762980852,1.6122820930313027,0.0,0.0,0.0,0.0,0.0,0.0,1500,1500,1500,1500,1500,1500
1748734603.0990336,0.0,-0.03,0.03,0.002181661564992912,0.004363323129985824,0.001090830782496456,0.006343881804785098,0.7277899762980852,1.6122820930313027,0.0,0.0,0.0,0.0,0.0,0.0,1500,1500,1500,1500,1500,1500
1748734603.2038236,0.0,-0.03,0.03,0.002181661564992912,0.004363323129985824,0.001090830782496456,0.006343881804785098,0.7277899762980852,1.6122820930313027,0.0,0.0,0.0,0.0,0.0,0.0,1500,1500,1500,1500,1500,1500
1748734603.312603,0.02,0.0,0.0,0.003272492347489368,0.004363323129985824,-0.001090830782496456,0.006343881804785098,0.7277899762980852,1.6122820930313027,0.0,0.0,0.0,0.0,0.0,0.0,1500,1500,1500,1500,1500,1500
1748734603.418089,0.0,0.01,0.04,0.001090830782496456,0.003272492347489368,-0.001090830782496456,0.006343881804785098,0.7277899762980852,1.6122820930313027,0.0,0.0,0.0,0.0,0.0,0.0,1500,1500,1500,1500,1500,1500
1748734603.5293152,0.0,0.01,0.04,0.001090830782496456,0.003272492347489368,-0.001090830782496456,0.006343881804785098,0.7277899762980852,1.6122820930313027,0.0,0.0,0.0,0.0,0.0,0.0,1500,1500,1500,1500,1500,1500
1748734603.6415277,0.0,-0.02,0.02,0.002181661564992912,0.003272492347489368,-0.002181661564992912,0.006343881804785098,0.7277899762980852,1.6122820930313027,0.0,0.0,0.0,0.0,0.0,0.0,1500,1500,1500,1500,1500,1500
1748734603.734951,0.02,-0.03,0.06,0.003272492347489368,0.0,-0.002181661564992912,0.006343881804785098,0.7277899762980852,1.6122820930313027,0.0,0.0,0.0,0.0,0.0,0.0,1500,1500,1500,1500,1500,1500
1748734603.8430746,0.02,-0.03,0.06,0.003272492347489368,0.0,-0.002181661564992912,0.006343881804785098,0.7277899762980852,1.6122820930313027,0.0,0.0,0.0,0.0,0.0,0.0,1500,1500,1500,1500,1500,1500
1748734603.9510756,0.01,0.01,0.0,0.003272492347489368,0.00545415391248228,-0.001090830782496456,0.006343881804785098,0.7277899762980852,1.6122820930313027,0.0,0.0,0.0,0.0,0.0,0.0,1500,1500,1500,1500,1500,1500
1748734604.0497377,0.01,0.0,0.01,0.002181661564992912,-0.001090830782496456,0.0,0.006343881804785098,0.7277899762980852,1.6122820930313027,0.0,0.0,0.0,0.0,0.0,0.0,1500,1500,1500,1500,1500,1500
1748734604.1529605,0.01,0.0,0.01,0.002181661564992912,-0.001090830782496456,0.0,0.006343881804785098,0.7277899762980852,1.6122820930313027,0.0,0.0,0.0,0.0,0.0,0.0,1500,1500,1500,1500,1500,1500
1748734604.2591038,0.02,-0.03,0.02,0.0,0.00545415391248228,-0.003272492347489368,0.006343881804785098,0.7277899762980852,1.6122820930313027,0.0,0.0,0.0,0.0,0.0,0.0,1500,1500,1500,1500,1500,1500
1748734604.3641891,0.02,-0.03,0.02,0.0,0.00545415391248228,-0.003272492347489368,0.006343881804785098,0.7277899762980852,1.6122820930313027,0.0,0.0,0.0,0.0,0.0,0.0,1500,1500,1500,1500,1500,1500
1748734604.4881985,0.01,-0.04,0.03,-0.001090830782496456,-0.001090830782496456,0.0,0.006343881804785098,0.7277899762980852,1.6122820930313027,0.0,0.0,0.0,0.0,0.0,0.0,1500,1500,1500,1500,1500,1500
1748734604.5976088,0.0,-0.02,0.03,0.002181661564992912,-0.003272492347489368,0.0,0.006343881804785098,0.7277899762980852,1.6122820930313027,0.0,0.0,0.0,0.0,0.0,0.0,1500,1500,1500,1500,1500,1500
1748734604.686851,0.0,0.0,0.04,-0.001090830782496456,-0.004363323129985824,0.0,0.006343881804785098,0.7277899762980852,1.6122820930313027,0.0,0.0,0.0,0.0,0.0,0.0,1500,1500,1500,1500,1500,1500
1748734604.7992141,0.0,0.0,0.04,-0.001090830782496456,-0.004363323129985824,0.0,0.006343881804785098,0.7277899762980852,1.6122820930313027,0.0,0.0,0.0,0.0,0.0,0.0,1500,1500,1500,1500,1500,1500
1748734604.9099073,0.0,-0.02,0.02,0.001090830782496456,0.0,-0.001090830782496456,0.006343881804785098,0.7277899762980852,1.6122820930313027,0.0,0.0,0.0,0.0,0.0,0.0,1500,1500,1500,1500,1500,1500
1748734605.0099123,0.02,-0.04,0.06,-0.001090830782496456,0.001090830782496456,0.001090830782496456,0.006343881804785098,0.7277899762980852,1.6122820930313027,0.0,0.0,0.0,0.0,0.0,0.0,1500,1500,1500,1500,1500,1500
1748734605.1227434,0.02,-0.04,0.06,-0.001090830782496456,0.001090830782496456,0.001090830782496456,0.006343881804785098,0.7277899762980852,1.6122820930313027,0.0,0.0,0.0,0.0,0.0,0.0,1500,1500,1500,1500,1500,1500
1748734605.2316933,0.0,0.0,0.0,-0.002181661564992912,0.0,-0.001090830782496456,0.006343881804785098,0.7277899762980852,1.6122820930313027,0.0,0.0,0.0,0.0,0.0,0.0,1500,1500,1500,1500,1500,1500
1748734605.3207202,0.02,-0.01,0.01,0.004363323129985824,0.003272492347489368,0.001090830782496456,0.006343881804785098,0.7277899762980852,1.6122820930313027,0.0,0.0,0.0,0.0,0.0,0.0,1500,1500,1500,1500,1500,1500
1748734605.432938,0.02,-0.01,0.01,0.004363323129985824,0.003272492347489368,0.001090830782496456,0.006343881804785098,0.7277899762980852,1.6122820930313027,0.0,0.0,0.0,0.0,0.0,0.0,1500,1500,1500,1500,1500,1500
1748734605.5404778,0.0,0.0,0.05,-0.001090830782496456,0.0,0.002181661564992912,0.006343881804785098,0.7277899762980852,1.6122820930313027,0.0,0.0,0.0,0.0,0.0,0.0,1500,1500,1500,1500,1500,1500
1748734605.6371305,0.0,-0.04,0.05,-0.001090830782496456,0.0,0.002181661564992912,0.006343881804785098,0.7277899762980852,1.6122820930313027,0.0,0.0,0.0,0.0,0.0,0.0,1500,1500,1500,1500,1500,1500
1748734605.7444065,0.0,-0.04,0.05,-0.001090830782496456,0.0,0.002181661564992912,0.006343881804785098,0.7277899762980852,1.6122820930313027,0.0,0.0,0.0,0.0,0.0,0.0,1500,1500,1500,1500,1500,1500
1748734605.8526917,0.01,0.01,0.02,0.0,0.003272492347489368,0.0,0.006343881804785098,0.7277899762980852,1.6122820930313027,0.0,0.0,0.0,0.0,0.0,0.0,1500,1500,1500,1500,1500,1500
1748734605.9521837,0.02,0.0,0.0,0.001090830782496456,0.003272492347489368,0.003272492347489368,0.006343881804785098,0.7277899762980852,1.6122820930313027,0.0,0.0,0.0,0.0,0.0,0.0,1500,1500,1500,1500,1500,1500
1748734606.0679572,0.02,0.0,0.0,0.001090830782496456,0.003272492347489368,0.003272492347489368,0.006343881804785098,0.7277899762980852,1.6122820930313027,0.0,0.0,0.0,0.0,0.0,0.0,1500,1500,1500,1500,1500,1500
1748734606.1930225,0.01,-0.03,0.04,0.0,-0.001090830782496456,0.002181661564992912,0.006343881804785098,0.7277899762980852,1.6122820930313027,0.0,0.0,0.0,0.0,0.0,0.0,1500,1500,1500,1500,1500,1500
1748734606.3173072,0.0,-0.03,0.02,0.0,-0.003272492347489368,-0.001090830782496456,0.006343881804785098,0.7277899762980852,1.6122820930313027,0.0,0.0,0.0,0.0,0.0,0.0,1500,1500,1500,1500,1500,1500
1748734606.4286046,0.0,-0.03,0.02,0.0,-0.003272492347489368,-0.001090830782496456,0.006343881804785098,0.7277899762980852,1.6122820930313027,0.0,0.0,0.0,0.0,0.0,0.0,1500,1500,1500,1500,1500,1500
1748734606.5312629,0.0,0.0,0.01,0.001090830782496456,0.002181661564992912,0.001090830782496456,0.006343881804785098,0.7277899762980852,1.6122820930313027,0.0,0.0,0.0,0.0,0.0,0.0,1500,1500,1500,1500,1500,1500
1748734606.6391065,0.02,-0.03,0.03,-0.002181661564992912,0.001090830782496456,0.0,0.006343881804785098,0.7277899762980852,1.6122820930313027,0.0,0.0,0.0,0.0,0.0,0.0,1500,1500,1500,1500,1500,1500
1748734606.743101,0.0,-0.04,0.03,0.002181661564992912,-0.001090830782496456,0.0,0.006343881804785098,0.7277899762980852,1.6122820930313027,0.0,0.0,0.0,0.0,0.0,0.0,1500,1500,1500,1500,1500,1500
1748734606.8557456,0.0,-0.04,0.03,0.002181661564992912,-0.001090830782496456,0.0,0.006343881804785098,0.7277899762980852,1.6122820930313027,0.0,0.0,0.0,0.0,0.0,0.0,1500,1500,1500,1500,1500,1500
1748734606.965006,0.0,-0.01,0.03,0.002181661564992912,-0.004363323129985824,0.0,0.006343881804785098,0.7277899762980852,1.6122820930313027,0.0,0.0,0.0,0.0,0.0,0.0,1500,1500,1500,1500,1500,1500
1748734607.0644734,0.01,0.0,0.0,0.002181661564992912,0.0,0.001090830782496456,0.006343881804785098,0.7277899762980852,1.6122820930313027,0.0,0.0,0.0,0.0,0.0,0.0,1500,1500,1500,1500,1500,1500
1748734607.1652946,0.01,0.0,0.0,0.002181661564992912,0.0,0.001090830782496456,0.006343881804785098,0.7277899762980852,1.6122820930313027,0.0,0.0,0.0,0.0,0.0,0.0,1500,1500,1500,1500,1500,1500
1748734607.288076,0.0,-0.04,0.04,0.002181661564992912,0.001090830782496456,-0.001090830782496456,2.679723630740562,-1.5707963267948966,1.5885909824824493,0.0,0.0,0.0,0.0,0.0,0.0,1500,1500,1500,1500,1500,1500
1748734607.3829417,0.0,-0.03,0.08,0.002181661564992912,0.001090830782496456,0.001090830782496456,0.006343881804785098,0.7277899762980852,1.6122820930313027,0.0,0.0,0.0,0.0,0.0,0.0,1500,1500,1500,1500,1500,1500
1748734607.4916174,0.0,-0.03,0.08,0.002181661564992912,0.001090830782496456,0.001090830782496456,0.006343881804785098,0.7277899762980852,1.6122820930313027,0.0,0.0,0.0,0.0,0.0,0.0,1500,1500,1500,1500,1500,1500
1748734607.5991435,0.04,0.0,0.02,0.002181661564992912,-0.003272492347489368,-0.001090830782496456,0.006343881804785098,0.7277899762980852,1.6122820930313027,0.0,0.0,0.0,0.0,0.0,0.0,1500,1500,1500,1500,1500,1500
1748734607.6987276,0.0,-0.01,0.08,0.004363323129985824,0.001090830782496456,-0.001090830782496456,0.006343881804785098,0.7277899762980852,1.6122820930313027,0.0,0.0,0.0,0.0,0.0,0.0,1500,1500,1500,1500,1500,1500
1748734607.8026724,0.0,-0.01,0.08,0.004363323129985824,0.001090830782496456,-0.001090830782496456,0.006343881804785098,0.7277899762980852,1.6122820930313027,0.0,0.0,0.0,0.0,0.0,0.0,1500,1500,1500,1500,1500,1500
1748734607.9123054,0.01,-0.03,0.05,-0.002181661564992912,-0.001090830782496456,-0.001090830782496456,0.006343881804785098,0.7277899762980852,1.6122820930313027,0.0,0.0,0.0,0.0,0.0,0.0,1500,1500,1500,1500,1500,1500
1748734608.0133724,0.0,-0.02,0.03,-0.001090830782496456,0.0,0.0,0.006343881804785098,0.7277899762980852,1.6122820930313027,0.0,0.0,0.0,0.0,0.0,0.0,1500,1500,1500,1500,1500,1500
1748734608.1160822,0.0,-0.02,0.03,-0.001090830782496456,0.0,0.0,0.006343881804785098,0.7277899762980852,1.6122820930313027,0.0,0.0,0.0,0.0,0.0,0.0,1500,1500,1500,1500,1500,1500
1748734608.2260711,0.02,0.0,0.0,0.002181661564992912,0.001090830782496456,0.002181661564992912,0.006343881804785098,0.7277899762980852,1.6122820930313027,0.0,0.0,0.0,0.0,0.0,0.0,1500,1500,1500,1500,1500,1500
1748734608.333786,0.03,-0.01,0.02,0.0,-0.001090830782496456,0.003272492347489368,0.006343881804785098,0.7277899762980852,1.6122820930313027,0.0,0.0,0.0,0.0,0.0,0.0,1500,1500,1500,1500,1500,1500
1748734608.4475424,0.03,-0.01,0.02,0.0,-0.001090830782496456,0.003272492347489368,0.006343881804785098,0.7277899762980852,1.6122820930313027,0.0,0.0,0.0,0.0,0.0,0.0,1500,1500,1500,1500,1500,1500
1748734608.553885,-0.01,-0.04,0.03,-0.001090830782496456,0.001090830782496456,0.0,0.006343881804785098,0.7277899762980852,1.6122820930313027,0.0,0.0,0.0,0.0,0.0,0.0,1500,1500,1500,1500,1500,1500
1748734608.6518302,0.02,0.0,0.02,-0.002181661564992912,0.004363323129985824,-0.003272492347489368,0.006343881804785098,0.7277899762980852,1.6122820930313027,0.0,0.0,0.0,0.0,0.0,0.0,1500,1500,1500,1500,1500,1500
1748734608.7582185,0.02,0.0,0.02,-0.002181661564992912,0.004363323129985824,-0.003272492347489368,0.006343881804785098,0.7277899762980852,1.6122820930313027,0.0,0.0,0.0,0.0,0.0,0.0,1500,1500,1500,1500,1500,1500
1748734608.8674614,0.01,0.0,0.0,-0.002181661564992912,-0.002181661564992912,0.0,0.006343881804785098,0.7277899762980852,1.6122820930313027,0.0,0.0,0.0,0.0,0.0,0.0,1500,1500,1500,1500,1500,1500
1748734608.9762177,0.01,0.0,0.02,0.003272492347489368,0.002181661564992912,-0.001090830782496456,0.006343881804785098,0.7277899762980852,1.6122820930313027,0.0,0.0,0.0,0.0,0.0,0.0,1500,1500,1500,1500,1500,1500
1748734609.0841122,0.01,0.0,0.02,0.003272492347489368,0.002181661564992912,-0.001090830782496456,0.006343881804785098,0.7277899762980852,1.6122820930313027,0.0,0.0,0.0,0.0,0.0,0.0,1500,1500,1500,1500,1500,1500
1748734609.1933959,0.01,-0.02,0.03,0.0,-0.001090830782496456,0.0,0.006343881804785098,0.7277899762980852,1.6122820930313027,0.0,0.0,0.0,0.0,0.0,0.0,1500,1500,1500,1500,1500,1500
1748734609.2983692,0.0,-0.02,0.07,0.003272492347489368,0.004363323129985824,-0.002181661564992912,0.006343881804785098,0.7277899762980852,1.6122820930313027,0.0,0.0,0.0,0.0,0.0,0.0,1500,1500,1500,1500,1500,1500
1748734609.4088986,0.0,-0.02,0.07,0.003272492347489368,0.004363323129985824,-0.002181661564992912,0.006343881804785098,0.7277899762980852,1.6122820930313027,0.0,0.0,0.0,0.0,0.0,0.0,1500,1500,1500,1500,1500,1500
1748734609.5150452,0.0,-0.03,0.05,0.001090830782496456,-0.001090830782496456,0.0,0.006343881804785098,0.7277899762980852,1.6122820930313027,0.0,0.0,0.0,0.0,0.0,0.0,1500,1500,1500,1500,1500,1500
1748734609.6260612,0.0,-0.03,0.05,0.001090830782496456,-0.001090830782496456,0.0,0.006343881804785098,0.7277899762980852,1.6122820930313027,0.0,0.0,0.0,0.0,0.0,0.0,1500,1500,1500,1500,1500,1500
1748734609.733552,0.01,0.0,0.0,0.002181661564992912,-0.002181661564992912,0.0,0.006343881804785098,0.7277899762980852,1.6122820930313027,0.0,0.0,0.0,0.0,0.0,0.0,1500,1500,1500,1500,1500,1500
1748734609.8427963,0.01,0.0,0.03,0.002181661564992912,0.002181661564992912,-0.002181661564992912,0.006343881804785098,0.7277899762980852,1.6122820930313027,0.0,0.0,0.0,0.0,0.0,0.0,1500,1500,1500,1500,1500,1500
1748734609.934407,0.01,-0.05,0.04,0.003272492347489368,0.004363323129985824,0.001090830782496456,0.006343881804785098,0.7277899762980852,1.6122820930313027,0.0,0.0,0.0,0.0,0.0,0.0,1500,1500,1500,1500,1500,1500
1748734610.0536575,0.01,-0.05,0.04,0.003272492347489368,0.004363323129985824,0.001090830782496456,0.006343881804785098,0.7277899762980852,1.6122820930313027,0.0,0.0,0.0,0.0,0.0,0.0,1500,1500,1500,1500,1500,1500
1748734610.1671534,,,,0.0,0.001090830782496456,-0.001090830782496456,0.006343881804785098,0.7277899762980852,1.6122820930313027,0.0,0.0,0.0,0.0,0.0,0.0,1500,1500,1500,1500,1500,1500
1748734610.2762575,0.01,0.02,0.03,0.0,0.0,0.001090830782496456,0.006343881804785098,0.7277899762980852,1.6122820930313027,0.0,0.0,0.0,0.0,0.0,0.0,1500,1500,1500,1500,1500,1500
1748734610.3832197,0.01,0.02,0.03,0.0,0.0,0.001090830782496456,0.006343881804785098,0.7277899762980852,1.6122820930313027,0.0,0.0,0.0,0.0,0.0,0.0,1500,1500,1500,1500,1500,1500
1748734610.492934,0.01,-0.03,0.06,0.003272492347489368,0.003272492347489368,0.0,0.006343881804785098,0.7277899762980852,1.6122820930313027,0.0,0.0,0.0,0.0,0.0,0.0,1500,1500,1500,1500,1500,1500
1748734610.6170552,0.03,-0.06,0.03,0.003272492347489368,0.006544984694978736,0.001090830782496456,0.006343881804785098,0.7277899762980852,1.6122820930313027,0.0,0.0,0.0,0.0,0.0,0.0,1500,1500,1500,1500,1500,1500
1748734610.7263715,0.0,-0.04,0.05,0.0,-0.002181661564992912,0.001090830782496456,0.006343881804785098,0.7277899762980852,1.6122820930313027,0.0,0.0,0.0,0.0,0.0,0.0,1500,1500,1500,1500,1500,1500
1748734610.8339398,0.0,-0.04,0.05,0.0,-0.002181661564992912,0.001090830782496456,0.006343881804785098,0.7277899762980852,1.6122820930313027,0.0,0.0,0.0,0.0,0.0,0.0,1500,1500,1500,1500,1500,1500
1748734610.9425673,0.02,0.0,0.03,-0.002181661564992912,0.0,0.002181661564992912,0.006343881804785098,0.7277899762980852,1.6122820930313027,0.0,0.0,0.0,0.0,0.0,0.0,1500,1500,1500,1500,1500,1500
1748734611.0440605,0.01,-0.02,0.05,0.003272492347489368,0.001090830782496456,-0.002181661564992912,0.006343881804785098,0.7277899762980852,1.6122820930313027,0.0,0.0,0.0,0.0,0.0,0.0,1500,1500,1500,1500,1500,1500
1748734611.1575017,0.01,-0.02,0.05,0.003272492347489368,0.001090830782496456,-0.002181661564992912,0.006343881804785098,0.7277899762980852,1.6122820930313027,0.0,0.0,0.0,0.0,0.0,0.0,1500,1500,1500,1500,1500,1500
1748734611.266295,0.01,-0.05,0.06,-0.001090830782496456,0.003272492347489368,0.001090830782496456,0.006343881804785098,0.7277899762980852,1.6122820930313027,0.0,0.0,0.0,0.0,0.0,0.0,1500,1500,1500,1500,1500,1500
1748734611.3589318,0.01,0.0,0.03,-0.001090830782496456,-0.003272492347489368,0.001090830782496456,0.006343881804785098,0.7277899762980852,1.6122820930313027,0.0,0.0,0.0,0.0,0.0,0.0,1500,1500,1500,1500,1500,1500
1748734611.4681797,0.01,0.0,0.03,-0.001090830782496456,-0.003272492347489368,0.001090830782496456,0.006343881804785098,0.7277899762980852,1.6122820930313027,0.0,0.0,0.0,0.0,0.0,0.0,1500,1500,1500,1500,1500,1500
1748734611.5616183,0.0,0.0,0.0,-0.002181661564992912,-0.002181661564992912,-0.001090830782496456,0.006343881804785098,0.7277899762980852,1.6122820930313027,0.0,0.0,0.0,0.0,0.0,0.0,1500,1500,1500,1500,1500,1500
1748734611.6693635,0.0,0.0,0.0,-0.002181661564992912,-0.002181661564992912,-0.001090830782496456,0.006343881804785098,0.7277899762980852,1.6122820930313027,0.0,0.0,0.0,0.0,0.0,0.0,1500,1500,1500,1500,1500,1500
1748734611.778857,0.01,-0.01,0.04,0.002181661564992912,0.002181661564992912,0.003272492347489368,0.006343881804785098,0.7277899762980852,1.6122820930313027,0.0,0.0,0.0,0.0,0.0,0.0,1500,1500,1500,1500,1500,1500
1748734611.8877335,0.01,-0.03,0.05,0.001090830782496456,0.003272492347489368,0.002181661564992912,0.006343881804785098,0.7277899762980852,1.6122820930313027,0.0,0.0,0.0,0.0,0.0,0.0,1500,1500,1500,1500,1500,1500
1748734611.996407,0.01,-0.03,0.05,0.001090830782496456,0.003272492347489368,0.002181661564992912,0.006343881804785098,0.7277899762980852,1.6122820930313027,0.0,0.0,0.0,0.0,0.0,0.0,1500,1500,1500,1500,1500,1500
1748734612.103459,0.0,-0.02,0.07,0.001090830782496456,0.0,0.0,0.006343881804785098,0.7277899762980852,1.6122820930313027,0.0,0.0,0.0,0.0,0.0,0.0,1500,1500,1500,1500,1500,1500
1748734612.2117145,0.01,0.0,0.02,-0.002181661564992912,-0.001090830782496456,0.001090830782496456,0.006343881804785098,0.7277899762980852,1.6122820930313027,0.0,0.0,0.0,0.0,0.0,0.0,1500,1500,1500,1500,1500,1500
1748734612.3156195,0.01,0.0,0.03,-0.001090830782496456,-0.001090830782496456,0.0,0.006343881804785098,0.7277899762980852,1.6122820930313027,0.0,0.0,0.0,0.0,0.0,0.0,1500,1500,1500,1500,1500,1500
1748734612.4276984,0.01,0.0,0.03,-0.001090830782496456,-0.001090830782496456,0.0,0.006343881804785098,0.7277899762980852,1.6122820930313027,0.0,0.0,0.0,0.0,0.0,0.0,1500,1500,1500,1500,1500,1500
1748734612.534001,0.04,-0.03,0.04,-0.001090830782496456,-0.001090830782496456,0.001090830782496456,0.006343881804785098,0.7277899762980852,1.6122820930313027,0.0,0.0,0.0,0.0,0.0,0.0,1500,1500,1500,1500,1500,1500
1748734612.6434672,0.01,-0.03,0.03,0.00545415391248228,0.003272492347489368,0.0,0.006343881804785098,0.7277899762980852,1.6122820930313027,0.0,0.0,0.0,0.0,0.0,0.0,1500,1500,1500,1500,1500,1500
1748734612.7504659,0.01,-0.03,0.03,0.00545415391248228,0.003272492347489368,0.0,0.006343881804785098,0.7277899762980852,1.6122820930313027,0.0,0.0,0.0,0.0,0.0,0.0,1500,1500,1500,1500,1500,1500
1748734612.859074,0.01,0.0,0.04,0.002181661564992912,-0.001090830782496456,0.001090830782496456,0.006343881804785098,0.7277899762980852,1.6122820930313027,0.0,0.0,0.0,0.0,0.0,0.0,1500,1500,1500,1500,1500,1500
1748734612.957881,0.01,0.0,0.02,0.0,0.0,-0.002181661564992912,0.006343881804785098,0.7277899762980852,1.6122820930313027,0.0,0.0,0.0,0.0,0.0,0.0,1500,1500,1500,1500,1500,1500
1748734613.0628612,0.01,0.0,0.02,0.0,0.0,-0.002181661564992912,0.006343881804785098,0.7277899762980852,1.6122820930313027,0.0,0.0,0.0,0.0,0.0,0.0,1500,1500,1500,1500,1500,1500
1748734613.1559327,0.0,-0.03,0.03,0.002181661564992912,-0.003272492347489368,-0.001090830782496456,0.006343881804785098,0.7277899762980852,1.6122820930313027,0.0,0.0,0.0,0.0,0.0,0.0,1500,1500,1500,1500,1500,1500
1748734613.2646093,0.0,-0.03,0.03,0.002181661564992912,-0.003272492347489368,-0.001090830782496456,0.006343881804785098,0.7277899762980852,1.6122820930313027,0.0,0.0,0.0,0.0,0.0,0.0,1500,1500,1500,1500,1500,1500
1748734613.37109,0.0,-0.01,0.0,-0.001090830782496456,0.004363323129985824,-0.002181661564992912,0.006343881804785098,0.7277899762980852,1.6122820930313027,0.0,0.0,0.0,0.0,0.0,0.0,1500,1500,1500,1500,1500,1500
1748734613.4829688,0.0,0.0,0.01,0.002181661564992912,-0.002181661564992912,0.0,0.006343881804785098,0.7277899762980852,1.6122820930313027,0.0,0.0,0.0,0.0,0.0,0.0,1500,1500,1500,1500,1500,1500
1748734613.5949616,0.0,0.0,0.01,0.002181661564992912,-0.002181661564992912,0.0,0.006343881804785098,0.7277899762980852,1.6122820930313027,0.0,0.0,0.0,0.0,0.0,0.0,1500,1500,1500,1500,1500,1500
1748734613.70073,0.0,0.0,0.02,0.001090830782496456,0.0,-0.001090830782496456,0.006343881804785098,0.7277899762980852,1.6122820930313027,0.0,0.0,0.0,0.0,0.0,0.0,1500,1500,1500,1500,1500,1500
1748734613.7962027,0.0,-0.03,0.05,0.001090830782496456,0.001090830782496456,0.001090830782496456,0.006343881804785098,0.7277899762980852,1.6122820930313027,0.0,0.0,0.0,0.0,0.0,0.0,1500,1500,1500,1500,1500,1500
1748734613.9020674,0.0,-0.03,0.05,0.001090830782496456,0.001090830782496456,0.001090830782496456,0.006343881804785098,0.7277899762980852,1.6122820930313027,0.0,0.0,0.0,0.0,0.0,0.0,1500,1500,1500,1500,1500,1500
1748734614.012922,0.0,-0.05,0.01,0.0,-0.004363323129985824,-0.001090830782496456,0.006343881804785098,0.7277899762980852,1.6122820930313027,0.0,0.0,0.0,0.0,0.0,0.0,1500,1500,1500,1500,1500,1500
1748734614.1207101,0.0,-0.04,0.02,-0.003272492347489368,0.001090830782496456,-0.001090830782496456,0.006343881804785098,0.7277899762980852,1.6122820930313027,0.0,0.0,0.0,0.0,0.0,0.0,1500,1500,1500,1500,1500,1500
1748734614.2316823,0.0,-0.04,0.02,-0.003272492347489368,0.001090830782496456,-0.001090830782496456,0.006343881804785098,0.7277899762980852,1.6122820930313027,0.0,0.0,0.0,0.0,0.0,0.0,1500,1500,1500,1500,1500,1500
1748734614.3386023,0.0,-0.01,0.02,-0.001090830782496456,0.0,0.0,0.006343881804785098,0.7277899762980852,1.6122820930313027,0.0,0.0,0.0,0.0,0.0,0.0,1500,1500,1500,1500,1500,1500
1748734614.4486034,0.02,0.0,0.03,0.002181661564992912,-0.001090830782496456,0.002181661564992912,2.679723630740562,-1.5707963267948966,1.5885909824824493,0.0,0.0,0.0,0.0,0.0,0.0,1500,1500,1500,1500,1500,1500
1748734614.5540657,0.0,-0.04,0.04,0.0,-0.002181661564992912,0.0,0.006343881804785098,0.7277899762980852,1.6122820930313027,0.0,0.0,0.0,0.0,0.0,0.0,1500,1500,1500,1500,1500,1500
1748734614.6674638,0.0,-0.04,0.04,0.0,-0.002181661564992912,0.0,0.006343881804785098,0.7277899762980852,1.6122820930313027,0.0,0.0,0.0,0.0,0.0,0.0,1500,1500,1500,1500,1500,1500
1748734614.775876,0.01,-0.03,0.05,0.0,-0.001090830782496456,0.0,0.006343881804785098,0.7277899762980852,1.6122820930313027,0.0,0.0,0.0,0.0,0.0,0.0,1500,1500,1500,1500,1500,1500
1748734614.8693106,0.01,0.01,0.0,-0.001090830782496456,-0.004363323129985824,-0.001090830782496456,0.006343881804785098,0.7277899762980852,1.6122820930313027,0.0,0.0,0.0,0.0,0.0,0.0,1500,1500,1500,1500,1500,1500
1748734614.9771752,0.01,0.01,0.0,-0.001090830782496456,-0.004363323129985824,-0.001090830782496456,0.006343881804785098,0.7277899762980852,1.6122820930313027,0.0,0.0,0.0,0.0,0.0,0.0,1500,1500,1500,1500,1500,1500
1748734615.0853112,0.03,0.01,0.02,-0.002181661564992912,0.001090830782496456,0.0,0.006343881804785098,0.7277899762980852,1.6122820930313027,0.0,0.0,0.0,0.0,0.0,0.0,1500,1500,1500,1500,1500,1500
1748734615.190521,0.02,-0.03,0.05,0.001090830782496456,-0.001090830782496456,-0.002181661564992912,0.006343881804785098,0.7277899762980852,1.6122820930313027,0.0,0.0,0.0,0.0,0.0,0.0,1500,1500,1500,1500,1500,1500
1748734615.3007972,0.02,-0.03,0.05,0.001090830782496456,-0.001090830782496456,-0.002181661564992912,0.006343881804785098,0.7277899762980852,1.6122820930313027,0.0,0.0,0.0,0.0,0.0,0.0,1500,1500,1500,1500,1500,1500
1748734615.4250672,0.01,-0.03,0.08,0.001090830782496456,0.002181661564992912,0.001090830782496456,0.006343881804785098,0.7277899762980852,1.6122820930313027,0.0,0.0,0.0,0.0,0.0,0.0,1500,1500,1500,1500,1500,1500
1748734615.5335946,0.01,0.0,0.04,-0.002181661564992912,0.0,0.0,0.006343881804785098,0.7277899762980852,1.6122820930313027,0.0,0.0,0.0,0.0,0.0,0.0,1500,1500,1500,1500,1500,1500
1748734615.644575,0.01,0.0,0.04,-0.002181661564992912,0.0,0.0,0.006343881804785098,0.7277899762980852,1.6122820930313027,0.0,0.0,0.0,0.0,0.0,0.0,1500,1500,1500,1500,1500,1500
1748734615.7477243,-0.01,-0.03,0.06,-0.002181661564992912,-0.002181661564992912,-0.001090830782496456,0.006343881804785098,0.7277899762980852,1.6122820930313027,0.0,0.0,0.0,0.0,0.0,0.0,1500,1500,1500,1500,1500,1500
1748734615.857934,0.01,-0.05,0.02,0.002181661564992912,-0.003272492347489368,-0.001090830782496456,0.006343881804785098,0.7277899762980852,1.6122820930313027,0.0,0.0,0.0,0.0,0.0,0.0,1500,1500,1500,1500,1500,1500
1748734615.967183,0.01,-0.05,0.02,0.002181661564992912,-0.003272492347489368,-0.001090830782496456,0.006343881804785098,0.7277899762980852,1.6122820930313027,0.0,0.0,0.0,0.0,0.0,0.0,1500,1500,1500,1500,1500,1500
1748734616.0810273,0.01,-0.05,0.04,0.0,-0.001090830782496456,-0.002181661564992912,0.006343881804785098,0.7277899762980852,1.6122820930313027,0.0,0.0,0.0,0.0,0.0,0.0,1500,1500,1500,1500,1500,1500
1748734616.1836984,0.01,0.0,0.01,-0.002181661564992912,-0.003272492347489368,-0.001090830782496456,0.006343881804785098,0.7277899762980852,1.6122820930313027,0.0,0.0,0.0,0.0,0.0,0.0,1500,1500,1500,1500,1500,1500
1748734616.2932532,0.01,0.0,0.01,-0.002181661564992912,-0.003272492347489368,-0.001090830782496456,0.006343881804785098,0.7277899762980852,1.6122820930313027,0.0,0.0,0.0,0.0,0.0,0.0,1500,1500,1500,1500,1500,1500
1748734616.4018662,0.0,0.0,0.01,-0.002181661564992912,0.003272492347489368,0.003272492347489368,0.006343881804785098,0.7277899762980852,1.6122820930313027,0.0,0.0,0.0,0.0,0.0,0.0,1500,1500,1500,1500,1500,1500
1748734616.5106232,0.01,-0.04,0.03,-0.001090830782496456,0.0,-0.001090830782496456,0.006343881804785098,0.7277899762980852,1.6122820930313027,0.0,0.0,0.0,0.0,0.0,0.0,1500,1500,1500,1500,1500,1500
1748734616.6191094,0.01,-0.04,0.03,-0.001090830782496456,0.0,-0.001090830782496456,0.006343881804785098,0.7277899762980852,1.6122820930313027,0.0,0.0,0.0,0.0,0.0,0.0,1500,1500,1500,1500,1500,1500
1748734616.7266245,0.03,-0.03,0.01,-0.001090830782496456,0.002181661564992912,-0.003272492347489368,0.006343881804785098,0.7277899762980852,1.6122820930313027,0.0,0.0,0.0,0.0,0.0,0.0,1500,1500,1500,1500,1500,1500
1748734616.8339164,0.0,-0.02,0.07,0.001090830782496456,-0.001090830782496456,0.0,0.006343881804785098,0.7277899762980852,1.6122820930313027,0.0,0.0,0.0,0.0,0.0,0.0,1500,1500,1500,1500,1500,1500
1748734616.9416652,0.0,0.01,0.04,0.002181661564992912,0.002181661564992912,0.0,0.006343881804785098,0.7277899762980852,1.6122820930313027,0.0,0.0,0.0,0.0,0.0,0.0,1500,1500,1500,1500,1500,1500
1748734617.0539749,0.0,0.01,0.04,0.002181661564992912,0.002181661564992912,0.0,0.006343881804785098,0.7277899762980852,1.6122820930313027,0.0,0.0,0.0,0.0,0.0,0.0,1500,1500,1500,1500,1500,1500
1748734617.1738617,0.01,-0.04,0.02,0.002181661564992912,-0.001090830782496456,0.002181661564992912,0.006343881804785098,0.7277899762980852,1.6122820930313027,0.0,0.0,0.0,0.0,0.0,0.0,1500,1500,1500,1500,1500,1500
1748734617.2809844,0.0,-0.05,0.06,0.003272492347489368,0.001090830782496456,0.0,0.006343881804785098,0.7277899762980852,1.6122820930313027,0.0,0.0,0.0,0.0,0.0,0.0,1500,1500,1500,1500,1500,1500
1748734617.3919375,0.0,-0.05,0.06,0.003272492347489368,0.001090830782496456,0.0,0.006343881804785098,0.7277899762980852,1.6122820930313027,0.0,0.0,0.0,0.0,0.0,0.0,1500,1500,1500,1500,1500,1500
1748734617.4839327,0.0,0.01,0.02,0.003272492347489368,0.003272492347489368,-0.001090830782496456,0.006343881804785098,0.7277899762980852,1.6122820930313027,0.0,0.0,0.0,0.0,0.0,0.0,1500,1500,1500,1500,1500,1500
1748734617.5791004,0.0,-0.01,0.01,-0.002181661564992912,-0.001090830782496456,0.0,0.006343881804785098,0.7277899762980852,1.6122820930313027,0.0,0.0,0.0,0.0,0.0,0.0,1500,1500,1500,1500,1500,1500
1748734617.6658452,0.0,-0.01,0.01,-0.002181661564992912,-0.001090830782496456,0.0,0.006343881804785098,0.7277899762980852,1.6122820930313027,0.0,0.0,0.0,0.0,0.0,0.0,1500,1500,1500,1500,1500,1500
1748734617.7798083,0.0,0.0,0.05,0.003272492347489368,-0.001090830782496456,0.004363323129985824,0.006343881804785098,0.7277899762980852,1.6122820930313027,0.0,0.0,0.0,0.0,0.0,0.0,1500,1500,1500,1500,1500,1500
1748734617.886795,0.0,0.0,0.05,0.003272492347489368,-0.001090830782496456,0.004363323129985824,0.006343881804785098,0.7277899762980852,1.6122820930313027,0.0,0.0,0.0,0.0,0.0,0.0,1500,1500,1500,1500,1500,1500
1748734617.9944358,-0.01,-0.04,0.06,-0.001090830782496456,-0.001090830782496456,0.001090830782496456,0.006343881804785098,0.7277899762980852,1.6122820930313027,0.0,0.0,0.0,0.0,0.0,0.0,1500,1500,1500,1500,1500,1500
1748734618.1028602,0.0,0.0,0.02,0.001090830782496456,0.001090830782496456,-0.001090830782496456,2.679723630740562,-1.5707963267948966,1.5885909824824493,0.0,0.0,0.0,0.0,0.0,0.0,1500,1500,1500,1500,1500,1500
1748734618.2153068,0.0,0.0,0.02,0.001090830782496456,0.001090830782496456,-0.001090830782496456,2.679723630740562,-1.5707963267948966,1.5885909824824493,0.0,0.0,0.0,0.0,0.0,0.0,1500,1500,1500,1500,1500,1500
1748734618.3183544,0.0,-0.02,0.05,0.0,0.003272492347489368,-0.001090830782496456,0.006343881804785098,0.7277899762980852,1.6122820930313027,0.0,0.0,0.0,0.0,0.0,0.0,1500,1500,1500,1500,1500,1500
1748734618.4278717,0.0,-0.04,0.06,0.002181661564992912,-0.001090830782496456,0.0,0.006343881804785098,0.7277899762980852,1.6122820930313027,0.0,0.0,0.0,0.0,0.0,0.0,1500,1500,1500,1500,1500,1500
1748734618.5296092,0.01,-0.02,0.02,0.0,0.001090830782496456,0.0,0.006343881804785098,0.7277899762980852,1.6122820930313027,0.0,0.0,0.0,0.0,0.0,0.0,1500,1500,1500,1500,1500,1500
1748734618.643153,0.01,-0.02,0.02,0.0,0.001090830782496456,0.0,0.006343881804785098,0.7277899762980852,1.6122820930313027,0.0,0.0,0.0,0.0,0.0,0.0,1500,1500,1500,1500,1500,1500
1748734618.751947,0.0,-0.01,0.03,0.00545415391248228,-0.004363323129985824,-0.001090830782496456,0.006343881804785098,0.7277899762980852,1.6122820930313027,0.0,0.0,0.0,0.0,0.0,0.0,1500,1500,1500,1500,1500,1500
1748734618.845601,0.0,0.0,0.05,0.002181661564992912,0.002181661564992912,-0.001090830782496456,0.006343881804785098,0.7277899762980852,1.6122820930313027,0.0,0.0,0.0,0.0,0.0,0.0,1500,1500,1500,1500,1500,1500
1748734618.953265,0.0,0.0,0.05,0.002181661564992912,0.002181661564992912,-0.001090830782496456,0.006343881804785098,0.7277899762980852,1.6122820930313027,0.0,0.0,0.0,0.0,0.0,0.0,1500,1500,1500,1500,1500,1500
