time,ax,ay,az,gx,gy,gz,roll,pitch,yaw,cmd_fx,cmd_fy,cmd_fz,cmd_tx,cmd_ty,cmd_tz,pwm_1,pwm_2,pwm_3,pwm_4,pwm_5,pwm_6
1747533838.6065018,0.0,0.0,0.0,0.0,0.0,0.0,0.0,0.0,0.0,0,0,0,0,0,0,1500,1500,1500,1500,1500,1500
1747533838.7106154,0.06,0.01,-0.33,-0.001090830782496456,0.002181661564992912,0.0,-0.0149683257512432,0.11602877924975304,-0.0008693678324647853,0,0,0,0,0,0,1500,1500,1500,1500,1500,1500
1747533838.7943168,0.06,0.01,-0.33,-0.001090830782496456,0.002181661564992912,0.0,-0.0149683257512432,0.11602877924975304,-0.0008693678324647853,0,0,0,0,0,0,1500,1500,1500,1500,1500,1500
1747533838.8938806,0.04,0.01,-0.33,-0.001090830782496456,0.002181661564992912,0.001090830782496456,-0.0149683257512432,0.11602877924975304,-0.0008693678324647853,0,-7.709534,0,0,0,0,1540,1540,1540,1500,1500,1500
1747533838.989173,0.04,0.0,-0.28,-0.001090830782496456,0.0,-0.001090830782496456,-0.014845625598250811,0.11602877924975304,-0.0008622418701714229,0,-12.5,0,0,0,0,1580,1580,1580,1500,1500,1500
1747533839.0775642,0.04,0.0,-0.28,-0.001090830782496456,0.0,-0.001090830782496456,-0.014845625598250811,0.11602877924975304,-0.0008622418701714229,0,-1.65878,0,0,0,0,1603,1600,1585,1500,1500,1500
1747533839.1777174,0.0,0.11,-0.2,0.002181661564992912,-0.004363323129985824,-0.001090830782496456,-0.014845625598250811,0.11602877924975304,-0.0008622418701714229,0,0,0,0,0,0,1563,1560,1545,1500,1500,1500
1747533839.2777884,0.0,0.11,-0.2,0.002181661564992912,-0.004363323129985824,-0.001090830782496456,-0.014845625598250811,0.11602877924975304,-0.0008622418701714229,0,0,0,0,0,0,1523,1520,1505,1500,1500,1500
1747533839.3782966,-0.27,-0.03,-0.3,0.0,-0.003272492347489368,0.001090830782496456,-0.014722088190889975,0.11553804680271389,-0.0008514669835057868,0,0,0,0,0,0,1500,1500,1500,1500,1500,1500
1747533839.47751,0.29,-0.05,-0.27,-0.006544984694978736,-0.003272492347489368,0.0,-0.014476087644603826,0.11517001581408885,-0.0008345851913954695,0,0,0,0,0,0,1500,1500,1500,1500,1500,1500
1747533839.561099,0.29,-0.05,-0.27,-0.006544984694978736,-0.003272492347489368,0.0,-0.014476087644603826,0.11517001581408885,-0.0008345851913954695,0,0,0,0,0,0,1500,1500,1500,1500,1500,1500
1747533839.6610456,0.05,-0.15,-0.36,-0.006544984694978736,-0.00545415391248228,0.002181661564992912,-0.014476087644603826,0.11517001581408885,-0.0008345851913954695,0,0,0,0,0,0,1500,1500,1500,1500,1500,1500
1747533839.7611234,0.05,-0.15,-0.36,-0.006544984694978736,-0.00545415391248228,0.002181661564992912,-0.014476087644603826,0.11517001581408885,-0.0008345851913954695,0,0,0,0,0,0,1500,1500,1500,1500,1500,1500
1747533839.8439364,0.04,0.01,-0.33,-0.002181661564992912,0.0,0.001090830782496456,-0.014476087644603826,0.11517001581408885,-0.0008345851913954695,0,0,0,0,0,0,1500,1500,1500,1500,1500,1500
1747533839.9439251,0.04,0.01,-0.26,0.003272492347489368,-0.003272492347489368,-0.001090830782496456,-0.014476087644603826,0.11517001581408885,-0.0008345851913954695,0,0,0,0,0,0,1500,1500,1500,1500,1500,1500
1747533840.0438316,0.04,0.01,-0.26,0.003272492347489368,-0.003272492347489368,-0.001090830782496456,-0.014476087644603826,0.11517001581408885,-0.0008345851913954695,0,0,0,0,0,0,1500,1500,1500,1500,1500,1500
1747533840.14347,0.03,0.0,-0.34,-0.002181661564992912,-0.001090830782496456,0.001090830782496456,-0.014476087644603826,0.11517001581408885,-0.0008345851913954695,0,0,0,0,0,0,1500,1500,1500,1500,1500,1500
1747533840.2435367,0.03,0.0,-0.34,-0.002181661564992912,-0.001090830782496456,0.001090830782496456,-0.014476087644603826,0.11517001581408885,-0.0008345851913954695,0,0,0,0,0,0,1500,1500,1500,1500,1500,1500
1747533840.3272817,0.03,0.0,-0.29,0.001090830782496456,0.001090830782496456,0.0,-0.014476087644603826,0.11517001581408885,-0.0008345851913954695,0,0,0,0,0,0,1500,1500,1500,1500,1500,1500
1747533840.4272134,0.02,0.03,-0.32,-0.002181661564992912,-0.001090830782496456,-0.001090830782496456,-0.014353400558667805,0.11517001581408885,-0.0008275124387788234,0,0,0,0,0,0,1500,1500,1500,1500,1500,1500
1747533840.5272846,0.02,0.03,-0.32,-0.002181661564992912,-0.001090830782496456,-0.001090830782496456,-0.014353400558667805,0.11517001581408885,-0.0008275124387788234,0,0,0,0,0,0,1500,1500,1500,1500,1500,1500
1747533840.6276317,0.05,0.01,-0.36,0.001090830782496456,0.003272492347489368,-0.001090830782496456,-0.014353400558667805,0.11517001581408885,-0.0008275124387788234,0,0,0,0,0,0,1500,1500,1500,1500,1500,1500
1747533840.728142,0.05,0.01,-0.36,0.001090830782496456,0.003272492347489368,-0.001090830782496456,-0.014353400558667805,0.11517001581408885,-0.0008275124387788234,0,0,0,0,0,0,1500,1500,1500,1500,1500,1500
1747533840.8114223,0.02,0.0,-0.27,0.0,0.001090830782496456,0.001090830782496456,-0.014353400558667805,0.11517001581408885,-0.0008275124387788234,0,0,0,0,0,0,1500,1500,1500,1500,1500,1500
1747533840.912376,0.04,0.0,-0.3,-0.002181661564992912,0.0,-0.002181661564992912,-0.014353400558667805,0.11517001581408885,-0.0008275124387788234,0,0,0,0,0,0,1500,1500,1500,1500,1500,1500
1747533841.0116432,0.04,0.0,-0.3,-0.002181661564992912,0.0,-0.002181661564992912,-0.014353400558667805,0.11517001581408885,-0.0008275124387788234,0,0,0,0,0,0,1500,1500,1500,1500,1500,1500
1747533841.1111004,0.01,0.01,-0.27,-0.001090830782496456,-0.001090830782496456,-0.001090830782496456,-0.014353400558667805,0.11517001581408885,-0.0008275124387788234,0,0,0,0,0,0,1500,1500,1500,1500,1500,1500
1747533841.208323,0.04,0.02,-0.32,0.0,0.0,0.002181661564992912,-0.014353400558667805,0.11517001581408885,-0.0008275124387788234,0,0,0,0,0,0,1500,1500,1500,1500,1500,1500
1747533841.2945378,0.04,0.02,-0.32,0.0,0.0,0.002181661564992912,-0.014353400558667805,0.11517001581408885,-0.0008275124387788234,0,0,0,0,0,0,1500,1500,1500,1500,1500,1500
1747533841.39388,0.03,0.0,-0.32,-0.001090830782496456,0.003272492347489368,0.0,-0.014353400558667805,0.11517001581408885,-0.0008275124387788234,0,0,0,0,0,0,1500,1500,1500,1500,1500,1500
1747533841.4938774,0.03,0.0,-0.32,-0.001090830782496456,0.003272492347489368,0.0,-0.014353400558667805,0.11517001581408885,-0.0008275124387788234,0,0,0,0,0,0,1500,1500,1500,1500,1500,1500
1747533841.5768106,0.03,0.01,-0.29,0.0,0.0,0.0,-0.014353400558667805,0.11517001581408885,-0.0008275124387788234,0,0,0,0,0,0,1500,1500,1500,1500,1500,1500
1747533841.6772768,0.03,0.01,-0.29,0.0,0.0,0.0,-0.014353400558667805,0.11517001581408885,-0.0008275124387788234,0,0,0,0,0,0,1500,1500,1500,1500,1500,1500
1747533841.7783122,0.04,0.02,-0.3,-0.001090830782496456,0.0,0.0,-0.014353400558667805,0.11517001581408885,-0.0008275124387788234,0,0,0,0,0,0,1500,1500,1500,1500,1500,1500
1747533841.8779094,0.05,0.0,-0.37,-0.00545415391248228,-0.001090830782496456,0.0,-0.014353400558667805,0.11517001581408885,-0.0008275124387788234,0,0,0,0,0,0,1500,1500,1500,1500,1500,1500
1747533841.9776986,0.05,0.0,-0.37,-0.00545415391248228,-0.001090830782496456,0.0,-0.014353400558667805,0.11517001581408885,-0.0008275124387788234,0,0,0,0,0,0,1500,1500,1500,1500,1500,1500
1747533842.0614588,0.03,0.02,-0.31,-0.004363323129985824,-0.004363323129985824,0.0,-0.014353400558667805,0.11517001581408885,-0.0008275124387788234,0,0,0,0,0,0,1500,1500,1500,1500,1500,1500
1747533842.161031,0.03,0.02,-0.31,-0.004363323129985824,-0.004363323129985824,0.0,-0.014353400558667805,0.11517001581408885,-0.0008275124387788234,0,0,0,0,0,0,1500,1500,1500,1500,1500,1500
1747533842.261458,0.05,0.01,-0.36,0.0,-0.002181661564992912,-0.002181661564992912,-0.014353400558667805,0.11517001581408885,-0.0008275124387788234,0,0,0,0,0,0,1500,1500,1500,1500,1500,1500
1747533842.3611681,0.02,0.01,-0.33,0.001090830782496456,-0.002181661564992912,0.0,-0.014353400558667805,0.11517001581408885,-0.0008275124387788234,0,0,0,0,0,0,1500,1500,1500,1500,1500,1500
1747533842.4615073,0.02,0.01,-0.33,0.001090830782496456,-0.002181661564992912,0.0,-0.014353400558667805,0.11517001581408885,-0.0008275124387788234,0,0,0,0,0,0,1500,1500,1500,1500,1500,1500
1747533842.5443938,0.03,0.0,-0.3,-0.003272492347489368,0.002181661564992912,0.001090830782496456,-0.014353400558667805,0.11517001581408885,-0.0008275124387788234,0,0,0,0,0,0,1500,1500,1500,1500,1500,1500
1747533842.6381025,0.02,0.03,-0.33,0.001090830782496456,0.0,0.001090830782496456,-0.014353400558667805,0.11517001581408885,-0.0008275124387788234,0,0,0,0,0,0,1500,1500,1500,1500,1500,1500
1747533842.7439091,0.02,0.03,-0.33,0.001090830782496456,0.0,0.001090830782496456,-0.014353400558667805,0.11517001581408885,-0.0008275124387788234,0,0,0,0,0,0,1500,1500,1500,1500,1500,1500
1747533842.8271227,0.05,0.0,-0.36,-0.001090830782496456,0.002181661564992912,0.0,-0.014353400558667805,0.11517001581408885,-0.0008275124387788234,0,0,0,0,0,0,1500,1500,1500,1500,1500,1500
1747533842.9281127,0.05,0.0,-0.36,-0.001090830782496456,0.002181661564992912,0.0,-0.014353400558667805,0.11517001581408885,-0.0008275124387788234,0,0,0,0,0,0,1500,1500,1500,1500,1500,1500
1747533843.027612,0.04,0.0,-0.33,-0.001090830782496456,-0.004363323129985824,-0.001090830782496456,-0.014353400558667805,0.11517001581408885,-0.0008275124387788234,0,0,0,0,0,0,1500,1500,1500,1500,1500,1500
1747533843.1248605,0.03,0.0,-0.35000000000000003,0.0,0.002181661564992912,-0.001090830782496456,-0.014353400558667805,0.11517001581408885,-0.0008275124387788234,0,0,0,0,0,0,1500,1500,1500,1500,1500,1500
1747533843.2273788,0.03,0.0,-0.35000000000000003,0.0,0.002181661564992912,-0.001090830782496456,-0.014353400558667805,0.11517001581408885,-0.0008275124387788234,0,0,0,0,0,0,1500,1500,1500,1500,1500,1500
1747533843.311371,0.03,0.0,-0.3,0.001090830782496456,-0.002181661564992912,0.001090830782496456,-0.014353400558667805,0.11517001581408885,-0.0008275124387788234,0,0,0,0,0,0,1500,1500,1500,1500,1500,1500
1747533843.4110324,0.03,0.0,-0.3,0.001090830782496456,-0.002181661564992912,0.001090830782496456,-0.014353400558667805,0.11517001581408885,-0.0008275124387788234,0,0,0,0,0,0,1500,1500,1500,1500,1500,1500
1747533843.511137,0.05,0.01,-0.36,0.0,-0.001090830782496456,-0.003272492347489368,-0.014353400558667805,0.11517001581408885,-0.0008275124387788234,0,0,0,0,0,0,1500,1500,1500,1500,1500,1500
1747533843.5934181,0.03,-0.01,-0.35000000000000003,-0.001090830782496456,-0.003272492347489368,0.001090830782496456,-0.014353400558667805,0.11517001581408885,-0.0008275124387788234,0,0,0,0,0,0,1500,1500,1500,1500,1500,1500
1747533843.694551,0.03,-0.01,-0.35000000000000003,-0.001090830782496456,-0.003272492347489368,0.001090830782496456,-0.014353400558667805,0.11517001581408885,-0.0008275124387788234,0,0,0,0,0,0,1500,1500,1500,1500,1500,1500
1747533843.7933643,0.03,0.02,-0.27,0.004363323129985824,-0.002181661564992912,0.0,-0.014353400558667805,0.11517001581408885,-0.0008275124387788234,0,0,0,0,0,0,1500,1500,1500,1500,1500,1500
1747533843.8944774,0.03,0.02,-0.27,0.004363323129985824,-0.002181661564992912,0.0,-0.014353400558667805,0.11517001581408885,-0.0008275124387788234,0,0,0,0,0,0,1500,1500,1500,1500,1500,1500
1747533843.994571,0.03,-0.01,-0.35000000000000003,-0.002181661564992912,0.0,-0.001090830782496456,-0.014353400558667805,0.11517001581408885,-0.0008275124387788234,0,0,0,0,0,0,1500,1500,1500,1500,1500,1500
1747533844.0774968,0.02,-0.02,-0.31,0.004363323129985824,0.002181661564992912,0.001090830782496456,-0.014353400558667805,0.11517001581408885,-0.0008275124387788234,0,0,0,0,0,0,1500,1500,1500,1500,1500,1500
1747533844.1768997,0.02,-0.02,-0.31,0.004363323129985824,0.002181661564992912,0.001090830782496456,-0.014353400558667805,0.11517001581408885,-0.0008275124387788234,0,0,0,0,0,0,1500,1500,1500,1500,1500,1500
1747533844.2768767,0.05,0.02,-0.27,0.002181661564992912,0.003272492347489368,0.0,-0.014353400558667805,0.11517001581408885,-0.0008275124387788234,0,0,0,0,0,0,1500,1500,1500,1500,1500,1500
1747533844.361001,0.05,0.02,-0.27,0.002181661564992912,0.003272492347489368,0.0,-0.014353400558667805,0.11517001581408885,-0.0008275124387788234,0,0,0,0,0,0,1500,1500,1500,1500,1500,1500
1747533844.4610596,0.03,0.01,-0.39,0.0,0.0,0.003272492347489368,-0.014353400558667805,0.11517001581408885,-0.0008275124387788234,0,0,0,0,0,0,1500,1500,1500,1500,1500,1500
1747533844.5442266,0.04,0.01,-0.29,-0.001090830782496456,-0.00545415391248228,0.0,-0.014353400558667805,0.11517001581408885,-0.0008275124387788234,0,0,0,0,0,0,1500,1500,1500,1500,1500,1500
1747533844.6443887,0.04,0.01,-0.29,-0.001090830782496456,-0.00545415391248228,0.0,-0.014353400558667805,0.11517001581408885,-0.0008275124387788234,0,0,0,0,0,0,1500,1500,1500,1500,1500,1500
1747533844.7446494,0.01,0.01,-0.3,-0.002181661564992912,-0.001090830782496456,-0.001090830782496456,-0.014353400558667805,0.11517001581408885,-0.0008275124387788234,0,0,0,0,0,0,1500,1500,1500,1500,1500,1500
1747533844.8297875,0.01,0.01,-0.3,-0.002181661564992912,-0.001090830782496456,-0.001090830782496456,-0.014353400558667805,0.11517001581408885,-0.0008275124387788234,0,0,0,0,0,0,1500,1500,1500,1500,1500,1500
1747533844.9275088,0.03,0.0,-0.28,-0.001090830782496456,-0.004363323129985824,0.0,-0.014353400558667805,0.11517001581408885,-0.0008275124387788234,0,0,0,0,0,0,1500,1500,1500,1500,1500,1500
1747533845.0190616,0.03,0.0,-0.28,0.0,-0.002181661564992912,-0.001090830782496456,-0.014353400558667805,0.11517001581408885,-0.0008275124387788234,0,0,0,0,0,0,1500,1500,1500,1500,1500,1500
1747533845.1112247,0.03,0.0,-0.28,0.0,-0.002181661564992912,-0.001090830782496456,-0.014353400558667805,0.11517001581408885,-0.0008275124387788234,0,0,0,0,0,0,1500,1500,1500,1500,1500,1500
1747533845.2110388,0.04,0.01,-0.38,0.002181661564992912,0.001090830782496456,0.001090830782496456,-0.014353400558667805,0.11517001581408885,-0.0008275124387788234,0,0,0,0,0,0,1500,1500,1500,1500,1500,1500
1747533845.3052979,0.04,0.01,-0.38,0.002181661564992912,0.001090830782496456,0.001090830782496456,-0.014353400558667805,0.11517001581408885,-0.0008275124387788234,0,0,0,0,0,0,1500,1500,1500,1500,1500,1500
1747533845.3939848,0.05,0.0,-0.29,0.003272492347489368,0.001090830782496456,0.0,-0.014353400558667805,0.11517001581408885,-0.0008275124387788234,0,0,0,0,0,0,1500,1500,1500,1500,1500,1500
1747533845.493602,0.05,0.0,-0.29,0.003272492347489368,0.001090830782496456,0.0,-0.014353400558667805,0.11517001581408885,-0.0008275124387788234,0,0,0,0,0,0,1500,1500,1500,1500,1500,1500
1747533845.577565,0.04,0.01,-0.33,-0.002181661564992912,0.001090830782496456,0.001090830782496456,-0.014353400558667805,0.11517001581408885,-0.0008275124387788234,0,0,0,0,0,0,1500,1500,1500,1500,1500,1500
1747533845.6778,0.03,0.03,-0.34,-0.003272492347489368,-0.002181661564992912,-0.001090830782496456,-0.014353400558667805,0.11517001581408885,-0.0008275124387788234,0,0,0,0,0,0,1500,1500,1500,1500,1500,1500
1747533845.7778866,0.03,0.03,-0.34,-0.003272492347489368,-0.002181661564992912,-0.001090830782496456,-0.014353400558667805,0.11517001581408885,-0.0008275124387788234,0,0,0,0,0,0,1500,1500,1500,1500,1500,1500
1747533845.8769333,0.03,0.01,-0.26,-0.001090830782496456,-0.001090830782496456,0.001090830782496456,-0.014353400558667805,0.11517001581408885,-0.0008275124387788234,0,0,0,0,0,0,1500,1500,1500,1500,1500,1500
1747533845.9679213,0.03,0.01,-0.34,0.002181661564992912,-0.003272492347489368,0.0,-0.014353400558667805,0.11517001581408885,-0.0008275124387788234,0,0,0,0,0,0,1500,1500,1500,1500,1500,1500
1747533846.059343,0.03,0.01,-0.34,0.002181661564992912,-0.003272492347489368,0.0,-0.014353400558667805,0.11517001581408885,-0.0008275124387788234,0,0,0,0,0,0,1500,1500,1500,1500,1500,1500
1747533846.1605558,0.05,0.0,-0.34,0.003272492347489368,0.0,-0.001090830782496456,-0.014353400558667805,0.11517001581408885,-0.0008275124387788234,0,0,0,0,0,0,1500,1500,1500,1500,1500,1500
1747533846.2597966,0.05,0.0,-0.34,0.003272492347489368,0.0,-0.001090830782496456,-0.014353400558667805,0.11517001581408885,-0.0008275124387788234,0,0,0,0,0,0,1500,1500,1500,1500,1500,1500
1747533846.3438542,0.03,0.0,-0.34,0.0,0.002181661564992912,0.0,-0.014353400558667805,0.11517001581408885,-0.0008275124387788234,0,0,0,0,0,0,1500,1500,1500,1500,1500,1500
1747533846.443381,0.03,0.0,-0.34,0.0,0.002181661564992912,0.0,-0.014353400558667805,0.11517001581408885,-0.0008275124387788234,0,0,0,0,0,0,1500,1500,1500,1500,1500,1500
1747533846.5439107,0.02,0.01,-0.32,-0.002181661564992912,-0.001090830782496456,-0.002181661564992912,-0.014353400558667805,0.11517001581408885,-0.0008275124387788234,0,0,0,0,0,0,1500,1500,1500,1500,1500,1500
1747533846.643918,0.03,0.0,-0.35000000000000003,0.001090830782496456,-0.004363323129985824,-0.001090830782496456,-0.014353400558667805,0.11517001581408885,-0.0008275124387788234,0,0,0,0,0,0,1500,1500,1500,1500,1500,1500
1747533846.7443998,0.03,0.0,-0.35000000000000003,0.001090830782496456,-0.004363323129985824,-0.001090830782496456,-0.014353400558667805,0.11517001581408885,-0.0008275124387788234,0,0,0,0,0,0,1500,1500,1500,1500,1500,1500
1747533846.826247,0.05,0.02,-0.33,-0.001090830782496456,-0.001090830782496456,0.0,-0.014353400558667805,0.11517001581408885,-0.0008275124387788234,0,0,0,0,0,0,1500,1500,1500,1500,1500,1500
1747533846.9231057,0.03,0.01,-0.36,0.001090830782496456,0.001090830782496456,0.001090830782496456,-0.014353400558667805,0.11517001581408885,-0.0008275124387788234,0,0,0,0,0,0,1500,1500,1500,1500,1500,1500
1747533847.0272794,0.03,0.01,-0.36,0.001090830782496456,0.001090830782496456,0.001090830782496456,-0.014353400558667805,0.11517001581408885,-0.0008275124387788234,0,0,0,0,0,0,1500,1500,1500,1500,1500,1500
1747533847.1274421,0.03,0.01,-0.28,0.0,0.0,0.0,-0.014353400558667805,0.11517001581408885,-0.0008275124387788234,0,0,0,0,0,0,1500,1500,1500,1500,1500,1500
1747533847.2275672,0.03,0.01,-0.28,0.0,0.0,0.0,-0.014353400558667805,0.11517001581408885,-0.0008275124387788234,0,0,0,0,0,0,1500,1500,1500,1500,1500,1500
1747533847.3109174,0.05,0.0,-0.35000000000000003,-0.001090830782496456,0.001090830782496456,0.0,-0.014353400558667805,0.11517001581408885,-0.0008275124387788234,0,0,0,0,0,0,1500,1500,1500,1500,1500,1500
1747533847.4052107,0.03,0.01,-0.35000000000000003,0.0,0.003272492347489368,0.001090830782496456,-0.014353400558667805,0.11517001581408885,-0.0008275124387788234,0,0,0,0,0,0,1500,1500,1500,1500,1500,1500
1747533847.5108855,0.03,0.01,-0.35000000000000003,0.0,0.003272492347489368,0.001090830782496456,-0.014353400558667805,0.11517001581408885,-0.0008275124387788234,0,0,0,0,0,0,1500,1500,1500,1500,1500,1500
1747533847.5938778,0.05,0.0,-0.3,0.001090830782496456,0.0,0.001090830782496456,-0.014353400558667805,0.11517001581408885,-0.0008275124387788234,0,-0.146734,0,0,0,0,1540,1540,1540,1500,1500,1500
1747533847.6941178,0.05,0.0,-0.3,0.001090830782496456,0.0,0.001090830782496456,-0.014353400558667805,0.11517001581408885,-0.0008275124387788234,0,-0.537779,0,0,0,0,1557,1556,1551,1500,1500,1500
1747533847.7938743,0.04,0.0,-0.31,0.002181661564992912,0.003272492347489368,0.0,-0.014353400558667805,0.11517001581408885,-0.0008275124387788234,0,-0.537779,0,0,0,0,1557,1556,1551,1500,1500,1500
1747533847.8944285,-0.08,-0.01,-0.28,-0.009817477042468103,0.0,0.002181661564992912,-0.014353400558667805,0.11517001581408885,-0.0008275124387788234,0,-0.537779,0,0,0,0,1557,1556,1551,1500,1500,1500
1747533847.9939823,-0.08,-0.01,-0.28,-0.009817477042468103,0.0,0.002181661564992912,-0.014353400558667805,0.11517001581408885,-0.0008275124387788234,0,-0.537779,0,0,0,0,1557,1556,1551,1500,1500,1500
1747533848.0770907,0.14,0.03,-0.33,-0.001090830782496456,0.002181661564992912,0.0,-0.014353400558667805,0.11517001581408885,-0.0008275124387788234,0,-1.3e-05,0,0,0,0,1536,1536,1536,1500,1500,1500
1747533848.177021,0.14,0.03,-0.33,-0.001090830782496456,0.002181661564992912,0.0,-0.014353400558667805,0.11517001581408885,-0.0008275124387788234,0,0,0,0,0,0,1500,1500,1500,1500,1500,1500
1747533848.2769074,0.08,0.0,-0.41000000000000003,-0.002181661564992912,0.00545415391248228,-0.002181661564992912,-0.014353400558667805,0.11517001581408885,-0.0008275124387788234,0,0,0,0,0,0,1500,1500,1500,1500,1500,1500
1747533848.3609679,0.01,0.06,-0.3,-0.008726646259971648,-0.006544984694978736,0.002181661564992912,-0.014353400558667805,0.11517001581408885,-0.0008275124387788234,0,0,0,0,0,0,1500,1500,1500,1500,1500,1500
1747533848.4606266,0.01,0.06,-0.3,-0.008726646259971648,-0.006544984694978736,0.002181661564992912,-0.014353400558667805,0.11517001581408885,-0.0008275124387788234,0,0,0,0,0,0,1500,1500,1500,1500,1500,1500
1747533848.5606935,0.06,-0.01,-0.32,-0.003272492347489368,0.0,0.001090830782496456,-0.014353400558667805,0.11517001581408885,-0.0008275124387788234,0,0,0,0,0,0,1500,1500,1500,1500,1500,1500
1747533848.6615133,0.06,-0.01,-0.32,-0.003272492347489368,0.0,0.001090830782496456,-0.014353400558667805,0.11517001581408885,-0.0008275124387788234,0,0,0,0,0,0,1500,1500,1500,1500,1500,1500
1747533848.760671,0.04,-0.01,-0.34,0.001090830782496456,0.001090830782496456,0.0,-0.014353400558667805,0.11517001581408885,-0.0008275124387788234,0,0,0,0,0,0,1500,1500,1500,1500,1500,1500
1747533848.8444223,0.04,0.01,-0.29,0.0,0.003272492347489368,0.001090830782496456,-0.014353400558667805,0.11517001581408885,-0.0008275124387788234,0,0,0,0,0,0,1500,1500,1500,1500,1500,1500
1747533848.9436007,0.04,0.01,-0.29,0.0,0.003272492347489368,0.001090830782496456,-0.014353400558667805,0.11517001581408885,-0.0008275124387788234,0,0,0,0,0,0,1500,1500,1500,1500,1500,1500
1747533849.043658,0.05,0.0,-0.34,0.002181661564992912,0.001090830782496456,0.001090830782496456,-0.014353400558667805,0.11517001581408885,-0.0008275124387788234,0,0,0,0,0,0,1500,1500,1500,1500,1500,1500
1747533849.144223,0.05,0.0,-0.34,0.002181661564992912,0.001090830782496456,0.001090830782496456,-0.014353400558667805,0.11517001581408885,-0.0008275124387788234,0,0,0,0,0,0,1500,1500,1500,1500,1500,1500
1747533849.2436,0.03,0.01,-0.36,-0.002181661564992912,0.00545415391248228,-0.001090830782496456,-0.014353400558667805,0.11517001581408885,-0.0008275124387788234,0,0,0,0,0,0,1500,1500,1500,1500,1500,1500
1747533849.3274996,0.05,0.02,-0.28,0.0,0.004363323129985824,-0.001090830782496456,-0.014353400558667805,0.11517001581408885,-0.0008275124387788234,0,0,0,0,0,0,1500,1500,1500,1500,1500,1500
1747533849.4269197,0.05,0.02,-0.28,0.0,0.004363323129985824,-0.001090830782496456,-0.014353400558667805,0.11517001581408885,-0.0008275124387788234,0,0,0,0,0,0,1500,1500,1500,1500,1500,1500
1747533849.5273135,0.04,0.0,-0.34,-0.002181661564992912,-0.004363323129985824,0.001090830782496456,-0.014353400558667805,0.11517001581408885,-0.0008275124387788234,0,0,0,0,0,0,1500,1500,1500,1500,1500,1500
1747533849.627289,0.04,0.0,-0.34,-0.002181661564992912,-0.004363323129985824,0.001090830782496456,-0.014353400558667805,0.11517001581408885,-0.0008275124387788234,0,0,0,0,0,0,1500,1500,1500,1500,1500,1500
1747533849.7271068,0.02,-0.01,-0.29,-0.001090830782496456,0.0,-0.001090830782496456,-0.014353400558667805,0.11517001581408885,-0.0008275124387788234,0,0,0,0,0,0,1500,1500,1500,1500,1500,1500
1747533849.8108096,0.02,0.01,-0.32,-0.003272492347489368,-0.001090830782496456,0.002181661564992912,-0.014353400558667805,0.11517001581408885,-0.0008275124387788234,0,0,0,0,0,0,1500,1500,1500,1500,1500,1500
1747533849.9104564,0.02,0.01,-0.32,-0.003272492347489368,-0.001090830782496456,0.002181661564992912,-0.014353400558667805,0.11517001581408885,-0.0008275124387788234,0,-0.105417,0,0,0,0,1540,1540,1539,1500,1500,1500
1747533850.010609,0.03,0.04,-0.38,0.003272492347489368,0.00545415391248228,0.002181661564992912,-0.014353400558667805,0.11517001581408885,-0.0008275124387788234,0,-0.125224,0,0,0,0,1541,1540,1539,1500,1500,1500
1747533850.0941164,0.03,0.04,-0.38,0.003272492347489368,0.00545415391248228,0.002181661564992912,-0.014353400558667805,0.11517001581408885,-0.0008275124387788234,0,-0.146734,0,0,0,0,1541,1541,1540,1500,1500,1500
1747533850.1936395,0.04,0.01,-0.31,-0.003272492347489368,0.003272492347489368,0.0,-0.014353400558667805,0.11517001581408885,-0.0008275124387788234,0,-0.345023,0,0,0,0,1549,1549,1546,1500,1500,1500
1747533850.293706,-0.07,0.32,-0.51,0.004363323129985824,0.003272492347489368,0.003272492347489368,-0.014353400558667805,0.11517001581408885,-0.0008275124387788234,0,0,0,0,0,0,1509,1509,1506,1500,1500,1500
1747533850.3937187,-0.07,0.32,-0.51,0.004363323129985824,0.003272492347489368,0.003272492347489368,-0.014353400558667805,0.11517001581408885,-0.0008275124387788234,0,0,0,0,0,0,1500,1500,1500,1500,1500,1500
1747533850.4937088,-0.02,0.06,-0.37,0.0,0.002181661564992912,-0.001090830782496456,-0.014353400558667805,0.11517001581408885,-0.0008275124387788234,0,0,0,0,0,0,1500,1500,1500,1500,1500,1500
1747533850.5766792,0.03,0.03,-0.29,0.002181661564992912,0.004363323129985824,0.0,-0.014353400558667805,0.11517001581408885,-0.0008275124387788234,0,0,0,0,0,0,1500,1500,1500,1500,1500,1500
1747533850.6769922,0.03,0.03,-0.29,0.002181661564992912,0.004363323129985824,0.0,-0.014353400558667805,0.11517001581408885,-0.0008275124387788234,0,0,0,0,0,0,1500,1500,1500,1500,1500,1500
1747533850.7773726,0.01,-0.06,-0.32,0.001090830782496456,0.00545415391248228,-0.001090830782496456,-0.014353400558667805,0.11517001581408885,-0.0008275124387788234,0,0,0,0,0,0,1500,1500,1500,1500,1500,1500
1747533850.8774114,0.01,-0.06,-0.32,0.001090830782496456,0.00545415391248228,-0.001090830782496456,-0.014353400558667805,0.11517001581408885,-0.0008275124387788234,0,0,0,0,0,0,1500,1500,1500,1500,1500,1500
1747533850.9771957,0.05,-0.03,-0.31,-0.003272492347489368,-0.001090830782496456,-0.003272492347489368,-0.014353400558667805,0.11517001581408885,-0.0008275124387788234,0,0,0,0,0,0,1500,1500,1500,1500,1500,1500
1747533851.0604982,0.02,-0.02,-0.3,0.001090830782496456,0.004363323129985824,0.0,-0.014353400558667805,0.11517001581408885,-0.0008275124387788234,0,0,0,0,0,0,1500,1500,1500,1500,1500,1500
1747533851.1608622,0.02,-0.02,-0.3,0.001090830782496456,0.004363323129985824,0.0,-0.014353400558667805,0.11517001581408885,-0.0008275124387788234,0,0,0,0,0,0,1500,1500,1500,1500,1500,1500
1747533851.2607636,0.05,0.0,-0.35000000000000003,0.003272492347489368,0.004363323129985824,0.0,0.014402537234525972,-0.11556609904658384,-0.0008275124387788234,0,0,0,0,0,0,1500,1500,1500,1500,1500,1500
1747533851.343924,0.05,0.0,-0.35000000000000003,0.003272492347489368,0.004363323129985824,0.0,0.014402537234525972,-0.11556609904658384,-0.0008275124387788234,0,0,0,0,0,0,1500,1500,1500,1500,1500,1500
1747533851.4432251,0.03,-0.01,-0.28,-0.003272492347489368,0.003272492347489368,0.001090830782496456,-0.014353400558667805,0.11517001581408885,-0.0008275124387788234,0,-0.003841,0,0,0,0,1536,1536,1536,1500,1500,1500
1747533851.5432355,0.06,0.0,-0.35000000000000003,-0.001090830782496456,-0.001090830782496456,0.004363323129985824,-0.014353400558667805,0.11517001581408885,-0.0008275124387788234,0,-0.146734,0,0,0,0,1541,1541,1540,1500,1500,1500
1747533851.643663,0.06,0.0,-0.35000000000000003,-0.001090830782496456,-0.001090830782496456,0.004363323129985824,-0.014353400558667805,0.11517001581408885,-0.0008275124387788234,0,-0.169949,0,0,0,0,1542,1542,1541,1500,1500,1500
1747533851.7434216,0.03,0.14,-0.31,0.003272492347489368,0.004363323129985824,0.0,-0.014353400558667805,0.11517001581408885,-0.0008275124387788234,0,-0.221491,0,0,0,0,1544,1544,1542,1500,1500,1500
1747533851.8275464,0.03,0.14,-0.31,0.003272492347489368,0.004363323129985824,0.0,-0.014353400558667805,0.11517001581408885,-0.0008275124387788234,0,-0.249818,0,0,0,0,1546,1545,1543,1500,1500,1500
1747533851.9276834,-0.04,-0.02,-0.29,0.001090830782496456,0.001090830782496456,0.0,-0.014353400558667805,0.11517001581408885,-0.0008275124387788234,0,-0.249818,0,0,0,0,1546,1545,1543,1500,1500,1500
1747533852.0266707,0.08,0.03,-0.39,0.001090830782496456,0.0,-0.001090830782496456,-0.014353400558667805,0.11517001581408885,-0.0008275124387788234,0,-0.249818,0,0,0,0,1546,1545,1543,1500,1500,1500
1747533852.110775,0.08,0.03,-0.39,0.001090830782496456,0.0,-0.001090830782496456,-0.014353400558667805,0.11517001581408885,-0.0008275124387788234,0,-0.249818,0,0,0,0,1546,1545,1543,1500,1500,1500
1747533852.210819,0.03,0.03,-0.3,-0.003272492347489368,0.001090830782496456,-0.001090830782496456,-0.014353400558667805,0.11517001581408885,-0.0008275124387788234,0,-0.249818,0,0,0,0,1546,1545,1543,1500,1500,1500
1747533852.294081,0.03,0.03,-0.3,-0.003272492347489368,0.001090830782496456,-0.001090830782496456,-0.014353400558667805,0.11517001581408885,-0.0008275124387788234,0,-0.249818,0,0,0,0,1546,1545,1543,1500,1500,1500
1747533852.393892,0.13,0.05,-0.32,-0.003272492347489368,-0.003272492347489368,0.001090830782496456,-0.014353400558667805,0.11517001581408885,-0.0008275124387788234,0,-0.249818,0,0,0,0,1546,1545,1543,1500,1500,1500
1747533852.4907436,0.09,0.09,-0.43,-0.001090830782496456,-0.003272492347489368,0.0,-0.014353400558667805,0.11517001581408885,-0.0008275124387788234,0,-0.249818,0,0,0,0,1546,1545,1543,1500,1500,1500
1747533852.5773838,0.09,0.09,-0.43,-0.001090830782496456,-0.003272492347489368,0.0,-0.014353400558667805,0.11517001581408885,-0.0008275124387788234,0,-0.249818,0,0,0,0,1546,1545,1543,1500,1500,1500
1747533852.6770017,-0.03,0.0,-0.34,0.002181661564992912,0.002181661564992912,0.001090830782496456,-0.014353400558667805,0.11517001581408885,-0.0008275124387788234,0,-0.070916,0,0,0,0,1538,1538,1538,1500,1500,1500
1747533852.776283,-0.03,0.0,-0.34,0.002181661564992912,0.002181661564992912,0.001090830782496456,-0.014353400558667805,0.11517001581408885,-0.0008275124387788234,0,0,0,0,0,0,1500,1500,1500,1500,1500,1500
1747533852.876993,0.13,0.05,-0.37,-0.004363323129985824,-0.002181661564992912,0.001090830782496456,-0.014353400558667805,0.11517001581408885,-0.0008275124387788234,0,0,0,0,0,0,1500,1500,1500,1500,1500,1500
1747533852.979112,-0.12,-0.07,-0.29,-0.003272492347489368,0.003272492347489368,0.003272492347489368,-0.014353400558667805,0.11517001581408885,-0.0008275124387788234,0,0,0,0,0,0,1500,1500,1500,1500,1500,1500
1747533853.060769,-0.12,-0.07,-0.29,-0.003272492347489368,0.003272492347489368,0.003272492347489368,-0.014353400558667805,0.11517001581408885,-0.0008275124387788234,0,0,0,0,0,0,1500,1500,1500,1500,1500,1500
1747533853.159141,0.0,0.0,-0.27,0.0,0.0,0.001090830782496456,-0.014353400558667805,0.11517001581408885,-0.0008275124387788234,0,0,0,0,0,0,1500,1500,1500,1500,1500,1500
1747533853.260459,0.0,0.0,-0.27,0.0,0.0,0.001090830782496456,-0.014353400558667805,0.11517001581408885,-0.0008275124387788234,0,-0.070916,0,0,0,0,1538,1538,1538,1500,1500,1500
1747533853.3434865,0.03,0.03,-0.34,0.002181661564992912,-0.00545415391248228,0.0,-0.014353400558667805,0.11517001581408885,-0.0008275124387788234,0,-0.070916,0,0,0,0,1538,1538,1538,1500,1500,1500
1747533853.4460692,0.03,0.0,-0.3,-0.001090830782496456,0.003272492347489368,0.0,-0.014353400558667805,0.11517001581408885,-0.0008275124387788234,0,-0.105417,0,0,0,0,1540,1540,1539,1500,1500,1500
1747533853.5436847,0.03,0.0,-0.3,-0.001090830782496456,0.003272492347489368,0.0,-0.014353400558667805,0.11517001581408885,-0.0008275124387788234,0,-0.169949,0,0,0,0,1542,1542,1541,1500,1500,1500
1747533853.6437953,-0.12,-0.2,-0.21,-0.003272492347489368,-0.004363323129985824,0.002181661564992912,-0.014353400558667805,0.11517001581408885,-0.0008275124387788234,0,-0.169949,0,0,0,0,1542,1542,1541,1500,1500,1500
1747533853.743767,-0.12,-0.2,-0.21,-0.003272492347489368,-0.004363323129985824,0.002181661564992912,-0.014353400558667805,0.11517001581408885,-0.0008275124387788234,0,-0.169949,0,0,0,0,1542,1542,1541,1500,1500,1500
1747533853.8275468,0.18,0.0,-0.35000000000000003,0.0,0.001090830782496456,0.0,-0.014353400558667805,0.11517001581408885,-0.0008275124387788234,0,-0.169949,0,0,0,0,1542,1542,1541,1500,1500,1500
1747533853.9276667,0.0,-0.02,-0.31,0.0,0.002181661564992912,0.0,-0.014353400558667805,0.11517001581408885,-0.0008275124387788234,0,-0.169949,0,0,0,0,1542,1542,1541,1500,1500,1500
1747533854.0270047,0.0,-0.02,-0.31,0.0,0.002181661564992912,0.0,-0.014353400558667805,0.11517001581408885,-0.0008275124387788234,0,-0.169949,0,0,0,0,1542,1542,1541,1500,1500,1500
1747533854.110728,0.03,0.01,-0.27,0.002181661564992912,0.002181661564992912,0.0,-0.014353400558667805,0.11517001581408885,-0.0008275124387788234,0,-0.169949,0,0,0,0,1542,1542,1541,1500,1500,1500
1747533854.2106016,0.03,0.01,-0.27,0.002181661564992912,0.002181661564992912,0.0,-0.014353400558667805,0.11517001581408885,-0.0008275124387788234,0,-0.169949,0,0,0,0,1542,1542,1541,1500,1500,1500
1747533854.310543,0.02,0.05,-0.41000000000000003,0.0,-0.004363323129985824,-0.001090830782496456,-0.014353400558667805,0.11517001581408885,-0.0008275124387788234,0,-0.169949,0,0,0,0,1542,1542,1541,1500,1500,1500
1747533854.4107869,0.03,0.0,-0.3,0.002181661564992912,0.003272492347489368,0.0,-0.014353400558667805,0.11517001581408885,-0.0008275124387788234,0,-0.169949,0,0,0,0,1542,1542,1541,1500,1500,1500
1747533854.510532,0.03,0.0,-0.3,0.002181661564992912,0.003272492347489368,0.0,-0.014353400558667805,0.11517001581408885,-0.0008275124387788234,0,-0.169949,0,0,0,0,1542,1542,1541,1500,1500,1500
1747533854.5941672,0.03,0.04,-0.33,-0.001090830782496456,0.001090830782496456,0.001090830782496456,-0.014353400558667805,0.11517001581408885,-0.0008275124387788234,0,-0.169949,0,0,0,0,1542,1542,1541,1500,1500,1500
1747533854.6943526,0.03,0.04,-0.33,-0.001090830782496456,0.001090830782496456,0.001090830782496456,-0.014353400558667805,0.11517001581408885,-0.0008275124387788234,0,-0.169949,0,0,0,0,1542,1542,1541,1500,1500,1500
1747533854.7933936,0.04,0.0,-0.24,0.003272492347489368,0.002181661564992912,-0.002181661564992912,-0.014353400558667805,0.11517001581408885,-0.0008275124387788234,0,-0.169949,0,0,0,0,1542,1542,1541,1500,1500,1500
1747533854.893752,-0.01,-0.02,-0.29,-0.001090830782496456,0.002181661564992912,-0.001090830782496456,-0.014353400558667805,0.11517001581408885,-0.0008275124387788234,0,0,0,0,0,0,1502,1502,1501,1500,1500,1500
1747533854.9927926,-0.01,-0.02,-0.29,-0.001090830782496456,0.002181661564992912,-0.001090830782496456,-0.014353400558667805,0.11517001581408885,-0.0008275124387788234,0,0,0,0,0,0,1500,1500,1500,1500,1500,1500
1747533855.0769403,0.02,0.07,-0.41000000000000003,0.002181661564992912,-0.002181661564992912,0.001090830782496456,-0.014353400558667805,0.11517001581408885,-0.0008275124387788234,0,0,0,0,0,0,1500,1500,1500,1500,1500,1500
1747533855.1760352,0.02,0.07,-0.41000000000000003,0.002181661564992912,-0.002181661564992912,0.001090830782496456,-0.014353400558667805,0.11517001581408885,-0.0008275124387788234,0,0,0,0,0,0,1500,1500,1500,1500,1500,1500
1747533855.2769732,0.03,-0.04,-0.31,0.001090830782496456,0.003272492347489368,-0.001090830782496456,-0.014353400558667805,0.11517001581408885,-0.0008275124387788234,0,0,0,0,0,0,1500,1500,1500,1500,1500,1500
1747533855.361511,0.05,0.02,-0.32,-0.002181661564992912,0.0,0.0,-0.014353400558667805,0.11517001581408885,-0.0008275124387788234,0,0,0,0,0,0,1500,1500,1500,1500,1500,1500
1747533855.4599473,0.05,0.02,-0.32,-0.002181661564992912,0.0,0.0,-0.014353400558667805,0.11517001581408885,-0.0008275124387788234,0,0,0,0,0,0,1500,1500,1500,1500,1500,1500
1747533855.5440886,0.04,0.0,-0.39,0.001090830782496456,-0.001090830782496456,-0.002181661564992912,-0.014353400558667805,0.11517001581408885,-0.0008275124387788234,0,0,0,0,0,0,1500,1500,1500,1500,1500,1500
1747533855.6430497,0.04,0.0,-0.39,0.001090830782496456,-0.001090830782496456,-0.002181661564992912,-0.014353400558667805,0.11517001581408885,-0.0008275124387788234,0,0,0,0,0,0,1500,1500,1500,1500,1500,1500
1747533855.7443404,0.03,0.0,-0.31,0.001090830782496456,0.0,0.001090830782496456,-0.014353400558667805,0.11517001581408885,-0.0008275124387788234,0,0,0,0,0,0,1500,1500,1500,1500,1500,1500
1747533855.8317811,0.03,0.0,-0.31,0.001090830782496456,0.0,0.001090830782496456,-0.014353400558667805,0.11517001581408885,-0.0008275124387788234,0,0,0,0,0,0,1500,1500,1500,1500,1500,1500
1747533855.9274483,0.05,0.01,-0.31,0.001090830782496456,0.001090830782496456,0.002181661564992912,-0.014353400558667805,0.11517001581408885,-0.0008275124387788234,0,0,0,0,0,0,1500,1500,1500,1500,1500,1500
1747533856.027387,0.03,0.0,-0.34,-0.003272492347489368,-0.001090830782496456,0.002181661564992912,-0.014353400558667805,0.11517001581408885,-0.0008275124387788234,0,-12.5,0,0,0,-0.012403,1540,1540,1540,1500,1500,1500
1747533856.1276107,0.03,0.0,-0.34,-0.003272492347489368,-0.001090830782496456,0.002181661564992912,-0.014353400558667805,0.11517001581408885,-0.0008275124387788234,0,-12.5,0,0,0,-0.073032,1580,1580,1580,1500,1500,1500
1747533856.2265768,0.03,0.0,-0.29,0.003272492347489368,0.0,0.001090830782496456,-0.014353400558667805,0.11517001581408885,-0.0008275124387788234,0,-12.5,0,0,0,-0.001789,1597,1595,1581,1500,1500,1500
1747533856.310663,-0.09,-0.16,-0.12,-0.001090830782496456,0.003272492347489368,0.0,-0.014353400558667805,0.11517001581408885,-0.0008275124387788234,0,-12.5,0,0,0,0,1597,1595,1581,1500,1500,1500
1747533856.4107194,-0.09,-0.16,-0.12,-0.001090830782496456,0.003272492347489368,0.0,-0.014353400558667805,0.11517001581408885,-0.0008275124387788234,0,-12.5,0,0,0,0,1597,1595,1581,1500,1500,1500
1747533856.5091722,0.23,0.31,-0.45,0.002181661564992912,-0.001090830782496456,0.001090830782496456,-0.014353400558667805,0.11517001581408885,-0.0008275124387788234,0,-0.043231,0,0,0,0,1557,1555,1541,1500,1500,1500
1747533856.5939758,0.23,0.31,-0.45,0.002181661564992912,-0.001090830782496456,0.001090830782496456,-0.014353400558667805,0.11517001581408885,-0.0008275124387788234,0,0,0,0,0,0,1517,1515,1501,1500,1500,1500
1747533856.693956,-0.15,-0.09,-0.3,0.002181661564992912,-0.003272492347489368,0.003272492347489368,-0.014353400558667805,0.11517001581408885,-0.0008275124387788234,0,0,0,0,0,0,1500,1500,1500,1500,1500,1500
1747533856.7841685,0.2,-0.12,-0.32,-0.003272492347489368,-0.001090830782496456,0.0,-0.014353400558667805,0.11517001581408885,-0.0008275124387788234,0,0,0,0,0,0,1500,1500,1500,1500,1500,1500
1747533856.876974,0.2,-0.12,-0.32,-0.003272492347489368,-0.001090830782496456,0.0,-0.014353400558667805,0.11517001581408885,-0.0008275124387788234,0,0,0,0,0,0,1500,1500,1500,1500,1500,1500
1747533856.9769251,0.05,0.06,-0.37,-0.004363323129985824,0.00545415391248228,-0.001090830782496456,-0.014353400558667805,0.11517001581408885,-0.0008275124387788234,0,0,0,0,0,0,1500,1500,1500,1500,1500,1500
1747533857.0599892,0.05,0.06,-0.37,-0.004363323129985824,0.00545415391248228,-0.001090830782496456,-0.014353400558667805,0.11517001581408885,-0.0008275124387788234,0,0,0,0,0,0,1500,1500,1500,1500,1500,1500
1747533857.1607883,0.03,0.02,-0.32,0.001090830782496456,0.0,-0.001090830782496456,-0.014353400558667805,0.11517001581408885,-0.0008275124387788234,0,0,0,0,0,0,1500,1500,1500,1500,1500,1500
1747533857.260632,0.03,0.02,-0.32,0.001090830782496456,0.0,-0.001090830782496456,-0.014353400558667805,0.11517001581408885,-0.0008275124387788234,0,0,0,0,0,0,1500,1500,1500,1500,1500,1500
1747533857.3435159,0.03,-0.03,-0.34,0.003272492347489368,0.002181661564992912,-0.001090830782496456,-0.014353400558667805,0.11517001581408885,-0.0008275124387788234,0,0,0,0,0,0,1500,1500,1500,1500,1500,1500
1747533857.4430363,0.05,0.0,-0.32,-0.001090830782496456,-0.001090830782496456,0.002181661564992912,-0.014353400558667805,0.11517001581408885,-0.0008275124387788234,0,0,0,0,0,0,1500,1500,1500,1500,1500,1500
1747533857.5433614,0.05,0.0,-0.32,-0.001090830782496456,-0.001090830782496456,0.002181661564992912,-0.014353400558667805,0.11517001581408885,-0.0008275124387788234,0,0,0,0,0,0,1500,1500,1500,1500,1500,1500
1747533857.6429563,0.03,0.0,-0.33,0.0,0.003272492347489368,-0.001090830782496456,-0.014353400558667805,0.11517001581408885,-0.0008275124387788234,0,0,0,0,0,0,1500,1500,1500,1500,1500,1500
1747533857.7380388,0.04,0.0,-0.34,-0.001090830782496456,-0.001090830782496456,0.0,-0.014353400558667805,0.11517001581408885,-0.0008275124387788234,0,0,0,0,0,0,1500,1500,1500,1500,1500,1500
1747533857.8261814,0.04,0.0,-0.34,-0.001090830782496456,-0.001090830782496456,0.0,-0.014353400558667805,0.11517001581408885,-0.0008275124387788234,0,0,0,0,0,0,1500,1500,1500,1500,1500,1500
1747533857.9266403,0.04,0.0,-0.28,0.002181661564992912,0.0,0.0,-0.014353400558667805,0.11517001581408885,-0.0008275124387788234,0,0,0,0,0,0,1500,1500,1500,1500,1500,1500
1747533858.0270004,0.04,0.0,-0.28,0.002181661564992912,0.0,0.0,-0.014353400558667805,0.11517001581408885,-0.0008275124387788234,0,0,0,0,0,0,1500,1500,1500,1500,1500,1500
1747533858.111304,0.05,0.02,-0.33,0.0,0.001090830782496456,0.0,-0.014353400558667805,0.11517001581408885,-0.0008275124387788234,0,0,0,0,0,0,1500,1500,1500,1500,1500,1500
1747533858.20943,0.03,-0.01,-0.33,0.0,0.00545415391248228,-0.002181661564992912,-0.014353400558667805,0.11517001581408885,-0.0008275124387788234,0,0,0,0,0,0,1500,1500,1500,1500,1500,1500
1747533858.3111148,0.03,-0.01,-0.33,0.0,0.00545415391248228,-0.002181661564992912,-0.014353400558667805,0.11517001581408885,-0.0008275124387788234,0,-10.521188,0,0,0,0,1540,1540,1540,1500,1500,1500
1747533858.4105792,0.03,0.02,-0.3,0.0,0.002181661564992912,0.0,-0.014353400558667805,0.11517001581408885,-0.0008275124387788234,0,-12.5,0,0,0,0,1564,1563,1557,1500,1500,1500
1747533858.510938,0.03,0.02,-0.3,0.0,0.002181661564992912,0.0,-0.014353400558667805,0.11517001581408885,-0.0008275124387788234,0,-12.5,0,0,0,0,1564,1563,1557,1500,1500,1500
1747533858.5959058,0.03,0.0,-0.37,-0.001090830782496456,-0.001090830782496456,0.0,-0.014353400558667805,0.11517001581408885,-0.0008275124387788234,0,-12.5,0,0,0,0,1564,1563,1557,1500,1500,1500
1747533858.6892362,-0.15,-0.41000000000000003,-0.25,0.0,-0.004363323129985824,0.0,-0.014353400558667805,0.11517001581408885,-0.0008275124387788234,0,-12.5,0,0,0,0,1564,1563,1557,1500,1500,1500
1747533858.7940319,-0.15,-0.41000000000000003,-0.25,0.0,-0.004363323129985824,0.0,-0.014353400558667805,0.11517001581408885,-0.0008275124387788234,0,-12.5,0,0,0,0,1564,1563,1557,1500,1500,1500
1747533858.8939967,0.11,-0.03,-0.34,-0.004363323129985824,-0.001090830782496456,0.0,-0.014353400558667805,0.11517001581408885,-0.0008275124387788234,0,-12.5,0,0,0,0,1564,1563,1557,1500,1500,1500
1747533858.9952703,0.11,-0.03,-0.34,-0.004363323129985824,-0.001090830782496456,0.0,-0.014353400558667805,0.11517001581408885,-0.0008275124387788234,0,0,0,0,0,0,1524,1523,1517,1500,1500,1500
1747533859.0776064,0.07,-0.02,-0.33,-0.003272492347489368,0.002181661564992912,-0.001090830782496456,-0.014353400558667805,0.11517001581408885,-0.0008275124387788234,0,0,0,0,0,0,1500,1500,1500,1500,1500,1500
1747533859.1776488,0.27,-0.18,-0.29,-0.008726646259971648,-0.00545415391248228,0.003272492347489368,-0.014353400558667805,0.11517001581408885,-0.0008275124387788234,0,-0.105417,0,0,0,0,1537,1537,1536,1500,1500,1500
1747533859.2778413,0.27,-0.18,-0.29,-0.008726646259971648,-0.00545415391248228,0.003272492347489368,-0.014353400558667805,0.11517001581408885,-0.0008275124387788234,0,-0.194868,0,0,0,0,1538,1537,1537,1500,1500,1500
1747533859.377955,-0.03,-0.09,-0.34,-0.00545415391248228,-0.004363323129985824,0.002181661564992912,-0.014353400558667805,0.11517001581408885,-0.0008275124387788234,0,-0.62681,0,0,0,0,1542,1542,1540,1500,1500,1500
1747533859.4771397,-0.03,-0.09,-0.34,-0.00545415391248228,-0.004363323129985824,0.002181661564992912,-0.014353400558667805,0.11517001581408885,-0.0008275124387788234,0,-1.371658,0,0,0,0,1550,1550,1546,1500,1500,1500
1747533859.5590093,0.18,0.01,-0.28,-0.001090830782496456,0.002181661564992912,0.003272492347489368,-0.014353400558667805,0.11517001581408885,-0.0008275124387788234,0,-1.371658,0,0,0,0,1550,1550,1546,1500,1500,1500
1747533859.6606684,-0.04,0.03,-0.32,-0.002181661564992912,-0.00545415391248228,0.0,-0.014353400558667805,0.11517001581408885,-0.0008275124387788234,0,-0.62681,0,0,0,0,1542,1542,1540,1500,1500,1500
1747533859.760764,-0.04,0.03,-0.32,-0.002181661564992912,-0.00545415391248228,0.0,-0.014353400558667805,0.11517001581408885,-0.0008275124387788234,0,-0.345023,0,0,0,0,1539,1539,1538,1500,1500,1500
1747533859.8438916,0.06,0.08,-0.29,-0.001090830782496456,-0.001090830782496456,-0.002181661564992912,-0.014353400558667805,0.11517001581408885,-0.0008275124387788234,0,-0.279849,0,0,0,0,1538,1538,1538,1500,1500,1500
1747533859.9440494,0.06,0.08,-0.29,-0.001090830782496456,-0.001090830782496456,-0.002181661564992912,-0.014353400558667805,0.11517001581408885,-0.0008275124387788234,0,-0.087315,0,0,0,0,1536,1536,1536,1500,1500,1500
1747533860.0430133,0.02,0.03,-0.32,-0.001090830782496456,-0.002181661564992912,0.001090830782496456,-0.014353400558667805,0.11517001581408885,-0.0008275124387788234,0,-0.070916,0,0,0,0,1536,1536,1536,1500,1500,1500
1747533860.1431968,0.1,0.05,-0.38,-0.001090830782496456,0.0,0.001090830782496456,-0.014353400558667805,0.11517001581408885,-0.0008275124387788234,0,-0.056222,0,0,0,0,1536,1536,1536,1500,1500,1500
1747533860.2439647,0.1,0.05,-0.38,-0.001090830782496456,0.0,0.001090830782496456,-0.014353400558667805,0.11517001581408885,-0.0008275124387788234,0,-0.043231,0,0,0,0,1536,1536,1536,1500,1500,1500
1747533860.3265026,0.09,0.02,-0.44,-0.001090830782496456,-0.003272492347489368,0.0,-0.014353400558667805,0.11517001581408885,-0.0008275124387788234,0,-0.022363,0,0,0,0,1536,1536,1536,1500,1500,1500
1747533860.4271448,0.09,0.02,-0.44,-0.001090830782496456,-0.003272492347489368,0.0,-0.014353400558667805,0.11517001581408885,-0.0008275124387788234,0,-0.008311,0,0,0,0,1536,1536,1536,1500,1500,1500
1747533860.5266147,0.08,0.08,-0.37,0.0,0.002181661564992912,-0.001090830782496456,-0.014353400558667805,0.11517001581408885,-0.0008275124387788234,0,-0.003841,0,0,0,0,1536,1536,1536,1500,1500,1500
1747533860.6091185,0.01,-1.35,-0.32,-0.001090830782496456,0.0,0.0,-0.014353400558667805,0.11517001581408885,-0.0008275124387788234,0,0,0,0,0,0,1500,1500,1500,1500,1500,1500
1747533860.7092326,0.01,-1.35,-0.32,-0.001090830782496456,0.0,0.0,-0.014353400558667805,0.11517001581408885,-0.0008275124387788234,0,0,0,0,0,0,1500,1500,1500,1500,1500,1500
1747533860.8094609,0.0,0.01,-0.36,-0.002181661564992912,0.001090830782496456,-0.001090830782496456,-0.014353400558667805,0.11517001581408885,-0.0008275124387788234,0,0,0,0,0,0,1500,1500,1500,1500,1500,1500
1747533860.910798,0.0,0.01,-0.36,-0.002181661564992912,0.001090830782496456,-0.001090830782496456,-0.014353400558667805,0.11517001581408885,-0.0008275124387788234,0,0,0,0,0,0,1500,1500,1500,1500,1500,1500
1747533861.0096798,0.03,0.0,-0.26,0.002181661564992912,-0.001090830782496456,-0.002181661564992912,-0.014353400558667805,0.11517001581408885,-0.0008275124387788234,0,0,0,0,0,0,1500,1500,1500,1500,1500,1500
1747533861.0937886,0.03,0.0,-0.3,0.001090830782496456,-0.006544984694978736,0.001090830782496456,-0.014353400558667805,0.11517001581408885,-0.0008275124387788234,0,0,0,0,0,0,1500,1500,1500,1500,1500,1500
1747533861.1934664,0.03,0.0,-0.3,0.001090830782496456,-0.006544984694978736,0.001090830782496456,-0.014353400558667805,0.11517001581408885,-0.0008275124387788234,0,0,0,0,0,0,1500,1500,1500,1500,1500,1500
1747533861.2941127,0.04,0.0,-0.37,0.001090830782496456,0.0,0.0,-0.014353400558667805,0.11517001581408885,-0.0008275124387788234,0,0,0,0,0,0,1500,1500,1500,1500,1500,1500
1747533861.39425,0.04,0.0,-0.37,0.001090830782496456,0.0,0.0,-0.014353400558667805,0.11517001581408885,-0.0008275124387788234,0,0,0,0,0,0,1500,1500,1500,1500,1500,1500
1747533861.4934077,0.02,-0.01,-0.29,0.00545415391248228,0.003272492347489368,0.0,-0.014353400558667805,0.11517001581408885,-0.0008275124387788234,0,0,0,0,0,0,1500,1500,1500,1500,1500,1500
1747533861.5776837,0.03,0.02,-0.34,0.001090830782496456,-0.004363323129985824,-0.001090830782496456,-0.014353400558667805,0.11517001581408885,-0.0008275124387788234,0,0,0,0,0,0,1500,1500,1500,1500,1500,1500
1747533861.6764925,0.03,0.02,-0.34,0.001090830782496456,-0.004363323129985824,-0.001090830782496456,-0.014353400558667805,0.11517001581408885,-0.0008275124387788234,0,0,0,0,0,0,1500,1500,1500,1500,1500,1500
1747533861.7770426,0.03,0.02,-0.28,0.002181661564992912,0.0,0.0,-0.014353400558667805,0.11517001581408885,-0.0008275124387788234,0,0,0,0,0,0,1500,1500,1500,1500,1500,1500
1747533861.8605328,0.03,0.02,-0.28,0.002181661564992912,0.0,0.0,-0.014353400558667805,0.11517001581408885,-0.0008275124387788234,0,0,0,0,0,0,1500,1500,1500,1500,1500,1500
1747533861.959553,0.05,0.0,-0.29,-0.002181661564992912,0.001090830782496456,0.002181661564992912,-0.014353400558667805,0.11517001581408885,-0.0008275124387788234,0,0,0,0,0,0,1500,1500,1500,1500,1500,1500
1747533862.0432167,0.03,0.02,-0.33,0.003272492347489368,-0.001090830782496456,-0.001090830782496456,-0.014353400558667805,0.11517001581408885,-0.0008275124387788234,0,0,0,0,0,0,1500,1500,1500,1500,1500,1500
1747533862.1440487,0.03,0.02,-0.33,0.003272492347489368,-0.001090830782496456,-0.001090830782496456,-0.014353400558667805,0.11517001581408885,-0.0008275124387788234,0,0,0,0,0,0,1500,1500,1500,1500,1500,1500
1747533862.2438393,0.05,0.0,-0.34,-0.001090830782496456,-0.002181661564992912,-0.002181661564992912,-0.014353400558667805,0.11517001581408885,-0.0008275124387788234,0,0,0,0,0,0,1500,1500,1500,1500,1500,1500
1747533862.3268125,0.05,0.0,-0.34,-0.001090830782496456,-0.002181661564992912,-0.002181661564992912,-0.014353400558667805,0.11517001581408885,-0.0008275124387788234,0,0,0,0,0,0,1500,1500,1500,1500,1500,1500
1747533862.4272044,0.03,0.0,-0.28,0.001090830782496456,0.006544984694978736,0.001090830782496456,-0.014353400558667805,0.11517001581408885,-0.0008275124387788234,0,-0.62681,0,0,0,0,1539,1539,1538,1500,1500,1500
1747533862.52638,0.06,0.02,-0.33,0.001090830782496456,0.0,0.002181661564992912,-0.014353400558667805,0.11517001581408885,-0.0008275124387788234,0,-1.511811,0,0,0,0,1544,1543,1542,1500,1500,1500
1747533862.6262898,0.06,0.02,-0.33,0.001090830782496456,0.0,0.002181661564992912,-0.014353400558667805,0.11517001581408885,-0.0008275124387788234,0,-1.511811,0,0,0,0,1544,1543,1542,1500,1500,1500
1747533862.7268486,0.13,-0.06,-0.42,0.004363323129985824,0.004363323129985824,-0.001090830782496456,-0.014353400558667805,0.11517001581408885,-0.0008275124387788234,0,-0.879209,0,0,0,0,1540,1540,1539,1500,1500,1500
1747533862.8099358,0.13,-0.06,-0.42,0.004363323129985824,0.004363323129985824,-0.001090830782496456,-0.014353400558667805,0.11517001581408885,-0.0008275124387788234,0,-0.62681,0,0,0,0,1539,1539,1538,1500,1500,1500
1747533862.9100564,0.25,0.22,-0.33,0.008726646259971648,0.00545415391248228,0.003272492347489368,-0.014353400558667805,0.11517001581408885,-0.0008275124387788234,0,-0.008311,0,0,0,0,1536,1536,1536,1500,1500,1500
1747533863.0106912,0.01,0.05,-0.4,0.0,0.0,0.0,-0.014353400558667805,0.11517001581408885,-0.0008275124387788234,0,0,0,0,0,0,1500,1500,1500,1500,1500,1500
1747533863.093309,0.01,0.05,-0.4,0.0,0.0,0.0,-0.014353400558667805,0.11517001581408885,-0.0008275124387788234,0,0,0,0,0,0,1500,1500,1500,1500,1500,1500
1747533863.193778,0.13,0.03,-0.38,-0.001090830782496456,0.0,-0.002181661564992912,-0.014353400558667805,0.11517001581408885,-0.0008275124387788234,0,0,0,0,0,0,1500,1500,1500,1500,1500,1500
1747533863.2938833,0.13,0.03,-0.38,-0.001090830782496456,0.0,-0.002181661564992912,-0.014353400558667805,0.11517001581408885,-0.0008275124387788234,0,-0.087315,0,0,0,0,1536,1536,1536,1500,1500,1500
1747533863.393333,0.01,0.0,-0.28,0.0,-0.003272492347489368,0.002181661564992912,-0.014353400558667805,0.11517001581408885,-0.0008275124387788234,0,-0.311584,0,0,0,0,1537,1537,1537,1500,1500,1500
1747533863.493478,0.02,-0.02,-0.36,-0.004363323129985824,0.004363323129985824,-0.001090830782496456,-0.014353400558667805,0.11517001581408885,-0.0008275124387788234,0,-0.380166,0,0,0,0,1538,1538,1537,1500,1500,1500
1747533863.5772045,0.02,-0.02,-0.36,-0.004363323129985824,0.004363323129985824,-0.001090830782496456,-0.014353400558667805,0.11517001581408885,-0.0008275124387788234,0,-0.380166,0,0,0,0,1538,1538,1537,1500,1500,1500
1747533863.6766536,-0.09,-0.05,-0.23,-0.00545415391248228,-0.003272492347489368,0.001090830782496456,-0.014353400558667805,0.11517001581408885,-0.0008275124387788234,0,-0.455564,0,0,0,0,1538,1538,1537,1500,1500,1500
1747533863.776594,-0.09,-0.05,-0.23,-0.00545415391248228,-0.003272492347489368,0.001090830782496456,-0.014353400558667805,0.11517001581408885,-0.0008275124387788234,0,-0.455564,0,0,0,0,1538,1538,1537,1500,1500,1500
1747533863.8770375,0.13,-0.03,-0.4,-0.001090830782496456,-0.004363323129985824,0.0,-0.014353400558667805,0.11517001581408885,-0.0008275124387788234,0,-0.455564,0,0,0,0,1538,1538,1537,1500,1500,1500
1747533863.9765542,-0.03,0.0,-0.36,-0.004363323129985824,-0.002181661564992912,0.002181661564992912,-0.014353400558667805,0.11517001581408885,-0.0008275124387788234,0,-0.455564,0,0,0,0,1538,1538,1537,1500,1500,1500
1747533864.0805738,-0.03,0.0,-0.36,-0.004363323129985824,-0.002181661564992912,0.002181661564992912,-0.014353400558667805,0.11517001581408885,-0.0008275124387788234,0,-0.455564,0,0,0,0,1538,1538,1537,1500,1500,1500
1747533864.1779997,0.02,0.0,-0.32,-0.002181661564992912,0.002181661564992912,0.0,-0.014353400558667805,0.11517001581408885,-0.0008275124387788234,0,-0.455564,0,0,0,0,1538,1538,1537,1500,1500,1500
1747533864.2768857,0.0,-0.08,-0.36,-0.003272492347489368,0.0,0.001090830782496456,-0.014353400558667805,0.11517001581408885,-0.0008275124387788234,0,-0.455564,0,0,0,0,1538,1538,1537,1500,1500,1500
1747533864.3605788,0.0,-0.08,-0.36,-0.003272492347489368,0.0,0.001090830782496456,-0.014353400558667805,0.11517001581408885,-0.0008275124387788234,0,-0.455564,0,0,0,0,1538,1538,1537,1500,1500,1500
1747533864.4607685,0.04,0.01,-0.33,-0.001090830782496456,-0.001090830782496456,0.002181661564992912,-0.014353400558667805,0.11517001581408885,-0.0008275124387788234,0,-0.455564,0,0,0,0,1538,1538,1537,1500,1500,1500
1747533864.559434,0.04,0.01,-0.33,-0.001090830782496456,-0.001090830782496456,0.002181661564992912,-0.014353400558667805,0.11517001581408885,-0.0008275124387788234,0,-0.455564,0,0,0,0,1538,1538,1537,1500,1500,1500
1747533864.6608036,0.0,0.02,-0.25,-0.003272492347489368,0.003272492347489368,-0.001090830782496456,-0.014353400558667805,0.11517001581408885,-0.0008275124387788234,0,-0.455564,0,0,0,0,1538,1538,1537,1500,1500,1500
1747533864.760819,0.1,0.04,-0.3,-0.004363323129985824,0.001090830782496456,-0.001090830782496456,-0.014353400558667805,0.11517001581408885,-0.0008275124387788234,0,-0.825321,0,0,0,0,1540,1540,1539,1500,1500,1500
1747533864.8439834,0.1,0.04,-0.3,-0.004363323129985824,0.001090830782496456,-0.001090830782496456,-0.014353400558667805,0.11517001581408885,-0.0008275124387788234,0,-0.825321,0,0,0,0,1540,1540,1539,1500,1500,1500
1747533864.9430668,0.09,0.03,-0.35000000000000003,-0.002181661564992912,0.00545415391248228,0.0,-0.014353400558667805,0.11517001581408885,-0.0008275124387788234,0,-0.879209,0,0,0,0,1540,1540,1539,1500,1500,1500
1747533865.043847,0.09,0.03,-0.35000000000000003,-0.002181661564992912,0.00545415391248228,0.0,-0.014353400558667805,0.11517001581408885,-0.0008275124387788234,0,-0.879209,0,0,0,0,1540,1540,1539,1500,1500,1500
1747533865.1442668,0.03,0.03,-0.3,0.0,0.004363323129985824,-0.001090830782496456,-0.014353400558667805,0.11517001581408885,-0.0008275124387788234,0,-0.879209,0,0,0,0,1540,1540,1539,1500,1500,1500
1747533865.244274,0.07,0.07,-0.39,0.004363323129985824,-0.004363323129985824,-0.001090830782496456,-0.014353400558667805,0.11517001581408885,-0.0008275124387788234,0,-0.879209,0,0,0,0,1540,1540,1539,1500,1500,1500
1747533865.3268342,0.07,0.07,-0.39,0.004363323129985824,-0.004363323129985824,-0.001090830782496456,-0.014353400558667805,0.11517001581408885,-0.0008275124387788234,0,-0.879209,0,0,0,0,1540,1540,1539,1500,1500,1500
1747533865.4269269,-0.05,-0.04,-0.28,-0.002181661564992912,0.003272492347489368,-0.001090830782496456,-0.014353400558667805,0.11517001581408885,-0.0008275124387788234,0,-0.879209,0,0,0,0,1540,1540,1539,1500,1500,1500
1747533865.527219,-0.05,-0.04,-0.28,-0.002181661564992912,0.003272492347489368,-0.001090830782496456,-0.014353400558667805,0.11517001581408885,-0.0008275124387788234,0,-0.879209,0,0,0,0,1540,1540,1539,1500,1500,1500
1747533865.6266873,0.11,0.03,-0.31,-0.001090830782496456,0.0,0.002181661564992912,-0.014353400558667805,0.11517001581408885,-0.0008275124387788234,0,-0.879209,0,0,0,0,1540,1540,1539,1500,1500,1500
1747533865.7263477,0.05,0.03,-0.29,-0.003272492347489368,-0.006544984694978736,0.0,-0.014353400558667805,0.11517001581408885,-0.0008275124387788234,0,-0.879209,0,0,0,0,1540,1540,1539,1500,1500,1500
1747533865.8105793,0.05,0.03,-0.29,-0.003272492347489368,-0.006544984694978736,0.0,-0.014353400558667805,0.11517001581408885,-0.0008275124387788234,0,-0.879209,0,0,0,0,1540,1540,1539,1500,1500,1500
1747533865.9106827,0.04,0.02,-0.33,-0.001090830782496456,-0.001090830782496456,0.0,-0.014353400558667805,0.11517001581408885,-0.0008275124387788234,0,-0.879209,0,0,0,0,1540,1540,1539,1500,1500,1500
1747533866.010692,0.04,0.02,-0.33,-0.001090830782496456,-0.001090830782496456,0.0,-0.014353400558667805,0.11517001581408885,-0.0008275124387788234,0,-0.879209,0,0,0,0,1540,1540,1539,1500,1500,1500
1747533866.094059,0.04,0.0,-0.33,-0.002181661564992912,0.001090830782496456,0.0,-0.014353400558667805,0.11517001581408885,-0.0008275124387788234,0,-0.879209,0,0,0,0,1540,1540,1539,1500,1500,1500
1747533866.194084,0.08,0.01,-0.3,0.001090830782496456,0.002181661564992912,0.002181661564992912,-0.014353400558667805,0.11517001581408885,-0.0008275124387788234,0,-0.879209,0,0,0,0,1540,1540,1539,1500,1500,1500
1747533866.2944288,0.08,0.01,-0.3,0.001090830782496456,0.002181661564992912,0.002181661564992912,-0.014353400558667805,0.11517001581408885,-0.0008275124387788234,0,-0.879209,0,0,0,0,1540,1540,1539,1500,1500,1500
1747533866.39336,0.0,0.0,-0.29,-0.002181661564992912,-0.002181661564992912,-0.001090830782496456,-0.014353400558667805,0.11517001581408885,-0.0008275124387788234,0,-0.879209,0,0,0,0,1540,1540,1539,1500,1500,1500
1747533866.492636,0.05,-0.04,-0.35000000000000003,-0.00545415391248228,0.001090830782496456,-0.001090830782496456,-0.014353400558667805,0.11517001581408885,-0.0008275124387788234,0,-0.879209,0,0,0,0,1540,1540,1539,1500,1500,1500
1747533866.576326,0.05,-0.04,-0.35000000000000003,-0.00545415391248228,0.001090830782496456,-0.001090830782496456,-0.014353400558667805,0.11517001581408885,-0.0008275124387788234,0,-0.879209,0,0,0,0,1540,1540,1539,1500,1500,1500
1747533866.6765084,0.12,0.03,-0.34,-0.002181661564992912,0.0,0.001090830782496456,-0.014353400558667805,0.11517001581408885,-0.0008275124387788234,0,-0.879209,0,0,0,0,1540,1540,1539,1500,1500,1500
1747533866.7766645,0.12,0.03,-0.34,-0.002181661564992912,0.0,0.001090830782496456,-0.014353400558667805,0.11517001581408885,-0.0008275124387788234,0,-0.879209,0,0,0,0,1540,1540,1539,1500,1500,1500
1747533866.859075,0.0,-0.02,-0.3,-0.001090830782496456,-0.001090830782496456,0.0,-0.014353400558667805,0.11517001581408885,-0.0008275124387788234,0,-0.879209,0,0,0,0,1540,1540,1539,1500,1500,1500
1747533866.9596503,0.0,-0.02,-0.3,-0.001090830782496456,-0.001090830782496456,0.0,-0.014353400558667805,0.11517001581408885,-0.0008275124387788234,0,-0.879209,0,0,0,0,1540,1540,1539,1500,1500,1500
1747533867.0608485,0.11,0.02,-0.38,0.0,-0.001090830782496456,-0.001090830782496456,0.014402537234525972,-0.11556609904658384,-0.0008275124387788234,0,-0.879209,0,0,0,0,1540,1540,1539,1500,1500,1500
1747533867.159763,0.04,0.02,-0.27,0.001090830782496456,0.0,0.0,-0.014353400558667805,0.11517001581408885,-0.0008275124387788234,0,-0.879209,0,0,0,0,1540,1540,1539,1500,1500,1500
1747533867.2605834,0.04,0.02,-0.27,0.001090830782496456,0.0,0.0,-0.014353400558667805,0.11517001581408885,-0.0008275124387788234,0,-0.879209,0,0,0,0,1540,1540,1539,1500,1500,1500
1747533867.3442557,0.07,0.01,-0.38,0.001090830782496456,-0.003272492347489368,-0.003272492347489368,-0.014353400558667805,0.11517001581408885,-0.0008275124387788234,0,-0.879209,0,0,0,0,1540,1540,1539,1500,1500,1500
1747533867.4433076,0.07,0.01,-0.38,0.001090830782496456,-0.003272492347489368,-0.003272492347489368,-0.014353400558667805,0.11517001581408885,-0.0008275124387788234,0,-0.879209,0,0,0,0,1540,1540,1539,1500,1500,1500
