time,ay,ax,az,gy,gx,gz,roll,pitch,yaw,cmd_fx,cmd_fy,cmd_fz,cmd_tx,cmd_ty,cmd_tz,pwm_1,pwm_2,pwm_3,pwm_4,pwm_5,pwm_6
1747537828.1410537,0.0,0.0,0.0,0.0,0.0,0.0,0.0,0.0,0.0,0,0,0,0,0,0,1500,1500,1500,1500,1500,1500
1747537828.2392986,-0.07,-0.26,0.11,-0.002181661564992912,-0.002181661564992912,-0.003272492347489368,2.0617017708454273,-0.15564350336475896,-0.2587598125366567,0,0,0,0,0,0,1500,1500,1500,1500,1500,1500
1747537828.324101,-0.07,-0.26,0.11,-0.002181661564992912,-0.002181661564992912,-0.003272492347489368,2.0617017708454273,-0.15564350336475896,-0.2587598125366567,0,0,0,0,0,0,1500,1500,1500,1500,1500,1500
1747537828.4237437,-0.04,-0.26,0.14,0.003272492347489368,0.003272492347489368,-0.002181661564992912,2.0617017708454273,-0.15564350336475896,-0.2587598125366567,0,0,0,0,0,0,1500,1500,1500,1500,1500,1500
1747537828.5225778,-0.03,-0.29,0.16,-0.001090830782496456,-0.002181661564992912,0.001090830782496456,2.0617017708454273,-0.15564350336475896,-0.2587598125366567,0,0,0,0,0,0,1500,1500,1500,1500,1500,1500
1747537828.6066437,-0.03,-0.29,0.16,-0.001090830782496456,-0.002181661564992912,0.001090830782496456,2.0617017708454273,-0.15564350336475896,-0.2587598125366567,0,0,0,0,0,0,1500,1500,1500,1500,1500,1500
1747537828.7075202,-0.01,-0.01,-0.03,-0.001090830782496456,0.003272492347489368,0.002181661564992912,2.0617017708454273,-0.15564350336475896,-0.2587598125366567,0,0,0,0,0,0,1500,1500,1500,1500,1500,1500
1747537828.7894344,-0.01,-0.01,-0.03,-0.001090830782496456,0.003272492347489368,0.002181661564992912,2.0617017708454273,-0.15564350336475896,-0.2587598125366567,0,0,0,0,0,0,1500,1500,1500,1500,1500,1500
1747537828.8904767,-0.01,-0.01,-0.01,0.0,0.001090830782496456,0.002181661564992912,2.0617017708454273,-0.15564350336475896,-0.2587598125366567,0,0,0,0,0,0,1500,1500,1500,1500,1500,1500
1747537828.9913006,-0.01,-0.01,-0.01,0.0,0.001090830782496456,0.002181661564992912,2.0617017708454273,-0.15564350336475896,-0.2587598125366567,0,0,0,0,0,0,1500,1500,1500,1500,1500,1500
1747537829.0744472,0.0,-0.04,0.08,-0.001090830782496456,-0.004363323129985824,0.003272492347489368,2.0617017708454273,-0.15564350336475896,-0.2587598125366567,0,0,0,0,0,0,1500,1500,1500,1500,1500,1500
1747537829.1743987,-0.03,-0.02,-0.01,-0.002181661564992912,-0.00545415391248228,-0.004363323129985824,2.0617017708454273,-0.15564350336475896,-0.2587598125366567,0,0,0,0,0,0,1500,1500,1500,1500,1500,1500
1747537829.2734478,-0.03,-0.02,-0.01,-0.002181661564992912,-0.00545415391248228,-0.004363323129985824,2.0617017708454273,-0.15564350336475896,-0.2587598125366567,0,0,0,0,0,0,1500,1500,1500,1500,1500,1500
1747537829.3742383,0.0,0.0,0.0,-0.001090830782496456,-0.002181661564992912,-0.001090830782496456,2.0617017708454273,-0.15564350336475896,-0.2587598125366567,0,0,0,0,0,0,1500,1500,1500,1500,1500,1500
1747537829.4735832,0.0,0.0,0.0,-0.001090830782496456,-0.002181661564992912,-0.001090830782496456,2.0617017708454273,-0.15564350336475896,-0.2587598125366567,0,0,0,0,0,0,1500,1500,1500,1500,1500,1500
1747537829.5584588,0.02,0.0,0.03,0.004363323129985824,0.004363323129985824,-0.001090830782496456,2.0617017708454273,-0.15564350336475896,-0.2587598125366567,0,0,0,0,0,0,1500,1500,1500,1500,1500,1500
1747537829.6576142,0.0,-0.02,0.0,0.001090830782496456,0.002181661564992912,0.0,2.0617017708454273,-0.15564350336475896,-0.2587598125366567,0,0,0,0,0,0,1500,1500,1500,1500,1500,1500
1747537829.7574492,0.0,-0.02,0.0,0.001090830782496456,0.002181661564992912,0.0,2.0617017708454273,-0.15564350336475896,-0.2587598125366567,0,0,0,0,0,0,1500,1500,1500,1500,1500,1500
1747537829.8594112,0.0,-0.02,0.0,-0.00545415391248228,-0.003272492347489368,-0.001090830782496456,2.0617017708454273,-0.15564350336475896,-0.2587598125366567,0,0,0,0,0,0,1500,1500,1500,1500,1500,1500
1747537829.9592993,0.01,-0.02,0.04,-0.004363323129985824,-0.003272492347489368,-0.003272492347489368,2.0617017708454273,-0.15564350336475896,-0.2587598125366567,0,0,0,0,0,0,1500,1500,1500,1500,1500,1500
1747537830.041857,0.01,-0.02,0.04,-0.004363323129985824,-0.003272492347489368,-0.003272492347489368,2.0617017708454273,-0.15564350336475896,-0.2587598125366567,0,0,0,0,0,0,1500,1500,1500,1500,1500,1500
1747537830.153362,-0.02,-0.03,-0.06,-0.002181661564992912,0.00545415391248228,-0.003272492347489368,2.0617017708454273,-0.15564350336475896,-0.2587598125366567,0,0,0,0,0,0,1500,1500,1500,1500,1500,1500
1747537830.264067,-0.02,-0.03,-0.06,-0.002181661564992912,0.00545415391248228,-0.003272492347489368,2.0617017708454273,-0.15564350336475896,-0.2587598125366567,0,0,0,0,0,0,1500,1500,1500,1500,1500,1500
1747537830.3624575,0.01,-0.01,0.0,0.0,0.001090830782496456,0.002181661564992912,2.0617017708454273,-0.15564350336475896,-0.2587598125366567,0,0,0,0,0,0,1500,1500,1500,1500,1500,1500
1747537830.4578962,0.03,-0.01,0.05,-0.00545415391248228,0.00545415391248228,0.003272492347489368,2.0617017708454273,-0.15564350336475896,-0.2587598125366567,0,0,0,0,0,0,1500,1500,1500,1500,1500,1500
1747537830.5415785,0.03,-0.01,0.05,-0.00545415391248228,0.00545415391248228,0.003272492347489368,2.0617017708454273,-0.15564350336475896,-0.2587598125366567,0,0,0,0,0,0,1500,1500,1500,1500,1500,1500
1747537830.6412866,-0.02,-0.03,-0.01,-0.004363323129985824,0.003272492347489368,0.0,2.0617017708454273,-0.15564350336475896,-0.2587598125366567,0,0,0,0,0,0,1500,1500,1500,1500,1500,1500
1747537830.7404585,-0.02,-0.03,-0.01,-0.004363323129985824,0.003272492347489368,0.0,2.0617017708454273,-0.15564350336475896,-0.2587598125366567,0,0,0,0,0,0,1500,1500,1500,1500,1500,1500
1747537830.825802,0.0,0.0,0.04,0.0,-0.001090830782496456,-0.004363323129985824,2.0617017708454273,-0.15564350336475896,-0.2587598125366567,0,0,0,0,0,0,1500,1500,1500,1500,1500,1500
1747537830.924807,-0.01,-0.03,0.03,0.002181661564992912,-0.001090830782496456,-0.001090830782496456,2.0617017708454273,-0.15564350336475896,-0.2587598125366567,0,0,0,0,0,0,1500,1500,1500,1500,1500,1500
1747537831.0147908,-0.01,-0.03,0.03,0.002181661564992912,-0.001090830782496456,-0.001090830782496456,2.0617017708454273,-0.15564350336475896,-0.2587598125366567,0,0,0,0,0,0,1500,1500,1500,1500,1500,1500
1747537831.1097527,-0.01,0.0,-1.29,0.006544984694978736,-0.006544984694978736,-0.001090830782496456,2.0617017708454273,-0.15564350336475896,-0.2587598125366567,0,0,0,0,0,0,1500,1500,1500,1500,1500,1500
1747537831.207814,-0.01,0.0,-1.29,0.006544984694978736,-0.006544984694978736,-0.001090830782496456,2.0617017708454273,-0.15564350336475896,-0.2587598125366567,0,0,0,0,0,0,1500,1500,1500,1500,1500,1500
1747537831.291367,0.0,0.0,0.04,0.00545415391248228,0.009817477042468103,0.007635815477475192,2.0617017708454273,-0.15564350336475896,-0.2587598125366567,0,0,0,0,0,0,1500,1500,1500,1500,1500,1500
1747537831.3862317,0.0,-0.03,0.03,0.00545415391248228,0.009817477042468103,0.009817477042468103,2.0617017708454273,-0.15564350336475896,-0.2587598125366567,0,0,0,0,0,0,1500,1500,1500,1500,1500,1500
1747537831.4904227,0.0,-0.03,0.03,0.00545415391248228,0.009817477042468103,0.009817477042468103,2.0617017708454273,-0.15564350336475896,-0.2587598125366567,0,0,0,0,0,0,1500,1500,1500,1500,1500,1500
1747537831.5736465,-0.03,-0.04,-0.02,0.007635815477475192,0.003272492347489368,0.00545415391248228,2.0617017708454273,-0.15564350336475896,-0.2587598125366567,0,0,0,0,0,0,1500,1500,1500,1500,1500,1500
1747537831.6731677,-0.03,-0.04,-0.02,0.007635815477475192,0.003272492347489368,0.00545415391248228,2.0617017708454273,-0.15564350336475896,-0.2587598125366567,0,0,0,0,0,0,1500,1500,1500,1500,1500,1500
1747537831.7741604,0.03,-0.01,0.04,-0.004363323129985824,0.0,-0.001090830782496456,2.0617017708454273,-0.15564350336475896,-0.2587598125366567,0,0,0,0,0,0,1500,1500,1500,1500,1500,1500
1747537831.8737533,0.0,-0.03,-0.02,-0.00545415391248228,-0.006544984694978736,-0.002181661564992912,2.0617017708454273,-0.15564350336475896,-0.2587598125366567,0,0,0,0,0,0,1500,1500,1500,1500,1500,1500
1747537831.9735298,0.0,-0.03,-0.02,-0.00545415391248228,-0.006544984694978736,-0.002181661564992912,2.0617017708454273,-0.15564350336475896,-0.2587598125366567,0,0,0,0,0,0,1500,1500,1500,1500,1500,1500
1747537832.0581284,0.0,0.0,-0.04,-0.00545415391248228,-0.007635815477475192,-0.003272492347489368,2.0617017708454273,-0.15564350336475896,-0.2587598125366567,0,0,0,0,0,0,1500,1500,1500,1500,1500,1500
1747537832.1576338,0.0,0.0,-0.04,-0.00545415391248228,-0.007635815477475192,-0.003272492347489368,2.0617017708454273,-0.15564350336475896,-0.2587598125366567,0,0,0,0,0,0,1500,1500,1500,1500,1500,1500
1747537832.2574818,0.02,0.0,0.02,-0.001090830782496456,0.001090830782496456,0.001090830782496456,2.0617017708454273,-0.15564350336475896,-0.2587598125366567,0,0,0,0,0,0,1500,1500,1500,1500,1500,1500
1747537832.3571944,-0.01,-0.01,0.04,-0.004363323129985824,0.002181661564992912,-0.001090830782496456,2.0617017708454273,-0.15564350336475896,-0.2587598125366567,0,0,0,0,0,0,1500,1500,1500,1500,1500,1500
1747537832.457691,-0.01,-0.01,0.04,-0.004363323129985824,0.002181661564992912,-0.001090830782496456,2.0617017708454273,-0.15564350336475896,-0.2587598125366567,0,0,0,0,0,0,1500,1500,1500,1500,1500,1500
1747537832.5404086,-0.01,0.01,0.0,-0.002181661564992912,-0.002181661564992912,-0.002181661564992912,2.0617017708454273,-0.15564350336475896,-0.2587598125366567,0,0,0,0,0,0,1500,1500,1500,1500,1500,1500
1747537832.639996,-0.01,0.01,0.0,-0.002181661564992912,-0.002181661564992912,-0.002181661564992912,2.0617017708454273,-0.15564350336475896,-0.2587598125366567,0,0,0.193498,0,0,0,1463,1463,1536,1500,1460,1460
1747537832.7401857,0.01,0.0,0.08,0.002181661564992912,0.001090830782496456,0.0,2.0617017708454273,-0.15564350336475896,-0.2587598125366567,0,0,6.385449,0,0,0,1461,1461,1540,1500,1420,1420
1747537832.8244834,-0.02,-0.02,0.0,0.006544984694978736,0.002181661564992912,0.003272492347489368,2.0617017708454273,-0.15564350336475896,-0.2587598125366567,0,0,7.5,0,0,0,1461,1461,1540,1500,1380,1380
1747537832.9255233,-0.02,-0.02,0.0,0.006544984694978736,0.002181661564992912,0.003272492347489368,2.0617017708454273,-0.15564350336475896,-0.2587598125366567,0,0,7.5,0,0,0,1461,1461,1540,1500,1354,1365
1747537833.0104425,0.23,-0.07,0.16,-0.018544123302439753,0.04363323129985824,0.017453292519943295,2.0602364662038615,-0.1579079546408312,-0.25757013209545065,0,0,7.5,0,0,0,1461,1461,1540,1500,1354,1365
1747537833.1103032,0.23,-0.07,0.16,-0.018544123302439753,0.04363323129985824,0.017453292519943295,2.0602364662038615,-0.1579079546408312,-0.25757013209545065,0,0,7.5,0,0,0,1461,1461,1540,1500,1354,1365
1747537833.20848,0.02,0.08,0.16,-0.35124751196385884,0.12435470920459599,0.04908738521234052,2.037862893435895,-0.17005934650403481,-0.24737072545513253,0,0,7.5,0,0,0,1461,1461,1540,1500,1354,1365
1747537833.291268,-0.25,0.03,0.18,-0.767944870877505,0.16907877128695067,0.10799224746714914,1.939263218660723,-0.1913029413582027,-0.23096848847720478,0,0,7.5,0,0,0,1461,1461,1540,1500,1354,1365
1747537833.3902488,-0.25,0.03,0.18,-0.767944870877505,0.16907877128695067,0.10799224746714914,1.939263218660723,-0.1913029413582027,-0.23096848847720478,0,0,7.5,0,0,0,1461,1461,1540,1500,1354,1365
1747537833.49105,0.0,-0.09,0.1,-1.0439250588491085,0.17889624832941878,0.12108221685710661,1.789761161103582,-0.21618329046616552,-0.2102460052867729,0,0,7.5,0,0,0,1461,1461,1540,1500,1354,1365
1747537833.5748143,0.0,-0.09,0.1,-1.0439250588491085,0.17889624832941878,0.12108221685710661,1.789761161103582,-0.21618329046616552,-0.2102460052867729,0,0,7.190402,0,0,0,1461,1461,1540,1500,1354,1365
1747537833.6739652,0.0,-0.08,-0.01,-1.1617347833587257,0.17780541754692233,0.12871803233458182,1.623352007828964,-0.2378884413604837,-0.18714562844975466,0,0,0,0,0,0,1500,1500,1500,1500,1394,1405
1747537833.7675636,0.2,0.0,-0.24,-1.249001245958442,0.17671458676442586,0.1439896632895322,1.4288283153530226,-0.25753106947968984,-0.15789198837137194,0,0,0,0,0,0,1500,1500,1500,1500,1434,1445
1747537833.8592577,0.2,0.0,-0.24,-1.249001245958442,0.17671458676442586,0.1439896632895322,1.4288283153530226,-0.25753106947968984,-0.15789198837137194,0,0,0,0,0,0,1500,1500,1500,1500,1474,1485
1747537833.9594347,-0.03,-0.37,-0.32,-0.9621127501618741,0.1308996938995747,0.14289883250703572,1.2543489970339547,-0.27313899101272776,-0.12934850131233167,0,0,0,0,0,0,1500,1500,1500,1500,1500,1500
1747537834.0416436,-0.03,-0.37,-0.32,-0.9621127501618741,0.1308996938995747,0.14289883250703572,1.2543489970339547,-0.27313899101272776,-0.12934850131233167,0,0,0,0,0,0,1500,1500,1500,1500,1500,1500
1747537834.1394012,-0.01,-0.26,-0.32,-0.5977752688080579,0.0818123086872342,0.14289883250703572,1.128367051250079,-0.28797047370444023,-0.1050468196388546,0,0,0,0,0,0,1500,1500,1500,1500,1500,1500
1747537834.229187,-0.21,-0.35000000000000003,-0.21,-0.30543261909900765,0.04363323129985824,0.14289883250703572,1.0562026780982072,-0.30312489416112676,-0.08585769543574454,0,0,0,0,0,0,1500,1500,1500,1500,1500,1500
1747537834.3248432,-0.21,-0.35000000000000003,-0.21,-0.30543261909900765,0.04363323129985824,0.14289883250703572,1.0562026780982072,-0.30312489416112676,-0.08585769543574454,0,0,0,0,0,0,1500,1500,1500,1500,1500,1500
1747537834.4243672,-0.17,-0.4,-0.19,-0.07417649320975901,0.02399827721492203,0.12544553998709243,1.0234178204777655,-0.31898881288006165,-0.0703843386773567,0,0,0,0,0,0,1500,1500,1500,1500,1500,1500
1747537834.5090737,-0.17,-0.4,-0.19,-0.07417649320975901,0.02399827721492203,0.12544553998709243,1.0234178204777655,-0.31898881288006165,-0.0703843386773567,0,0,0,0,0,0,1500,1500,1500,1500,1500,1500
1747537834.6076822,-0.16,-0.41000000000000003,-0.22,0.12326387842209953,0.022907446432425576,0.08508480103472356,1.0246528669741943,-0.3310944462647269,-0.05823725745624221,0,0,4.373065,0,0,0,1461,1461,1540,1500,1460,1460
1747537834.6985996,-0.17,-0.38,-0.16,0.2694352032766246,0.0272707695624114,0.03599741582238305,1.0515398081829666,-0.3364639263277655,-0.05057982383454676,0,0,6.664087,0,0,0,1461,1461,1540,1500,1420,1420
1747537834.7904987,-0.17,-0.38,-0.16,0.2694352032766246,0.0272707695624114,0.03599741582238305,1.0515398081829666,-0.3364639263277655,-0.05057982383454676,0,0,5.116099,0,0,0,1461,1461,1540,1500,1380,1380
1747537834.8914642,-0.51,-0.25,-0.04,0.38724492778624187,0.03381575425739013,0.008726646259971648,1.101813109112792,-0.3357011692747336,-0.04598492664638347,0,0,0,0,0,0,1500,1500,1500,1500,1420,1420
1747537834.9905403,-0.51,-0.25,-0.04,0.38724492778624187,0.03381575425739013,0.008726646259971648,1.101813109112792,-0.3357011692747336,-0.04598492664638347,0,0,0,0,0,0,1500,1500,1500,1500,1460,1460
1747537835.0913985,-0.25,-0.1,-0.24,0.3370667117914049,0.07744898555724837,-0.016362461737446838,1.152679866918951,-0.3295039860333652,-0.0382379901137332,0,0,0,0,0,0,1500,1500,1500,1500,1500,1500
1747537835.1901944,-0.13,-0.32,-0.19,0.28907015736156083,0.07526732399225546,-0.0545415391248228,1.1926313689221166,-0.31899235161223116,-0.02843724539587527,0,0,0,0,0,0,1500,1500,1500,1500,1500,1500
1747537835.2745278,-0.13,-0.32,-0.19,0.28907015736156083,0.07526732399225546,-0.0545415391248228,1.1926313689221166,-0.31899235161223116,-0.02843724539587527,0,0,0,0,0,0,1500,1500,1500,1500,1500,1500
1747537835.375173,-0.07,-0.24,0.01,0.3861540970037454,0.05672320068981571,-0.20507618710933373,1.2435632075175695,-0.3061738272872192,-0.021910267778004033,0,0,0,0,0,0,1500,1500,1500,1500,1500,1500
1747537835.4746504,-0.07,-0.24,0.01,0.3861540970037454,0.05672320068981571,-0.20507618710933373,1.2435632075175695,-0.3061738272872192,-0.021910267778004033,0,0,0,0,0,0,1500,1500,1500,1500,1500,1500
1747537835.558098,-0.04,-0.18,0.14,0.43524148221608594,0.04363323129985824,-0.04908738521234052,1.300190099480394,-0.29569209906596217,-0.016695143247434124,0,-0.249818,0,0,0,0,1460,1460,1460,1500,1500,1500
1747537835.658122,-0.08,-0.17,0.16,0.4526947747360292,0.025089107997418487,-0.039269908169872414,1.3657623318592114,-0.2872861436452025,-0.012236122072882919,0,-12.5,0,0,0,0,1420,1420,1420,1500,1500,1500
1747537835.7583923,-0.08,-0.17,0.16,0.4526947747360292,0.025089107997418487,-0.039269908169872414,1.3657623318592114,-0.2872861436452025,-0.012236122072882919,0,-12.5,0,0,0,0,1380,1380,1383,1500,1500,1500
1747537835.8580382,-0.6,-0.09,0.34,0.4374231437810788,0.02181661564992912,-0.008726646259971648,1.4322788486771512,-0.2823904906089319,-0.008778193443746658,0,-12.5,0,0,0,0,1354,1359,1383,1500,1500,1500
1747537835.9503288,-0.73,-0.07,0.3,0.35015668118136234,-0.09381144729469522,-0.09381144729469522,1.4902622320524432,-0.2753037964284631,-0.012292015234857913,0,-12.5,0,0,0,0,1354,1359,1383,1500,1500,1500
1747537836.0418355,-0.73,-0.07,0.3,0.35015668118136234,-0.09381144729469522,-0.09381144729469522,1.4902622320524432,-0.2753037964284631,-0.012292015234857913,0,-12.5,0,0,0,0,1354,1359,1383,1500,1500,1500
1747537836.1405709,-0.13,0.0,-0.16,0.17453292519943295,-0.18544123302439752,-0.3076142806640006,1.5341669701642655,-0.23793522252484597,-0.03813810360201516,0,-12.5,0,0,0,0,1354,1359,1383,1500,1500,1500
1747537836.240438,-0.13,0.0,-0.16,0.17453292519943295,-0.18544123302439752,-0.3076142806640006,1.5341669701642655,-0.23793522252484597,-0.03813810360201516,0,-12.5,0,0,0,0,1354,1359,1383,1500,1500,1500
1747537836.3254447,0.27,0.06,0.23,0.09599310885968812,-0.23125612588924865,-0.35779249665883756,1.558357585903696,-0.18926513494926148,-0.06984583161640905,0,-12.5,0,0,0,0,1354,1359,1383,1500,1500,1500
1747537836.4218674,-0.13,0.0,0.08,0.08835729338221293,-0.2530727415391778,-0.39706240482870997,1.5782662644164849,-0.13117790731956233,-0.10754572900828509,0,-12.5,0,0,0,0,1354,1359,1383,1500,1500,1500
1747537836.5255933,-0.13,0.0,0.08,0.08835729338221293,-0.2530727415391778,-0.39706240482870997,1.5782662644164849,-0.13117790731956233,-0.10754572900828509,0,-12.5,0,0,0,0,1354,1359,1383,1500,1500,1500
1747537836.6251922,0.17,0.12,0.19,0.10362892433716332,-0.26725354171163174,-0.4166973589136462,1.597038255301021,-0.0673330966548777,-0.1464645866688968,0,-12.5,0,0,0,0,1354,1359,1383,1500,1500,1500
1747537836.7252972,0.17,0.12,0.19,0.10362892433716332,-0.26725354171163174,-0.4166973589136462,1.597038255301021,-0.0673330966548777,-0.1464645866688968,0,-12.5,0,0,0,0,1354,1359,1383,1500,1500,1500
1747537836.8092933,0.14,0.1,0.05,0.11999138607461016,-0.2923426497090502,-0.4046982203061852,1.6143959671524537,-0.0026784571248716625,-0.18681816168202367,0,-12.5,0,0,0,0,1354,1359,1383,1500,1500,1500
1747537836.9067292,0.17,-0.02,0.11,0.13308135546456762,-0.29670597283903605,-0.38069994309126315,-1.6024636742394156,0.3168485026112076,0.17605759167327428,0,-12.5,0,0,0,0,1354,1359,1383,1500,1500,1500
1747537837.0079317,0.17,-0.02,0.11,0.13308135546456762,-0.29670597283903605,-0.38069994309126315,-1.6024636742394156,0.3168485026112076,0.17605759167327428,0,-12.5,0,0,0,0,1354,1359,1383,1500,1500,1500
1747537837.1079543,0.09,-0.09,0.04,0.15489797111449674,-0.2683443724941282,-0.33052172709642613,1.6473783769250223,0.11381797283730216,-0.26752708356166194,0,-12.5,0,0,0,0,1354,1359,1383,1500,1500,1500
1747537837.2074666,0.09,-0.09,0.04,0.15489797111449674,-0.2683443724941282,-0.33052172709642613,1.6473783769250223,0.11381797283730216,-0.26752708356166194,0,-12.5,0,0,0,0,1354,1359,1383,1500,1500,1500
1747537837.2909884,0.0,0.0,0.08,0.14508049407202864,-0.2617993877991494,-0.2814343418840856,1.6629981580483564,0.162487957233395,-0.30490457111065794,0,-12.5,0,0,0,0,1354,1359,1383,1500,1500,1500
1747537837.3915272,0.14,-0.1,0.0,0.13308135546456762,-0.2454369260617026,-0.23234695667174513,1.6756226159050436,0.20202231895423836,-0.33917998297789265,0,-12.5,0,0,0,0,1354,1359,1383,1500,1500,1500
1747537837.4904854,0.14,-0.1,0.0,0.13308135546456762,-0.2454369260617026,-0.23234695667174513,1.6756226159050436,0.20202231895423836,-0.33917998297789265,0,-12.5,0,0,0,0,1354,1359,1383,1500,1500,1500
1747537837.5913062,0.17,-0.06,0.06,0.11344640137963143,-0.24216443371421323,-0.18435040224190105,1.686072187650524,0.23671940630293734,-0.37449963380774726,0,-12.5,0,0,0,0,1354,1359,1383,1500,1500,1500
1747537837.6805665,0.09,-0.1,0.09,0.06981317007977318,-0.25089107997418486,-0.1461713248545251,1.6900426488213935,0.26454514682855773,-0.41103412687071017,0,-5.746281,0,0,0,0,1354,1359,1383,1500,1500,1500
1747537837.7751753,0.09,-0.1,0.09,0.06981317007977318,-0.25089107997418486,-0.1461713248545251,1.6900426488213935,0.26454514682855773,-0.41103412687071017,0,0,0,0,0,0,1394,1399,1423,1500,1500,1500
1747537837.8744545,0.08,0.0,0.11,0.04363323129985824,-0.2476185876266955,-0.09926560120717749,1.687488541703508,0.28621561500748516,-0.4485080926662292,0,0,0,0,0,0,1434,1439,1463,1500,1500,1500
1747537837.974147,0.08,0.0,0.11,0.04363323129985824,-0.2476185876266955,-0.09926560120717749,1.687488541703508,0.28621561500748516,-0.4485080926662292,0,0,0,0,0,0,1474,1479,1500,1500,1500,1500
1747537838.0579882,0.89,-0.09,-0.09,0.08835729338221293,-0.16035212502697901,0.055632369907319255,1.68650219414612,0.2934177957892452,-0.4814865584418433,0,0,0,0,0,0,1500,1500,1500,1500,1500,1500
1747537838.1504686,0.18,-0.11,0.29,0.1538071403320003,-0.08726646259971647,0.26398104936414235,1.6967159544447628,0.26254290187588786,-0.5030011213501944,0,0,0,0,0,0,1500,1500,1500,1500,1500,1500
1747537838.2581432,0.18,-0.11,0.29,0.1538071403320003,-0.08726646259971647,0.26398104936414235,1.6967159544447628,0.26254290187588786,-0.5030011213501944,0,0,0,0,0,0,1500,1500,1500,1500,1500,1500
1747537838.3570561,0.09,-0.07,0.18,0.18762289458939044,-0.06435901616729091,0.37960911230876665,1.7173765844519187,0.21206968745380203,-0.5225591852555256,0,0,0,0,0,0,1500,1500,1500,1500,1500,1500
1747537838.45692,0.09,-0.07,0.18,0.18762289458939044,-0.06435901616729091,0.37960911230876665,1.7173765844519187,0.21206968745380203,-0.5225591852555256,0,0,0,0,0,0,1500,1500,1500,1500,1500,1500
1747537838.5413208,0.07,-0.07,0.12,0.19744037163185854,-0.04581489286485115,0.44833145160604343,1.7406161956462423,0.15361122004784694,-0.5406190416875515,0,0,0,0,0,0,1500,1500,1500,1500,1500,1500
1747537838.6400607,0.05,-0.04,0.14,0.19744037163185854,-0.039269908169872414,0.5170537909033202,1.7677965622433682,0.08058275704189086,-0.5611472253068448,0,0,0,0,0,0,1500,1500,1500,1500,1500,1500
1747537838.7403274,0.05,-0.04,0.14,0.19744037163185854,-0.039269908169872414,0.5170537909033202,1.7677965622433682,0.08058275704189086,-0.5611472253068448,0,0,0,0,0,0,1500,1500,1500,1500,1500,1500
1747537838.8268836,0.02,0.06,0.06,0.19525871006686563,-0.025089107997418487,0.543233729683235,1.7944922924165887,0.005276190382507805,-0.5821026788464759,0,0,0,0,0,0,1500,1500,1500,1500,1500,1500
1747537838.9247684,0.02,0.06,0.06,0.19525871006686563,-0.025089107997418487,0.543233729683235,1.7944922924165887,0.005276190382507805,-0.5821026788464759,0,0,0,0,0,0,1500,1500,1500,1500,1500,1500
1747537839.0248187,-0.03,0.16,0.05,0.19416787928436915,-0.02181661564992912,0.5148721293383273,1.8243726138921448,-0.07370584910305016,-0.6051223481723289,0,0,0,0,0,0,1500,1500,1500,1500,1500,1500
1747537839.1250055,-0.02,0.13,0.04,0.16689710972195776,-0.03490658503988659,0.45487643630102215,1.8545287520559937,-0.14437173941763065,-0.6291525487180911,0,0,0,0,0,0,1500,1500,1500,1500,1500,1500
1747537839.2244189,-0.02,0.13,0.04,0.16689710972195776,-0.03490658503988659,0.45487643630102215,1.8545287520559937,-0.14437173941763065,-0.6291525487180911,0,0,0,0,0,0,1500,1500,1500,1500,1500,1500
1747537839.3081875,-0.04,0.15,0.04,0.13962634015954636,-0.037088246604879506,0.39051742013373125,1.8818997615728446,-0.20398568326067373,-0.6539805933397356,0,0,0,0,0,0,1500,1500,1500,1500,1500,1500
1747537839.4026444,-0.06,0.11,0.03,0.12326387842209953,-0.04254240051736178,0.33161255787892263,1.9057301264723248,-0.25163047066444655,-0.6768637040099931,0,0,0,0,0,0,1500,1500,1500,1500,1500,1500
1747537839.5082,-0.06,0.11,0.03,0.12326387842209953,-0.04254240051736178,0.33161255787892263,1.9057301264723248,-0.25163047066444655,-0.6768637040099931,0,0,0,0,0,0,1500,1500,1500,1500,1500,1500
1747537839.6073368,-0.07,0.13,0.09,0.10144726277217041,-0.038179077387375956,0.2792526803190927,1.928911196598832,-0.2938547673052304,-0.6996883457032976,0,0,0,0,0,0,1500,1500,1500,1500,1500,1500
1747537839.7081637,-0.07,0.13,0.09,0.10144726277217041,-0.038179077387375956,0.2792526803190927,1.928911196598832,-0.2938547673052304,-0.6996883457032976,0,0,0,0,0,0,1500,1500,1500,1500,1500,1500
1747537839.7915325,-0.07,0.15,0.03,0.07963064712224129,-0.03381575425739013,0.22580197197676638,1.9482536184569186,-0.32604026146260706,-0.7192631739631736,0,0,0,0,0,0,1500,1500,1500,1500,1500,1500
1747537839.8904052,-0.09,0.14,0.01,0.06435901616729091,-0.03381575425739013,0.18216874067690814,1.965867045081947,-0.3533012796368235,-0.7371667634906278,0,0,0,0,0,0,1500,1500,1500,1500,1500,1500
1747537839.9916017,-0.09,0.14,0.01,0.06435901616729091,-0.03381575425739013,0.18216874067690814,1.965867045081947,-0.3533012796368235,-0.7371667634906278,0,0,0,0,0,0,1500,1500,1500,1500,1500,1500
1747537840.0901434,-0.1,0.15,0.06,0.04581489286485115,-0.031634092692397225,0.12980886311707826,1.9785282904920634,-0.37245779810077145,-0.751418542910327,0,0,0,0,0,0,1500,1500,1500,1500,1500,1500
1747537840.1909544,-0.1,0.15,0.06,0.04581489286485115,-0.031634092692397225,0.12980886311707826,1.9785282904920634,-0.37245779810077145,-0.751418542910327,0,0,0,0,0,0,1500,1500,1500,1500,1500,1500
1747537840.274525,-0.1,0.12,0.07,0.025089107997418487,-0.028361600344907856,0.07090400086226964,1.9865355546679657,-0.3835186373014894,-0.7622939666021938,0,0,0,0,0,0,1500,1500,1500,1500,1500,1500
1747537840.3745437,-0.13,0.12,0.07,-0.00545415391248228,-0.02945243112740431,0.013089969389957472,1.9890942285915165,-0.3860453058339751,-0.7693435118617099,0,0,0,0,0,0,1500,1500,1500,1500,1500,1500
1747537840.4755118,-0.13,0.12,0.07,-0.00545415391248228,-0.02945243112740431,0.013089969389957472,1.9890942285915165,-0.3860453058339751,-0.7693435118617099,0,0,0,0,0,0,1500,1500,1500,1500,1500,1500
1747537840.5578165,-0.11,0.1,0.12,-0.030543261909900768,-0.0272707695624114,-0.039269908169872414,1.9868231431588002,-0.38148805894412063,-0.7718992010408958,0,0,0,0,0,0,1500,1500,1500,1500,1500,1500
1747537840.6577592,-0.11,0.1,0.12,-0.030543261909900768,-0.0272707695624114,-0.039269908169872414,1.9868231431588002,-0.38148805894412063,-0.7718992010408958,0,0,0,0,0,0,1500,1500,1500,1500,1500,1500
1747537840.7574756,-0.1,0.08,0.06,-0.04690572364734761,-0.02399827721492203,-0.07963064712224129,1.9796561070044225,-0.37069722471702643,-0.7714936522610347,0,0,0,0,0,0,1500,1500,1500,1500,1500,1500
1747537840.8581543,-0.09,0.09,0.13,-0.05999569303730508,-0.022907446432425576,-0.12435470920459599,1.9688657851830167,-0.35357614937210147,-0.7679650163626738,0,0,0,0,0,0,1500,1500,1500,1500,1500,1500
1747537840.9578612,-0.09,0.09,0.13,-0.05999569303730508,-0.022907446432425576,-0.12435470920459599,1.9688657851830167,-0.35357614937210147,-0.7679650163626738,0,0,0,0,0,0,1500,1500,1500,1500,1500,1500
1747537841.0414546,-0.1,0.03,0.06,-0.05890486225480862,-0.018544123302439753,-0.019634954084936207,1.9572634847932757,-0.3325306864590599,-0.7619664566779358,0,0,0,0,0,0,1500,1500,1500,1500,1500,1500
1747537841.136538,-0.11,0.0,0.08,-0.04581489286485115,-0.009817477042468103,-0.1810779098944117,1.9454584564951574,-0.3066080721069457,-0.7529943155335055,0,0,0,0,0,0,1500,1500,1500,1500,1500,1500
1747537841.2408183,-0.11,0.0,0.08,-0.04581489286485115,-0.009817477042468103,-0.1810779098944117,1.9454584564951574,-0.3066080721069457,-0.7529943155335055,0,0,0,0,0,0,1500,1500,1500,1500,1500,1500
1747537841.32692,-0.11,0.0,0.11,-0.020725784867432664,0.004363323129985824,-0.1810779098944117,1.9369422309357769,-0.2799397305058312,-0.7422087132491729,0,0,0,0,0,0,1500,1500,1500,1500,1500,1500
1747537841.4257927,-0.11,0.0,0.11,-0.020725784867432664,0.004363323129985824,-0.1810779098944117,1.9369422309357769,-0.2799397305058312,-0.7422087132491729,0,0,0,0,0,0,1500,1500,1500,1500,1500,1500
1747537841.5078208,-0.11,-0.03,0.08,0.004363323129985824,0.020725784867432664,-0.16689710972195776,1.9327767010011665,-0.25515882482184554,-0.7310548188975499,0,0,0,0,0,0,1500,1500,1500,1500,1500,1500
1747537841.608297,-0.11,0.0,0.13,0.032724923474893676,0.03599741582238305,-0.13744467859455345,1.9322992889147934,-0.23467175169350254,-0.7176786148525941,0,0,0,0,0,0,1500,1500,1500,1500,1500,1500
1747537841.7069964,-0.11,0.0,0.13,0.032724923474893676,0.03599741582238305,-0.13744467859455345,1.9322992889147934,-0.23467175169350254,-0.7176786148525941,0,0,0,0,0,0,1500,1500,1500,1500,1500,1500
1747537841.7906547,-0.09,-0.01,0.19,0.05672320068981571,0.05890486225480862,-0.09708393964218458,1.9362370343727755,-0.22111043560310983,-0.7045038733354438,0,0,0,0,0,0,1500,1500,1500,1500,1500,1500
1747537841.8907182,-0.09,-0.01,0.19,0.05672320068981571,0.05890486225480862,-0.09708393964218458,1.9362370343727755,-0.22111043560310983,-0.7045038733354438,0,0,0,0,0,0,1500,1500,1500,1500,1500,1500
1747537841.9908183,-0.12,0.0,0.12,0.07526732399225546,0.07417649320975901,-0.05890486225480862,1.943870397072745,-0.2135286450316224,-0.6903252980910183,0,0,0,0,0,0,1500,1500,1500,1500,1500,1500
1747537842.0906253,-0.1,0.01,0.15,0.08617563181722002,0.09272061651219876,-0.03490658503988659,1.952887371266956,-0.211544303472415,-0.6761672681841434,0,0,0,0,0,0,1500,1500,1500,1500,1500,1500
1747537842.1906567,-0.1,0.01,0.15,0.08617563181722002,0.09272061651219876,-0.03490658503988659,1.952887371266956,-0.211544303472415,-0.6761672681841434,0,0,0,0,0,0,1500,1500,1500,1500,1500,1500
1747537842.2748327,-0.1,0.03,0.14,0.08508480103472356,0.10471975511965978,-0.028361600344907856,1.962258852165646,-0.2123567075461761,-0.65967004813155,0,0,0,0,0,0,1500,1500,1500,1500,1500,1500
1747537842.3740692,-0.1,0.03,0.14,0.08508480103472356,0.10471975511965978,-0.028361600344907856,1.962258852165646,-0.2123567075461761,-0.65967004813155,0,0,0,0,0,0,1500,1500,1500,1500,1500,1500
1747537842.474872,-0.1,0.05,0.08,0.07417649320975901,0.10690141668465268,-0.022907446432425576,1.969724397206064,-0.2141310422343816,-0.6424530960269002,0,0,0,0,0,0,1500,1500,1500,1500,1500,1500
1747537842.55792,-0.1,0.05,0.08,0.07417649320975901,0.10690141668465268,-0.022907446432425576,1.969724397206064,-0.2141310422343816,-0.6424530960269002,0,0,0,0,0,0,1500,1500,1500,1500,1500,1500
1747537842.6579573,-0.1,0.08,0.07,0.05999569303730508,0.10690141668465268,-0.026179938779914945,1.9753258982347959,-0.21601790779118948,-0.6253502680621164,0,0,0,0,0,0,1500,1500,1500,1500,1500,1500
1747537842.7576225,-0.09,0.1,0.08,0.0545415391248228,0.11126473981463851,-0.03490658503988659,1.9791805549990966,-0.21744515217878155,-0.6075259606198538,0,0,0,0,0,0,1500,1500,1500,1500,1500,1500
1747537842.8578644,-0.09,0.1,0.08,0.0545415391248228,0.11126473981463851,-0.03490658503988659,1.9791805549990966,-0.21744515217878155,-0.6075259606198538,0,0,0,0,0,0,1500,1500,1500,1500,1500,1500
1747537842.9580529,-0.12,0.07,0.04,0.038179077387375956,0.10690141668465268,-0.04799655442984406,1.9809327202742018,-0.21743738458136075,-0.5895718972181178,0,0,0,0,0,0,1500,1500,1500,1500,1500,1500
1747537843.0404422,-0.07,0.09,0.1,0.02399827721492203,0.11344640137963143,-0.05672320068981571,1.9806399046300776,-0.2158291983947113,-0.5696524283415069,0,0,0,0,0,0,1500,1500,1500,1500,1500,1500
1747537843.1404731,-0.07,0.09,0.1,0.02399827721492203,0.11344640137963143,-0.05672320068981571,1.9806399046300776,-0.2158291983947113,-0.5696524283415069,0,0,0,0,0,0,1500,1500,1500,1500,1500,1500
1747537843.2417657,-0.1,0.08,0.04,0.008726646259971648,0.10690141668465268,-0.06872233929727672,1.9781919413175468,-0.21285345380896314,-0.5503940472042499,0,0,0,0,0,0,1500,1500,1500,1500,1500,1500
1747537843.3399405,-0.08,0.08,0.08,-0.001090830782496456,0.11780972450961724,-0.07635815477475191,1.973785724532697,-0.20953872489528297,-0.5288893574620734,0,0,0,0,0,0,1500,1500,1500,1500,1500,1500
1747537843.4405918,-0.08,0.08,0.08,-0.001090830782496456,0.11780972450961724,-0.07635815477475191,1.973785724532697,-0.20953872489528297,-0.5288893574620734,1,0,0,0,0,0,1460,1540,1536,1540,1540,1460
1747537843.524758,-0.11,0.07,0.16,-0.004363323129985824,0.12326387842209953,-0.07853981633974483,1.9688167159079568,-0.20580690475625174,-0.5057556010574586,1,0,0,0,0,0,1446,1553,1536,1580,1580,1420
1747537843.6254277,-0.11,0.07,0.16,-0.004363323129985824,0.12326387842209953,-0.07853981633974483,1.9688167159079568,-0.20580690475625174,-0.5057556010574586,1,0,0,0,0,0,1446,1553,1536,1620,1596,1403
1747537843.7249014,-0.15,0.06,0.07,-0.011999138607461015,0.13199052468207118,-0.08508480103472356,1.9625316797913737,-0.20152627648532478,-0.48205271579199405,1,0,0,0,0,0,1446,1553,1536,1645,1596,1403
1747537843.8077266,0.05,0.26,0.08,0.038179077387375956,0.1538071403320003,-0.16689710972195776,1.9567351470489902,-0.19415149729119918,-0.45778254873667057,1,0,0,0,0,0,1446,1553,1536,1645,1596,1403
1747537843.9079344,0.05,0.26,0.08,0.038179077387375956,0.1538071403320003,-0.16689710972195776,1.9567351470489902,-0.19415149729119918,-0.45778254873667057,1,0,0,0,0,0,1446,1553,1536,1645,1596,1403
1747537844.0097287,-0.09,0.86,-0.08,-0.11017390903214205,0.20616701789183017,-0.3839724354387525,1.9560424275903192,-0.1677470555545004,-0.4176013377661499,1,0,0,0,0,0,1446,1553,1536,1645,1596,1403
1747537844.1092865,-0.09,0.86,-0.08,-0.11017390903214205,0.20616701789183017,-0.3839724354387525,1.9560424275903192,-0.1677470555545004,-0.4176013377661499,1,0,0,0,0,0,1446,1553,1536,1645,1596,1403
1747537844.207536,0.0,0.26,-0.02,-0.5465062220307244,0.2814343418840856,-0.5661411761156606,3.039695009417527,1.5707963267948966,2.6788479568654253,1,0,0,0,0,0,1446,1553,1536,1645,1596,1403
1747537844.2917533,-0.06,0.02,-0.06,-0.815941425307349,0.3239767424014474,-0.6239552075879728,1.7846074992563623,-0.03603074167011148,-0.28761054113675283,1,0,0,0,0,0,1446,1553,1536,1645,1596,1403
1747537844.3909476,-0.06,0.02,-0.06,-0.815941425307349,0.3239767424014474,-0.6239552075879728,1.7846074992563623,-0.03603074167011148,-0.28761054113675283,1,0,0,0,0,0,1446,1553,1536,1645,1596,1403
1747537844.4917839,0.06,-0.03,-0.23,-1.0428342280666119,0.3327033886614191,-0.5617778529856748,1.639221182556477,0.04824974704948183,-0.2228293494866598,1,0,0,0,0,0,1446,1553,1536,1645,1596,1403
1747537844.5917993,0.06,-0.03,-0.23,-1.0428342280666119,0.3327033886614191,-0.5617778529856748,1.639221182556477,0.04824974704948183,-0.2228293494866598,1,0,0,0,0,0,1446,1553,1536,1645,1596,1403
1747537844.691824,-0.18,-0.31,-0.25,-1.2326387842209952,0.3021601267515183,-0.4603305902135044,1.466087571046531,0.12830455812705086,-0.17417241626416405,1,0,0,0,0,0,1446,1553,1536,1645,1596,1403
1747537844.791691,-0.04,-0.71,0.14,-0.8628471489546967,0.2476185876266955,-0.15817046346198613,1.3023006101981442,0.18445344120214205,-0.1403224447513649,1,0,0,0,0,0,1446,1553,1536,1645,1596,1403
1747537844.8915787,-0.04,-0.71,0.14,-0.8628471489546967,0.2476185876266955,-0.15817046346198613,1.3023006101981442,0.18445344120214205,-0.1403224447513649,1,0,0,0,0,0,1446,1553,1536,1645,1596,1403
1747537844.9930296,-0.02,-0.31,0.1,-0.5312345910757741,0.1341721862470641,0.07417649320975901,1.202949713282332,0.1992849114974304,-0.11465853336755713,0,0,0,0,0,0,1486,1513,1500,1605,1556,1443
1747537845.0928085,-0.13,-0.37,0.2,-0.33815754257390135,0.07526732399225546,0.17016960206944712,1.1393709489077388,0.18833064028668878,-0.0916164163855486,0,12.5,0,0,0,-0.046218,1526,1553,1540,1565,1516,1483
1747537845.191088,-0.13,-0.37,0.2,-0.33815754257390135,0.07526732399225546,0.17016960206944712,1.1393709489077388,0.18833064028668878,-0.0916164163855486,0,12.5,0,0,0,-0.101504,1566,1593,1580,1525,1500,1500
1747537845.2760024,0.0,-0.07,0.13,-0.4428772976935611,0.04036073895236887,0.19525871006686563,1.0827639847730028,0.1665639157453636,-0.07091640980944994,0,12.5,0,0,0,-0.134652,1606,1633,1611,1500,1500,1500
1747537845.373572,0.0,-0.07,0.13,-0.4428772976935611,0.04036073895236887,0.19525871006686563,1.0827639847730028,0.1665639157453636,-0.07091640980944994,0,12.5,0,0,0,-0.150289,1625,1645,1610,1500,1500,1500
1747537845.4747312,0.19,-0.26,-0.18,-0.4526947747360292,0.05781403147231216,0.23125612588924865,1.016055887805779,0.14280439877067927,-0.05080161305096884,0,10.521246,0,0,0,-0.190117,1615,1645,1606,1500,1500,1500
1747537845.5569012,0.63,-0.23,-0.02,-0.2716168648416175,0.11344640137963143,0.2585268954516601,0.9645252291341581,0.11576401247424695,-0.02021279396308012,0,9.777455,0,0,0,-0.248195,1604,1645,1602,1500,1500,1500
1747537845.655951,0.63,-0.23,-0.02,-0.2716168648416175,0.11344640137963143,0.2585268954516601,0.9645252291341581,0.11576401247424695,-0.02021279396308012,0,9.595767,0,0,0,-0.269272,1600,1645,1601,1500,1500,1500
1747537845.756614,0.0,-0.04,-0.08,-0.015271630954950384,0.13962634015954636,0.3817907738737596,0.9495333851755532,0.0825326257761194,0.02856852317562688,0,9.595767,0,0,0,-0.269272,1600,1645,1601,1500,1500,1500
1747537845.8409047,0.0,-0.04,-0.08,-0.015271630954950384,0.13962634015954636,0.3817907738737596,0.9495333851755532,0.0825326257761194,0.02856852317562688,0,9.595767,0,0,0,-0.269272,1600,1645,1601,1500,1500,1500
1747537845.9419687,0.21,-0.12,0.2,0.14289883250703572,0.08072147790473774,0.284706834231575,0.9633195958257601,0.05021056772864133,0.07323466493485548,0,9.595767,0,0,0,-0.269272,1600,1645,1601,1500,1500,1500
1747537846.0239053,-0.37,-0.12,0.23,0.21925698728178766,-0.003272492347489368,0.16689710972195776,0.992574611028887,0.025109865833493804,0.09677764469756615,0,9.595767,0,0,0,-0.269272,1600,1645,1601,1500,1500,1500
1747537846.1237204,-0.37,-0.12,0.23,0.21925698728178766,-0.003272492347489368,0.16689710972195776,0.992574611028887,0.025109865833493804,0.09677764469756615,0,9.595767,0,0,0,-0.161191,1617,1645,1607,1500,1500,1500
1747537846.223874,0.16,0.21,-0.04,0.24652775684419906,-0.09381144729469522,-0.001090830782496456,1.0287634870458184,0.009948775377181177,0.09707341747306059,0,9.595767,0,0,0,-0.248195,1603,1645,1602,1500,1500,1500
1747537846.3075342,0.16,0.21,-0.04,0.24652775684419906,-0.09381144729469522,-0.001090830782496456,1.0287634870458184,0.009948775377181177,0.09707341747306059,0,9.060928,0,0,0,-0.269272,1598,1645,1600,1500,1500,1500
1747537846.4072998,-0.08,0.02,0.2,0.28688849579656794,-0.18435040224190105,-0.17889624832941878,1.0662239374776212,0.01244218712240921,0.07142033103442406,0,0,0,0.507407,0.040605,0,1590,1605,1560,1500,1540,1460
1747537846.5058963,-0.08,-0.33,0.05,0.2912518189265537,-0.23125612588924865,-0.2923426497090502,1.1096762700121139,0.030940387730090096,0.023773413937079144,0,0,0,0.7,0.06012,0,1590,1590,1520,1500,1542,1457
1747537846.5908315,-0.08,-0.33,0.05,0.2912518189265537,-0.23125612588924865,-0.2923426497090502,1.1096762700121139,0.030940387730090096,0.023773413937079144,0,0,0,0.7,0.06012,0,1590,1590,1480,1500,1542,1457
1747537846.6907477,-0.48,-0.24,0.22,0.2792526803190927,-0.32070425005395803,-0.25416357232167425,1.1495689908152404,0.05756932025219767,-0.033855890950892815,0,0,0,0.7,0.035495,0,1590,1590,1440,1500,1539,1460
1747537846.7727628,-0.48,-0.24,0.22,0.2792526803190927,-0.32070425005395803,-0.25416357232167425,1.1495689908152404,0.05756932025219767,-0.033855890950892815,0,0,0,0.7,0.030729,0,1590,1590,1400,1500,1539,1460
1747537846.873697,-0.42,-0.25,0.15,0.36760997370130566,-0.38942658935123475,-0.15817046346198613,1.1937179469233594,0.06926123516152424,-0.09862149281249165,0,0,0,0.7,0.016191,0,1590,1590,1360,1500,1537,1462
1747537846.9730783,-0.16,-0.17,-0.03,0.3621558197888234,-0.4428772976935611,-0.04908738521234052,1.2438033773367536,0.06411178881397628,-0.1639920849388815,0,0,0,0.7,0.009344,0,1590,1590,1354,1500,1537,1462
1747537847.0566285,-0.16,-0.17,-0.03,0.3621558197888234,-0.4428772976935611,-0.04908738521234052,1.2438033773367536,0.06411178881397628,-0.1639920849388815,0,0,0,0.7,0.009344,0,1590,1590,1354,1500,1537,1462
1747537847.1570067,-0.7000000000000001,-0.13,-0.06,0.3534291735288517,-0.6326818538479445,0.050178215994836975,1.2902903550721547,0.04361234183743389,-0.23536478376535414,0,0,0,0.7,0.009344,0,1590,1590,1354,1500,1537,1462
1747537847.2569852,-0.7000000000000001,-0.13,-0.06,0.3534291735288517,-0.6326818538479445,0.050178215994836975,1.2902903550721547,0.04361234183743389,-0.23536478376535414,0,0,0,0.7,0.009344,0,1590,1590,1354,1500,1537,1462
1747537847.3408482,0.09,0.0,-0.2,0.31852258848896514,-0.990474350506782,0.1439896632895322,1.3399354324958153,0.0008780063326723535,-0.3572173112524994,0,0,0,0.7,0.009344,0,1590,1590,1354,1500,1537,1462
1747537847.4413068,0.04,0.0,-0.06,0.2596177262341565,-1.1715522604011936,0.23452861823673804,1.3860865978245602,-0.05932206717948248,-0.5074575787277102,0,0,0,0.7,0.009344,0,1590,1590,1354,1500,1537,1462
1747537847.5426927,0.04,0.0,-0.06,0.2596177262341565,-1.1715522604011936,0.23452861823673804,1.3860865978245602,-0.05932206717948248,-0.5074575787277102,0,0,0,0.7,0.009344,0,1590,1590,1354,1500,1537,1462
1747537847.641198,0.14,-0.09,-0.01,0.22362031041177347,-1.2893619849108109,0.32288591161895097,1.4402363468654733,-0.13333013929386295,-0.6913996036104183,0,0,0,0.7,0.008518,0,1590,1590,1354,1500,1536,1463
1747537847.737076,-0.02,-0.12,-0.09,0.2181661564992912,-1.3700834628155487,0.38942658935123475,1.5094774857006352,-0.20882599252123038,-0.8950512170797607,0,0,0,0.7,0.008518,0,1590,1590,1354,1500,1536,1463
1747537847.8238168,-0.02,-0.12,-0.09,0.2181661564992912,-1.3700834628155487,0.38942658935123475,1.5094774857006352,-0.20882599252123038,-0.8950512170797607,0,0,0,0.7,0.006271,0,1590,1590,1354,1500,1536,1463
1747537847.923831,0.05,-0.17,-0.15,0.22471114119426994,-1.4202616788103857,0.4385139745635753,1.5918981725718397,-0.27391392317861,-1.1026062642278192,0,0,0,0,0,0,1550,1550,1394,1500,1500,1500
1747537848.023645,0.05,-0.17,-0.15,0.22471114119426994,-1.4202616788103857,0.4385139745635753,1.5918981725718397,-0.27391392317861,-1.1026062642278192,0,0,0,0,0,0,1510,1510,1434,1500,1500,1500
1747537848.1238556,0.31,0.03,-0.24,0.1734420944169365,-1.4060808786379317,0.4461497900410505,1.6958566560233994,-0.3276063384662076,-1.3399865030484812,0,0,0,0,0,0,1500,1500,1474,1500,1500,1500
1747537848.2241938,0.34,0.03,-0.14,0.07308566242726255,-1.1159198904938745,0.3337942194439155,1.7857153402726462,-0.35464669355284006,-1.5536105960442814,0,0,0,0,0,0,1500,1500,1500,1500,1500,1500
1747537848.3078377,0.34,0.03,-0.14,0.07308566242726255,-1.1159198904938745,0.3337942194439155,1.7857153402726462,-0.35464669355284006,-1.5536105960442814,0,0,0,0,0,0,1500,1500,1500,1500,1500,1500
1747537848.4070497,0.12,-0.03,-0.12,0.018544123302439753,-0.8344855486097889,0.25089107997418486,1.8474519497106276,-0.3625092911586803,-1.709843925357428,0,0,0,0,0,0,1500,1500,1500,1500,1500,1500
1747537848.5069857,0.12,-0.03,-0.12,0.018544123302439753,-0.8344855486097889,0.25089107997418486,1.8474519497106276,-0.3625092911586803,-1.709843925357428,0,0,0,0,0,0,1500,1500,1500,1500,1500,1500
1747537848.5918262,0.02,-0.07,-0.06,-0.015271630954950384,-0.6643159465403417,0.17016960206944712,1.8943943354796189,-0.36049764884007496,-1.8396028820200725,0,0,0,0,-0.055907,0,1500,1500,1500,1500,1500,1500
1747537848.6904087,0.07,-0.09,-0.14,-0.026179938779914945,-0.5475970528132209,0.1090830782496456,1.9258294232087794,-0.3507115059387561,-1.9365711344725975,0,0,0,0,-0.28,0,1463,1463,1536,1500,1460,1540
1747537848.7727172,0.07,-0.09,-0.14,-0.026179938779914945,-0.5475970528132209,0.1090830782496456,1.9258294232087794,-0.3507115059387561,-1.9365711344725975,0,0,0,0,-0.28,0,1463,1463,1536,1500,1420,1580
1747537848.8728294,0.04,-0.07,-0.1,-0.037088246604879506,-0.4636030825609938,0.06544984694978735,1.9492653159313824,-0.33585798477453715,-2.6808985699705206,0,0,0,0,-0.28,0,1463,1463,1536,1500,1380,1620
1747537848.972828,0.04,-0.07,-0.1,-0.037088246604879506,-0.4636030825609938,0.06544984694978735,1.9492653159313824,-0.33585798477453715,-2.6808985699705206,0,0,0,0,-0.28,0,1463,1463,1536,1500,1354,1645
1747537849.0566795,0.0,0.05,-0.12,-0.18544123302439752,-0.35015668118136234,0.022907446432425576,1.959585855719257,-0.3185571656403289,-2.7423970674903724,0,0,0,0,-0.28,0,1463,1463,1536,1500,1354,1645
1747537849.1518207,-0.22,-0.07,0.28,-0.767944870877505,-0.21162117180431245,-0.02181661564992912,1.9096169517250607,-0.30249347376773417,-2.775670174555222,0,0,0,0,-0.28,0,1463,1463,1536,1500,1354,1645
1747537849.2568758,-0.22,-0.07,0.28,-0.767944870877505,-0.21162117180431245,-0.02181661564992912,1.9096169517250607,-0.30249347376773417,-2.775670174555222,0,0,0,0,-0.28,0,1463,1463,1536,1500,1354,1645
1747537849.3413715,-0.12,0.11,-0.13,-1.349357677948116,-0.08290313946973066,-0.028361600344907856,1.7423538628915813,-0.2917593321713203,-2.7959346104173237,0,0,0,0,-0.28,0,1463,1463,1536,1500,1354,1645
1747537849.4403799,-0.12,0.11,-0.13,-1.349357677948116,-0.08290313946973066,-0.028361600344907856,1.7423538628915813,-0.2917593321713203,-2.7959346104173237,0,0,0,0,-0.28,0,1463,1463,1536,1500,1354,1645
1747537849.5402815,0.0,0.06,-0.4,-1.5631605113174214,0.00545415391248228,-0.008726646259971648,1.5138661120704555,-0.2880710728027118,-2.801197937844903,0,0,0,0,-0.28,0,1463,1463,1536,1500,1354,1645
1747537849.6394858,0.08,0.0,-0.42,-1.6515178046996344,0.08290313946973066,-0.01090830782496456,1.277035044370786,-0.2862542692447095,-2.794404295551155,0,0,0,0,-0.28,0,1463,1463,1536,1500,1354,1645
1747537849.7417543,0.08,0.0,-0.42,-1.6515178046996344,0.08290313946973066,-0.01090830782496456,1.277035044370786,-0.2862542692447095,-2.794404295551155,0,0,0,0,-0.28,0,1463,1463,1536,1500,1354,1645
1747537849.8412569,-0.05,-0.01,-0.31,-1.6689710972195777,0.15489797111449674,-0.02399827721492203,1.013617339267563,-0.2765986258762264,-2.7774819322482833,0,0,0,0,-0.28,0,1463,1463,1536,1500,1354,1645
1747537849.9413164,-0.05,-0.01,-0.31,-1.6689710972195777,0.15489797111449674,-0.02399827721492203,1.013617339267563,-0.2765986258762264,-2.7774819322482833,0,0,0,0,-0.28,0,1463,1463,1536,1500,1354,1645
1747537850.0432832,-0.01,0.23,-0.33,-1.5675238344474072,0.3076142806640006,-0.09272061651219876,0.7575275048831763,-0.2471668045994175,-2.7541407816941583,0,0,4.280186,0,0,0,1461,1461,1540,1500,1354,1605
1747537850.141131,0.12,0.14,-0.39,-1.475894048717705,0.4625122517784973,-0.15162547876700738,0.5177531358888207,-0.18769785720453028,-2.73335769541001,0,0,7.5,0,0,0,1461,1461,1540,1500,1354,1565
1747537850.2405515,0.12,0.14,-0.39,-1.475894048717705,0.4625122517784973,-0.15162547876700738,0.5177531358888207,-0.18769785720453028,-2.73335769541001,0,0,7.5,0,0,0,1461,1461,1540,1500,1354,1525
1747537850.3408706,-0.12,0.22,-0.38,-1.435533309765336,0.5934119456780721,-0.1090830782496456,0.2896281404425653,-0.10275789434945537,-2.7207340367540858,0,0,7.5,0,0,0,1461,1461,1540,1500,1354,1485
1747537850.441743,0.04,0.09,-0.3,-1.4268066635053644,0.6523168079328807,-0.008726646259971648,-3.0298237308410823,-1.5707963267948966,-2.8414166849370623,0,0,7.5,0,0,0,1461,1461,1540,1500,1354,1445
1747537850.541571,0.04,0.09,-0.3,-1.4268066635053644,0.6523168079328807,-0.008726646259971648,-3.0298237308410823,-1.5707963267948966,-2.8414166849370623,0,0,7.5,0,0,0,1461,1461,1540,1500,1354,1405
1747537850.6417894,0.28,0.12,-0.32,-1.4551682638502723,0.6686792696703275,0.07744898555724837,-0.13980957212953637,0.09155919085723659,-2.713407914863891,0,0,0,0,0,0,1500,1500,1500,1500,1394,1445
1747537850.7357552,-0.02,0.09,-0.22,-0.8606654873897037,0.5825036378531074,0.08399397025222712,-0.3289264767093924,0.19142102034350844,-2.730866113831002,0,0,0,0,0,0,1500,1500,1500,1500,1434,1485
1747537850.8235,-0.02,0.09,-0.22,-0.8606654873897037,0.5825036378531074,0.08399397025222712,-0.3289264767093924,0.19142102034350844,-2.730866113831002,0,0,0,0,0,0,1500,1500,1500,1500,1474,1500
1747537850.9248586,-0.29,0.35000000000000003,-0.2,-0.5934119456780721,0.4177881896961426,-0.004363323129985824,-0.44217187266741276,0.26386241542929195,-2.7450294668883113,0,0,-7.190402,0,0,0,1538,1538,1460,1500,1514,1540
1747537851.0232542,-0.29,0.35000000000000003,-0.2,-0.5934119456780721,0.4177881896961426,-0.004363323129985824,-0.44217187266741276,0.26386241542929195,-2.7450294668883113,0,0,-7.5,0,0,0,1538,1538,1459,1500,1554,1580
1747537851.1240208,-0.06,0.27,-0.16,-0.39051742013373125,0.29888763440402893,-0.07526732399225546,-0.5252801599315963,0.3087663283253113,-2.777624452399766,0,0,-7.5,0,0,0,1538,1538,1459,1500,1594,1620
1747537851.2240787,-0.23,0.02,-0.02,-0.2552544031041707,0.2552544031041707,-0.05781403147231216,-0.5806383362311216,0.3414784056746395,-2.8096261527963398,0,0,-7.5,0,0,0,1538,1538,1459,1500,1634,1634
1747537851.3073454,-0.23,0.02,-0.02,-0.2552544031041707,0.2552544031041707,-0.05781403147231216,-0.5806383362311216,0.3414784056746395,-2.8096261527963398,0,0,-7.5,0,0,0,1538,1538,1459,1500,1645,1634
1747537851.407223,0.09,0.65,-0.6,-0.4188790204786391,0.20398535632683726,-0.07963064712224129,-0.6353746639742497,0.36624983396086835,-2.8388785952297573,0,0,-7.5,0,0,0,1538,1538,1459,1500,1645,1634
1747537851.5078328,0.09,0.65,-0.6,-0.4188790204786391,0.20398535632683726,-0.07963064712224129,-0.6353746639742497,0.36624983396086835,-2.8388785952297573,0,0,-7.5,0,0,0,1538,1538,1459,1500,1645,1634
1747537851.607815,0.18,0.05,-0.44,-0.20616701789183017,0.14944381720201447,-0.08617563181722002,-0.7064550815352865,0.38143578325956484,-2.8663463705117005,0,0,-7.5,0,0,0,1538,1538,1459,1500,1645,1634
1747537851.7079148,-0.11,0.11,-0.16,0.11453723216212788,0.1439896632895322,-0.0719948316447661,-0.7204124969934281,0.3935014195690232,-2.8933164376292657,0,0,-7.5,0,0,0,1538,1538,1459,1500,1645,1634
1747537851.791369,-0.11,0.11,-0.16,0.11453723216212788,0.1439896632895322,-0.0719948316447661,-0.7204124969934281,0.3935014195690232,-2.8933164376292657,0,0,-7.5,0,0,0,1538,1538,1459,1500,1645,1634
1747537851.8910086,-0.03,0.25,-0.01,0.31525009614147576,0.17889624832941878,-0.026179938779914945,-0.6949000385046966,0.409832358756214,-2.917021146968165,0,0,-4.527864,0,0,0,1538,1538,1459,1500,1645,1634
1747537851.9904742,-0.03,0.25,-0.01,0.31525009614147576,0.17889624832941878,-0.026179938779914945,-0.6949000385046966,0.409832358756214,-2.917021146968165,0,0,0,0,0,0,1500,1500,1499,1500,1605,1594
1747537852.090465,0.02,0.34,-0.22,0.40906154343617096,0.1734420944169365,-0.008726646259971648,-0.6432936753597112,0.4320195218999238,-2.9368376449343505,0,0,0,0,0,0,1500,1500,1500,1500,1565,1554
1747537852.1907382,0.0,0.46,0.16,0.4406956361285682,0.17889624832941878,0.02399827721492203,-0.5817346716646694,0.45552786638718923,-2.952072405839649,0,0,0,0,0,0,1500,1500,1500,1500,1525,1514
1747537852.2908058,0.0,0.46,0.16,0.4406956361285682,0.17889624832941878,0.02399827721492203,-0.5817346716646694,0.45552786638718923,-2.952072405839649,0,0,0,0,0,0,1500,1500,1500,1500,1500,1500
1747537852.3919413,0.22,0.25,0.26,0.42215151282612845,0.20507618710933373,0.10362892433716332,-0.5169377307352432,0.4833886378725632,-2.9577194262977415,0,0,0,0,0,0,1500,1500,1500,1500,1500,1500
1747537852.4909785,-0.06,0.26,0.19,0.39269908169872414,0.21162117180431245,0.19416787928436915,-0.4474952569632909,0.5219759068490066,-2.948692025548385,0,0,0,0,0,0,1500,1500,1500,1500,1500,1500
1747537852.5738916,-0.06,0.26,0.19,0.39269908169872414,0.21162117180431245,0.19416787928436915,-0.4474952569632909,0.5219759068490066,-2.948692025548385,0,0,0,0,0,0,1500,1500,1500,1500,1500,1500
1747537852.6740708,0.05,0.15,0.12,0.3883357585687383,0.21489366415180183,0.26725354171163174,-0.37777276569937895,0.5638888814345645,-2.9257303001510837,0,0,0,0,0,0,1500,1500,1500,1500,1500,1500
1747537852.7746637,0.05,0.15,0.12,0.3883357585687383,0.21489366415180183,0.26725354171163174,-0.37777276569937895,0.5638888814345645,-2.9257303001510837,0,3.725502,0,0,0,0,1540,1540,1540,1500,1500,1500
1747537852.8738868,0.01,0.13,0.05,0.4036073895236887,0.2203478180642841,0.33815754257390135,-0.2931445575170956,0.6111041316539534,-2.885063955234302,0,12.5,0,0,0,0,1580,1580,1580,1500,1500,1500
1747537852.9730406,0.03,0.03,0.1,0.4145156973486533,0.2378011105842274,0.4134248665661568,-0.20041250099963145,0.6560382781530654,-2.8295064399157646,0,12.5,0,0,0,0,1620,1620,1616,1500,1500,1500
1747537853.0598,0.03,0.03,0.1,0.4145156973486533,0.2378011105842274,0.4134248665661568,-0.20041250099963145,0.6560382781530654,-2.8295064399157646,0,12.5,0,0,0,0,1645,1640,1616,1500,1500,1500
1747537853.1576617,0.27,0.05,0.43,0.45705809786601503,0.26725354171163174,0.4657847441259867,-0.08097131903353494,0.7053771106425266,-2.7442955435133185,0,12.5,0,0,0,0,1645,1640,1616,1500,1500,1500
1747537853.257858,0.27,0.05,0.43,0.45705809786601503,0.26725354171163174,0.4657847441259867,-0.08097131903353494,0.7053771106425266,-2.7442955435133185,0,12.5,0,0,0,0,1645,1640,1616,1500,1500,1500
1747537853.3575675,1.1300000000000001,0.08,0.06,0.5214171140333059,0.20180369476184434,0.37960911230876665,0.04381657762657349,0.7405129909729888,-2.6687264070449404,0,12.5,0,0,0,0,1645,1640,1616,1500,1500,1500
1747537853.4579508,0.6,0.31,-0.13,0.48432886742842646,0.09381144729469522,0.38288160465625604,0.18053495494530078,0.7571837545357577,-2.584772643809159,0,12.5,0,0,0,0,1645,1640,1616,1500,1500,1500
1747537853.5404375,0.6,0.31,-0.13,0.48432886742842646,0.09381144729469522,0.38288160465625604,0.18053495494530078,0.7571837545357577,-2.584772643809159,0,12.5,0,0,0,0,1645,1640,1616,1500,1500,1500
1747537853.6414642,0.13,0.1,0.0,0.4341506514335895,-0.04363323129985824,0.37306412761378793,0.30480316157013976,0.7440670306878086,-2.506407846944719,0,12.5,0,0,0,0,1645,1640,1616,1500,1500,1500
1747537853.7402766,0.22,0.08,0.1,0.42215151282612845,-0.12980886311707826,0.3534291735288517,0.40784452277412875,0.7103121608599591,-2.4452992471272523,0,12.5,0,0,0,0,1645,1640,1616,1500,1500,1500
1747537853.8241906,0.22,0.08,0.1,0.42215151282612845,-0.12980886311707826,0.3534291735288517,0.40784452277412875,0.7103121608599591,-2.4452992471272523,0,12.5,0,0,0,0,1645,1640,1616,1500,1500,1500
1747537853.9237719,-0.03,0.01,0.25,0.4068798818711781,-0.17780541754692233,0.346884188833873,0.504452176549802,0.6622193515996724,-2.395827397441133,0,12.5,0,0,0,0,1645,1640,1616,1500,1500,1500
1747537854.023988,-0.03,0.01,0.25,0.4068798818711781,-0.17780541754692233,0.346884188833873,0.504452176549802,0.6622193515996724,-2.395827397441133,0,12.5,0,0,0,0,1645,1640,1616,1500,1500,1500
1747537854.1244626,-0.07,-0.08,0.07,0.421060682043632,-0.22689280275926285,0.33052172709642613,0.5892025096512415,0.6058118940083553,-2.360679323504184,0,12.5,0,0,0,0,1645,1640,1616,1500,1500,1500
1747537854.2240317,0.42,0.12,0.09,0.459239759431008,-0.2617993877991494,0.3239767424014474,0.6638475484731746,0.5485164273067995,-2.3398755823382884,0,12.5,0,0,0,0,1645,1640,1616,1500,1500,1500
1747537854.306948,0.42,0.12,0.09,0.459239759431008,-0.2617993877991494,0.3239767424014474,0.6638475484731746,0.5485164273067995,-2.3398755823382884,0,12.5,0,0,0,0,1645,1640,1616,1500,1500,1500
1747537854.4079542,0.17,0.11,0.24,0.5061454830783556,-0.28579766501407144,0.3097959422289935,0.7446374949253095,0.4838064648422853,-2.328062770065868,0,12.5,0,0,0,0,1645,1640,1616,1500,1500,1500
1747537854.5076976,0.17,0.11,0.24,0.5061454830783556,-0.28579766501407144,0.3097959422289935,0.7446374949253095,0.4838064648422853,-2.328062770065868,0,12.5,0,0,0,0,1645,1640,1616,1500,1500,1500
1747537854.6078544,0.07,0.0,0.16,0.533416252640767,-0.272707695624114,0.2999784651865254,0.8254661993637089,0.4192898257832572,-2.3245040499945873,0,12.5,0,0,0,0,1645,1640,1616,1500,1500,1500
1747537854.7084422,0.17,0.19,0.13,0.533416252640767,-0.27707101875409984,0.30543261909900765,0.9017670975234318,0.3591636462120968,-2.3263377174326756,0,12.5,0,0,0,0,1645,1640,1616,1500,1500,1500
1747537854.7902565,0.17,0.19,0.13,0.533416252640767,-0.27707101875409984,0.30543261909900765,0.9017670975234318,0.3591636462120968,-2.3263377174326756,0,12.5,0,0,0,0,1645,1640,1616,1500,1500,1500
1747537854.8900657,0.02,0.05,0.01,0.5137812985558308,-0.2977968036215325,0.3021601267515183,0.9783649775513026,0.29508126476929364,-2.335044328095217,0,12.5,0,0,0,0,1645,1640,1616,1500,1500,1500
1747537854.980043,0.13,-0.03,0.08,0.5006913291658733,-0.3196134192714616,0.28361600344907856,1.0511315658476417,0.23173427592165777,-2.3522342982956883,0,12.5,0,0,0,0,1645,1640,1616,1500,1500,1500
1747537855.0745902,0.13,-0.03,0.08,0.5006913291658733,-0.3196134192714616,0.28361600344907856,1.0511315658476417,0.23173427592165777,-2.3522342982956883,0,12.5,0,0,0,0,1645,1640,1616,1500,1500,1500
1747537855.1740434,0.16,0.12,0.23,0.49960049838337683,-0.3337942194439155,0.2683443724941282,1.1174996272636166,0.17431749452878786,-2.376191158867151,0,12.5,0,0,0,0,1645,1640,1616,1500,1500,1500
1747537855.2741055,0.16,0.12,0.23,0.49960049838337683,-0.3337942194439155,0.2683443724941282,1.1174996272636166,0.17431749452878786,-2.376191158867151,0,12.5,0,0,0,0,1645,1640,1616,1500,1500,1500
1747537855.3732522,0.0,0.02,-0.02,0.4930555136883981,-0.35124751196385884,0.2650718801466388,1.1812421516595466,0.10251866380948031,-2.41379118123666,0,12.5,0,0,0,0,1645,1640,1616,1500,1500,1500
1747537855.4735763,0.08,-0.01,0.16,0.49414634447089456,-0.3643374813538163,0.2519819107566813,1.2624123417241144,0.05839942109032447,-2.447533175326796,0,12.5,0,0,0,0,1645,1640,1616,1500,1500,1500
1747537855.5584702,0.08,-0.01,0.16,0.49414634447089456,-0.3643374813538163,0.2519819107566813,1.2624123417241144,0.05839942109032447,-2.447533175326796,0,12.5,0,0,0,0,1645,1640,1616,1500,1500,1500
1747537855.660086,-0.23,0.03,0.12,0.4734205596034619,-0.37306412761378793,0.2519819107566813,1.333988182576139,0.004874457350508953,-2.492241598352677,0,12.5,0,0,0,0,1645,1640,1616,1500,1500,1500
1747537855.7579746,-0.23,0.03,0.12,0.4734205596034619,-0.37306412761378793,0.2519819107566813,1.333988182576139,0.004874457350508953,-2.492241598352677,0,12.5,0,0,0,0,1645,1640,1616,1500,1500,1500
1747537855.858542,-0.16,0.02,0.06,0.4723297288209654,-0.40251655874119224,0.23671027980173096,1.401713459179461,-0.04077804615536714,-2.5401800752740495,0,7.231054,0,0,0,0,1645,1640,1616,1500,1500,1500
1747537855.9579937,-0.32,0.0,0.31,0.4734205596034619,-0.41015237421866746,0.2399827721492203,1.4779470238752193,-0.08601102636216584,-2.5980534095046472,0,0,0,0,0,0,1605,1600,1576,1500,1500,1500
1747537856.0407386,-0.32,0.0,0.31,0.4734205596034619,-0.41015237421866746,0.2399827721492203,1.4779470238752193,-0.08601102636216584,-2.5980534095046472,0,0,0,0,0,0,1565,1560,1536,1500,1500,1500
1747537856.1403675,-1.1500000000000001,-0.11,0.3,0.4657847441259867,-0.4265148359561143,0.22689280275926285,1.5511648920932999,-0.1231031724696486,-2.6565470670055693,0,0,7.46904,0,0,0,1525,1520,1540,1500,1460,1460
1747537856.239752,-0.71,0.13,0.22,0.4046982203061852,-0.4341506514335895,0.20616701789183017,1.6251804235177976,-0.14741227282641284,-2.725284555976879,0,0,7.5,0,0,0,1485,1480,1540,1500,1420,1420
1747537856.323783,-0.71,0.13,0.22,0.4046982203061852,-0.4341506514335895,0.20616701789183017,1.6251804235177976,-0.14741227282641284,-2.725284555976879,0,0,7.5,0,0,0,1461,1461,1540,1500,1380,1380
1747537856.423312,-0.32,0.06,0.25,0.3010692959690218,-0.36979163526629855,0.18216874067690814,1.685120673936522,-0.16289506848633942,-2.7885052194845374,0,0,7.5,0,0,0,1461,1461,1540,1500,1354,1365
1747537856.5241444,-0.32,0.06,0.25,0.3010692959690218,-0.36979163526629855,0.18216874067690814,1.685120673936522,-0.16289506848633942,-2.7885052194845374,0,0,7.5,0,0,0,1461,1461,1540,1500,1354,1365
1747537856.6237018,-0.08,-0.1,0.71,0.20725784867432664,-0.3108867730114899,0.17562375598192942,1.7351152027451127,-0.1792795010164798,-2.8443550172505927,0,0,0,0,0,0,1500,1500,1500,1500,1394,1405
1747537856.7139604,-0.12,-0.14,0.21,0.06872233929727672,-0.2999784651865254,0.2476185876266955,1.7554203352067457,-0.20197282423757323,-2.894176665769269,0,0,-3.444273,0,0,0,1538,1538,1460,1500,1434,1445
1747537856.807791,-0.12,-0.14,0.21,0.06872233929727672,-0.2999784651865254,0.2476185876266955,1.7554203352067457,-0.20197282423757323,-2.894176665769269,0,0,-7.5,0,0,0,1538,1538,1459,1500,1474,1485
