time,ay,ax,az,gy,gx,gz,roll,pitch,yaw,cmd_fx,cmd_fy,cmd_fz,cmd_tx,cmd_ty,cmd_tz,pwm_1,pwm_2,pwm_3,pwm_4,pwm_5,pwm_6
1747554103.0167074,0.0,0.0,0.0,0.0,0.0,0.0,0.0,0.0,0.0,0,0,0,0,0,0,1500,1500,1500,1500,1500,1500
1747554103.1144857,-0.02,-0.23,0.13,-0.10799224746714914,0.00545415391248228,-0.015271630954950384,2.1111920992718205,-0.28501217884897945,-0.3372841317082002,0,0,0,0,0,0,1500,1500,1500,1500,1500,1500
1747554103.1989737,-0.02,-0.23,0.13,-0.10799224746714914,0.00545415391248228,-0.015271630954950384,2.1111920992718205,-0.28501217884897945,-0.3372841317082002,0,0,0,0,0,0,1500,1500,1500,1500,1500,1500
1747554103.2982724,0.04,-0.23,0.19,-0.12980886311707826,-0.009817477042468103,-0.05890486225480862,2.0915766337979207,-0.28012731951460457,-0.33427435642376996,0,0,0,0,0,0,1500,1500,1500,1500,1500,1500
1747554103.3931713,-0.02,-0.28,0.09,-0.13962634015954636,-0.016362461737446838,-0.09381144729469522,2.0708715130000557,-0.2699884162612429,-0.32938674773374105,0,0,0,0,0,0,1500,1500,1500,1500,1500,1500
1747554103.4815946,-0.02,-0.28,0.09,-0.13962634015954636,-0.016362461737446838,-0.09381144729469522,2.0708715130000557,-0.2699884162612429,-0.32938674773374105,0,0,0,0,0,0,1500,1500,1500,1500,1500,1500
1747554103.5820382,0.11,-0.07,0.03,-0.13526301702956053,-0.017453292519943295,-0.11453723216212788,2.048120872467806,-0.254304564549113,-0.3232358511884501,0,0,0,0,0,0,1500,1500,1500,1500,1500,1500
1747554103.6652074,0.11,-0.07,0.03,-0.13526301702956053,-0.017453292519943295,-0.11453723216212788,2.048120872467806,-0.254304564549113,-0.3232358511884501,0,0,0,0,0,0,1500,1500,1500,1500,1500,1500
1747554103.7646644,0.1,-0.1,0.0,-0.1265363707695889,-0.009817477042468103,-0.12762720155208535,2.0263536583518773,-0.2363375415297517,-0.31621395788033285,0,0,0,0,0,0,1500,1500,1500,1500,1500,1500
1747554103.8641856,0.13,-0.11,0.08,-0.10581058590215622,-0.009817477042468103,-0.1265363707695889,2.006636469969686,-0.21807175434530818,-0.3081952555127378,0,0,0,0,0,0,1500,1500,1500,1500,1500,1500
1747554103.9486265,0.13,-0.11,0.08,-0.10581058590215622,-0.009817477042468103,-0.1265363707695889,2.006636469969686,-0.21807175434530818,-0.3081952555127378,0,0,0,0,0,0,1500,1500,1500,1500,1500,1500
1747554104.0484283,0.07,-0.14,0.06,-0.08072147790473774,-0.003272492347489368,-0.11453723216212788,1.9916615039406698,-0.2019211169401074,-0.30057288931941467,0,0,0,0,0,0,1500,1500,1500,1500,1500,1500
1747554104.1485958,0.07,-0.14,0.06,-0.08072147790473774,-0.003272492347489368,-0.11453723216212788,1.9916615039406698,-0.2019211169401074,-0.30057288931941467,0,0,0,0,0,0,1500,1500,1500,1500,1500,1500
1747554104.2483554,0.1,-0.13,0.05,-0.055632369907319255,0.0,-0.09926560120717749,1.979907511236872,-0.18652555797142278,-0.29373039024226266,0,0,0,0,0,0,1500,1500,1500,1500,1500,1500
1747554104.3480651,0.07,-0.16,0.06,-0.0272707695624114,0.0,-0.0818123086872342,1.9731295960256139,-0.1744304596761896,-0.2884906330959332,0,0,0,0,0,0,1500,1500,1500,1500,1500,1500
1747554104.4326067,0.07,-0.16,0.06,-0.0272707695624114,0.0,-0.0818123086872342,1.9731295960256139,-0.1744304596761896,-0.2884906330959332,0,0,0,0,0,0,1500,1500,1500,1500,1500,1500
1747554104.5325248,0.12,-0.12,0.11,-0.003272492347489368,0.009817477042468103,-0.06544984694978735,1.9701220629590854,-0.16403640898399371,-0.28395497336313125,0,0,0,0,0,0,1500,1500,1500,1500,1500,1500
1747554104.632759,0.12,-0.12,0.11,-0.003272492347489368,0.009817477042468103,-0.06544984694978735,1.9701220629590854,-0.16403640898399371,-0.28395497336313125,0,0,0,0,0,0,1500,1500,1500,1500,1500,1500
1747554104.7325463,0.08,-0.15,0.01,0.011999138607461015,0.013089969389957472,-0.04363323129985824,1.9702741848937169,-0.15674426359201132,-0.280368246488015,0,0,0,0,0,0,1500,1500,1500,1500,1500,1500
1747554104.8316178,0.13,-0.11,0.02,0.030543261909900768,0.009817477042468103,-0.031634092692397225,1.9737745541887295,-0.15167109092065156,-0.2770723395992056,0,0,0,0,0,0,1500,1500,1500,1500,1500,1500
1747554104.915442,0.13,-0.11,0.02,0.030543261909900768,0.009817477042468103,-0.031634092692397225,1.9737745541887295,-0.15167109092065156,-0.2770723395992056,0,0,0,0,0,0,1500,1500,1500,1500,1500,1500
1747554105.0157669,0.11,-0.13,0.06,0.044724062082354694,0.006544984694978736,-0.019634954084936207,1.979322882628207,-0.14845450376130095,-0.2744597666849281,0,0,0,0,0,0,1500,1500,1500,1500,1500,1500
1747554105.1150906,0.11,-0.13,0.06,0.044724062082354694,0.006544984694978736,-0.019634954084936207,1.979322882628207,-0.14845450376130095,-0.2744597666849281,0,0,0,0,0,0,1500,1500,1500,1500,1500,1500
1747554105.1987774,0.18,-0.11,0.06,0.04908738521234052,0.013089969389957472,-0.017453292519943295,1.9862716203382258,-0.1461619334887803,-0.2727099948140664,0,0,0,0,0,0,1500,1500,1500,1500,1500,1500
1747554105.3001826,0.17,-0.12,0.1,0.0545415391248228,0.01090830782496456,-0.008726646259971648,1.9932269616242533,-0.14570057732227162,-0.27082136621400127,0,0,0,0,0,0,1500,1500,1500,1500,1500,1500
1747554105.398432,0.17,-0.12,0.1,0.0545415391248228,0.01090830782496456,-0.008726646259971648,1.9932269616242533,-0.14570057732227162,-0.27082136621400127,0,0,0,0,0,0,1500,1500,1500,1500,1500,1500
1747554105.4997993,0.14,-0.1,0.03,0.04908738521234052,0.014180800172453928,-0.003272492347489368,2.001067824473031,-0.14616962252135865,-0.26967982375268706,0,0,0,0,0,0,1500,1500,1500,1500,1500,1500
1747554105.5990672,0.16,-0.13,0.05,-0.002181661564992912,0.003272492347489368,0.00545415391248228,2.003470135515617,-0.14643519696034143,-0.2691845530137544,0,0,0,0,0,0,1500,1500,1500,1500,1500,1500
1747554105.6837204,0.16,-0.13,0.05,-0.002181661564992912,0.003272492347489368,0.00545415391248228,2.003470135515617,-0.14643519696034143,-0.2691845530137544,0,0,0,0,0,0,1500,1500,1500,1500,1500,1500
1747554105.7835307,0.12,-0.16,-0.11,-0.007635815477475192,0.0,0.00545415391248228,2.003470135515617,-0.14643519696034143,-0.2691845530137544,0,0,0,0,0,0,1500,1500,1500,1500,1500,1500
1747554105.8814871,0.12,-0.16,-0.11,-0.007635815477475192,0.0,0.00545415391248228,2.003470135515617,-0.14643519696034143,-0.2691845530137544,0,0,0,0,0,0,1500,1500,1500,1500,1500,1500
1747554105.981424,0.14,-0.19,-0.08,-0.01090830782496456,-0.002181661564992912,0.001090830782496456,2.0048893274993027,-0.14818879700352192,-0.26937616256374086,0,0,0,0,0,0,1500,1500,1500,1500,1500,1500
1747554106.0814383,0.08,-0.2,-0.15,-0.013089969389957472,-0.003272492347489368,-0.004363323129985824,2.0066644053443943,-0.15020555860055418,-0.2698479231282161,0,0,0,0,0,0,1500,1500,1500,1500,1500,1500
1747554106.1791964,0.08,-0.2,-0.15,-0.013089969389957472,-0.003272492347489368,-0.004363323129985824,2.0066644053443943,-0.15020555860055418,-0.2698479231282161,0,0,0,0,0,0,1500,1500,1500,1500,1500,1500
1747554106.2820523,0.1,-0.21,-0.12,-0.013089969389957472,0.002181661564992912,-0.002181661564992912,2.008227849713472,-0.1520375251740217,-0.27043658901614986,0,0,0,0,0,0,1500,1500,1500,1500,1500,1500
1747554106.3770118,0.06,-0.22,-0.19,-0.022907446432425576,0.001090830782496456,-0.001090830782496456,2.009866947592969,-0.1537181893265692,-0.2710043287423932,0,0,0,0,0,0,1500,1500,1500,1500,1500,1500
1747554106.4651723,0.06,-0.22,-0.19,-0.022907446432425576,0.001090830782496456,-0.001090830782496456,2.009866947592969,-0.1537181893265692,-0.2710043287423932,0,0,0,0,0,-0.468807,1460,1540,1500,1500,1500,1500
1747554106.564321,0.06,-0.21,-0.21,-0.019634954084936207,0.0,-0.001090830782496456,2.011013144704019,-0.15528224891008363,-0.27175898906475887,0,0,0,0,0,-0.7,1434,1559,1500,1500,1500,1500
1747554106.66438,0.06,-0.21,-0.21,-0.019634954084936207,0.0,-0.001090830782496456,2.011013144704019,-0.15528224891008363,-0.27175898906475887,0,0,0,0,0,-0.7,1434,1559,1500,1500,1500,1500
1747554106.7636256,-0.01,-0.14,-0.18,-0.019634954084936207,-0.001090830782496456,0.002181661564992912,2.012686578966506,-0.15673800286130185,-0.2724613553211979,0,0,0,0,0,-0.7,1434,1559,1500,1500,1500,1500
1747554106.8646982,0.03,-0.08,-0.19,-0.06544984694978735,0.01090830782496456,-0.11562806294462433,2.009028797708365,-0.149311751519948,-0.26845935179004693,0,0,0,0,0,-0.7,1434,1559,1500,1500,1500,1500
1747554106.9480703,0.03,-0.08,-0.19,-0.06544984694978735,0.01090830782496456,-0.11562806294462433,2.009028797708365,-0.149311751519948,-0.26845935179004693,0,0,0,0,0,-0.7,1434,1559,1500,1500,1500,1500
1747554107.0478354,0.05,-0.19,-0.2,-0.09381144729469522,0.02945243112740431,-0.20616701789183017,2.0000731779468315,-0.12990058992864037,-0.25599345247862215,0,0,0,0,0,-0.7,1434,1559,1500,1500,1500,1500
1747554107.147342,0.05,-0.19,-0.2,-0.09381144729469522,0.02945243112740431,-0.20616701789183017,2.0000731779468315,-0.12990058992864037,-0.25599345247862215,0,0,0,0,0,-0.7,1434,1559,1500,1500,1500,1500
1747554107.248793,0.03,-0.19,-0.32,-0.09381144729469522,0.05235987755982989,-0.23889194136672387,1.9885618566408465,-0.10237072431385612,-0.23663388965998075,0,0,0,0,0,-0.052349,1474,1519,1500,1500,1500,1500
1747554107.3482127,0.04,-0.23,-0.22,-0.07635815477475191,0.07635815477475191,-0.2399827721492203,1.9789175288635605,-0.07322388978900801,-0.21269853614935016,0,0,0,0,0,0.291218,1514,1479,1500,1500,1500,1500
1747554107.4315004,0.04,-0.23,-0.22,-0.07635815477475191,0.07635815477475191,-0.2399827721492203,1.9789175288635605,-0.07322388978900801,-0.21269853614935016,0,0,0,0,0,0.7,1554,1439,1500,1500,1500,1500
1747554107.5312905,0.09,-0.31,-0.25,0.006544984694978736,0.0818123086872342,-0.12217304763960307,1.9799345643166668,-0.05479018958943923,-0.19133897856714877,0,0,0,0,0,0.7,1559,1434,1500,1500,1500,1500
1747554107.6306226,0.01,-0.31,-0.13,0.05999569303730508,0.08944812416470939,-0.022907446432425576,1.9915597632364441,-0.05201537693309516,-0.1747208820357137,0,0,0,0,0,0.7,1559,1434,1500,1500,1500,1500
1747554107.7149525,0.01,-0.31,-0.13,0.05999569303730508,0.08944812416470939,-0.022907446432425576,1.9915597632364441,-0.05201537693309516,-0.1747208820357137,0,0,0,0,0,0.7,1559,1434,1500,1500,1500,1500
1747554107.8149343,0.07,-0.23,-0.34,0.10471975511965978,0.09490227807719166,0.11235557059713497,2.0070433042309888,-0.0641503055377571,-0.16420701205114832,0,0,0,0,0,0.7,1559,1434,1500,1500,1500,1500
1747554107.8977354,0.07,-0.23,-0.34,0.10471975511965978,0.09490227807719166,0.11235557059713497,2.0070433042309888,-0.0641503055377571,-0.16420701205114832,0,0,0,0,0,0.7,1559,1434,1500,1500,1500,1500
1747554107.9980996,0.12,-0.29,-0.22,0.12217304763960307,0.06981317007977318,0.21380283336930536,2.031645246641455,-0.09508156708100933,-0.16498186354946232,0,0,0,0,0,0.7,1559,1434,1500,1500,1500,1500
1747554108.0973995,0.12,-0.29,-0.22,0.12217304763960307,0.06981317007977318,0.21380283336930536,2.031645246641455,-0.09508156708100933,-0.16498186354946232,0,0,0,0,0,0.7,1559,1434,1500,1500,1500,1500
1747554108.1815617,0.04,-0.2,-0.33,0.10253809355466686,0.039269908169872414,0.26616271092913524,2.0546429554989185,-0.13140404898090477,-0.17485981611400317,0,0,0,0,0,0.7,1559,1434,1500,1500,1500,1500
1747554108.2814052,0.0,-0.12,-0.31,0.07308566242726255,0.004363323129985824,0.2792526803190927,2.0767882184951305,-0.17080772246848616,-0.19281108443226155,0,0,0,0,0,0.7,1559,1434,1500,1500,1500,1500
1747554108.3807313,0.0,-0.12,-0.31,0.07308566242726255,0.004363323129985824,0.2792526803190927,2.0767882184951305,-0.17080772246848616,-0.19281108443226155,0,0,0,0,0,0.7,1559,1434,1500,1500,1500,1500
1747554108.465138,0.02,-0.14,-0.33,0.018544123302439753,-0.04036073895236887,0.2748893571891069,2.0937535909107683,-0.2066294650507441,-0.2181017963398059,0,0,0,0,0,0.7,1559,1434,1500,1500,1500,1500
1747554108.5644233,0.02,-0.14,-0.33,0.018544123302439753,-0.04036073895236887,0.2748893571891069,2.0937535909107683,-0.2066294650507441,-0.2181017963398059,0,0,0,0,0,0.7,1559,1434,1500,1500,1500,1500
1747554108.6642168,0.03,-0.12,-0.22,-0.04690572364734761,-0.07635815477475191,0.2650718801466388,2.1041452129573863,-0.2378718127853602,-0.24989840746181088,0,0,0,0,0,0.7,1559,1434,1500,1500,1500,1500
1747554108.7644172,0.07,-0.18,-0.26,-0.08072147790473774,-0.11235557059713497,0.24216443371421323,2.109725133211084,-0.26245120313661424,-0.2837622224041544,0,0,0,0,0,0.7,1559,1434,1500,1500,1500,1500
1747554108.8646846,0.07,-0.18,-0.26,-0.08072147790473774,-0.11235557059713497,0.24216443371421323,2.109725133211084,-0.26245120313661424,-0.2837622224041544,0,0,0,0,0,0.7,1559,1434,1500,1500,1500,1500
1747554108.948196,,,,-0.11671889372712078,-0.13962634015954636,0.22580197197676638,2.111437522353123,-0.28388586247358405,-0.3227767426840838,0,0,0,0,0,0.7,1559,1434,1500,1500,1500,1500
1747554109.0476334,0.03,-0.19,-0.3,-0.14835298641951802,-0.16689710972195776,0.20616701789183017,2.109816237128951,-0.2996692830687563,-0.36177227776111676,0,0,0,0,0,0.7,1559,1434,1500,1500,1500,1500
1747554109.1483016,0.03,-0.19,-0.3,-0.14835298641951802,-0.16689710972195776,0.20616701789183017,2.109816237128951,-0.2996692830687563,-0.36177227776111676,0,-0.105417,0,0,0,0.7,1558,1434,1500,1500,1500,1500
1747554109.2488828,0.03,-0.25,-0.33,-0.16689710972195776,-0.17453292519943295,0.18762289458939044,2.1046881630104726,-0.31282935488037567,-0.40440949101546164,0,-12.29445,0,0,0,0.005907,1518,1416,1460,1500,1500,1500
1747554109.3482857,0.03,-0.25,-0.33,-0.16689710972195776,-0.17453292519943295,0.18762289458939044,2.1046881630104726,-0.31282935488037567,-0.40440949101546164,0,-12.5,0,0,0,0,1478,1415,1425,1500,1500,1500
1747554109.4314704,0.03,-0.25,-0.36,-0.20725784867432664,-0.18216874067690814,0.1712604328519436,2.0956432430453114,-0.32310233628500434,-0.44751578292694194,0,-12.5,0,0,0,0,1438,1415,1425,1500,1500,1500
1747554109.531474,-0.17,0.0,-0.26,-0.2378011105842274,-0.15707963267948966,0.11999138607461016,2.076614101243085,-0.32887261508812393,-0.48399012916313777,0,-12.5,0,0,0,0,1413,1415,1425,1500,1500,1500
1747554109.631895,-0.17,0.0,-0.26,-0.2378011105842274,-0.15707963267948966,0.11999138607461016,2.076614101243085,-0.32887261508812393,-0.48399012916313777,0,-12.5,0,0,0,0,1413,1415,1425,1500,1500,1500
1747554109.7152667,-0.15,-0.26,-0.21,-0.26398104936414235,-0.18435040224190105,0.10144726277217041,2.0569169025766807,-0.3315930946173747,-0.5177030449794384,0,-12.5,0,0,0,0,1413,1415,1425,1500,1500,1500
1747554109.8154256,-0.15,-0.26,-0.21,-0.26398104936414235,-0.18435040224190105,0.10144726277217041,2.0569169025766807,-0.3315930946173747,-0.5177030449794384,0,-12.5,0,0,0,0,1413,1415,1425,1500,1500,1500
1747554109.9148066,-0.06,-0.1,-0.27,-0.3239767424014474,-0.14835298641951802,-0.030543261909900768,2.025240987883602,-0.3235749340698856,-0.5472423753672784,0,-12.5,0,0,0,0,1413,1415,1425,1500,1500,1500
1747554110.0140781,0.0,-0.22,-0.21,-0.35015668118136234,-0.10581058590215622,-0.1308996938995747,1.9858838514737895,-0.3031071500554893,-0.5611682730509108,0,-12.5,0,0,0,0,1413,1415,1425,1500,1500,1500
1747554110.1147394,0.0,-0.22,-0.21,-0.35015668118136234,-0.10581058590215622,-0.1308996938995747,1.9858838514737895,-0.3031071500554893,-0.5611682730509108,0,-12.5,0,0,0,0,1413,1415,1425,1500,1500,1500
1747554110.1978533,-0.05,-0.26,-0.31,-0.3425208657038872,-0.09599310885968812,-0.1712604328519436,1.9415623592920048,-0.27562881042725046,-0.5689778786520695,0,-2.404492,0,0,0,0,1453,1455,1460,1500,1500,1500
1747554110.2978337,0.05,-0.19,-0.2,-0.28688849579656794,-0.06981317007977318,-0.17780541754692233,1.9047735620504729,-0.2485347809982408,-0.57354069082342,0,0,0,0,0,0,1493,1495,1500,1500,1500,1500
1747554110.398951,0.05,-0.19,-0.2,-0.28688849579656794,-0.06981317007977318,-0.17780541754692233,1.9047735620504729,-0.2485347809982408,-0.57354069082342,0,0,0,0,0,0,1500,1500,1500,1500,1500,1500
1747554110.4991584,0.18,-0.43,-0.17,-0.19853120241435498,-0.04690572364734761,-0.1636246173744684,1.874702318440227,-0.2265915048740047,-0.5754943612454453,0,0,0,0,0,0,1500,1500,1500,1500,1500,1500
1747554110.5982354,0.18,-0.43,-0.17,-0.19853120241435498,-0.04690572364734761,-0.1636246173744684,1.874702318440227,-0.2265915048740047,-0.5754943612454453,0,0,0,0,0,0,1500,1500,1500,1500,1500,1500
1747554110.681891,0.17,-0.2,-0.21,-0.14944381720201447,-0.039269908169872414,-0.136353847812057,1.856026314117826,-0.2079266619432951,-0.5771296879988675,0,0,0,0,0,0,1500,1500,1500,1500,1500,1500
1747554110.7813928,0.05,-0.25,-0.19,-0.09272061651219876,-0.032724923474893676,-0.11453723216212788,1.8443212440347299,-0.19041296953671416,-0.5789715167401297,0,0,0,0,0,0,1500,1500,1500,1500,1500,1500
1747554110.8813426,0.05,-0.25,-0.19,-0.09272061651219876,-0.032724923474893676,-0.11453723216212788,1.8443212440347299,-0.19041296953671416,-0.5789715167401297,0,0,0,0,0,0,1500,1500,1500,1500,1500,1500
1747554110.964331,0.03,-0.24,-0.19,-0.0545415391248228,-0.038179077387375956,-0.08290313946973066,1.8385898321006822,-0.17593060125649101,-0.5814001435359661,0,0,0,0,0,0,1500,1500,1500,1500,1500,1500
1747554111.0643811,0.03,-0.24,-0.19,-0.0545415391248228,-0.038179077387375956,-0.08290313946973066,1.8385898321006822,-0.17593060125649101,-0.5814001435359661,0,0,0,0,0,0,1500,1500,1500,1500,1500,1500
1747554111.164448,0.01,-0.26,-0.22,-0.011999138607461015,-0.04036073895236887,-0.050178215994836975,1.8393110744131642,-0.16487127517306369,-0.5858098829212621,0,0,0,0,0,0,1500,1500,1500,1500,1500,1500
1747554111.2644296,0.0,-0.26,-0.2,0.022907446432425576,-0.04254240051736178,-0.018544123302439753,1.8465112676856497,-0.1589541774099647,-0.5914851327969496,0,0,0,0,0,0,1500,1500,1500,1500,1500,1500
1747554111.3644893,0.0,-0.26,-0.2,0.022907446432425576,-0.04254240051736178,-0.018544123302439753,1.8465112676856497,-0.1589541774099647,-0.5914851327969496,0,0,0,0,0,0,1500,1500,1500,1500,1500,1500
1747554111.4486673,-0.02,-0.25,-0.28,0.044724062082354694,-0.038179077387375956,0.002181661564992912,1.8572137060599816,-0.1571387549308559,-0.5976785032361892,0,0,0,0,0,0,1500,1500,1500,1500,1500,1500
1747554111.547804,0.0,-0.24,-0.19,0.061086523819801536,-0.03490658503988659,0.020725784867432664,1.8709474603503342,-0.15660090195446755,-0.6037623310483263,0,0,0,0,0,0,1500,1500,1500,1500,1500,1500
1747554111.647347,0.0,-0.24,-0.19,0.061086523819801536,-0.03490658503988659,0.020725784867432664,1.8709474603503342,-0.15660090195446755,-0.6037623310483263,0,0,0,0,0,0,1500,1500,1500,1500,1500,1500
1747554111.749125,-0.02,-0.29,-0.28,0.06981317007977318,-0.02945243112740431,0.03599741582238305,1.888293014098098,-0.15945031982309418,-0.6110649168787555,0,0,0,0,0,0,1500,1500,1500,1500,1500,1500
1747554111.8479977,-0.02,-0.29,-0.28,0.06981317007977318,-0.02945243112740431,0.03599741582238305,1.888293014098098,-0.15945031982309418,-0.6110649168787555,0,0,0,0,0,0,1500,1500,1500,1500,1500,1500
1747554111.9313824,0.0,-0.23,-0.25,0.07526732399225546,-0.02181661564992912,0.05235987755982989,1.907554832935484,-0.16478418967733655,-0.6183153723621563,0,0,0,0,0,0,1500,1500,1500,1500,1500,1500
1747554112.031815,-0.05,-0.24,-0.27,0.07526732399225546,-0.02181661564992912,0.05235987755982989,1.9255439958896867,-0.17065274727694896,-0.6255769970272764,0,0,0,0,0,0,1500,1500,1500,1500,1500,1500
1747554112.1314757,-0.05,-0.24,-0.27,0.07526732399225546,-0.02181661564992912,0.05235987755982989,1.9255439958896867,-0.17065274727694896,-0.6255769970272764,0,0,0,0,0,0,1500,1500,1500,1500,1500,1500
1747554112.2146795,0.0,-0.21,-0.21,0.06544984694978735,-0.028361600344907856,0.055632369907319255,1.9436488499599716,-0.17712855615581513,-0.633375039562403,-3,0,0,0,0,0,1540,1460,1500,1460,1460,1460
1747554112.3146262,0.0,-0.21,-0.21,0.06544984694978735,-0.028361600344907856,0.055632369907319255,1.9436488499599716,-0.17712855615581513,-0.633375039562403,-3,0,0,0,0,0,1541,1455,1500,1420,1427,1427
1747554112.4146316,-0.06,-0.23,-0.28,0.05345070834232634,-0.025089107997418487,0.05235987755982989,1.9606421257403535,-0.1832458244954328,-0.6416806172454735,-3,0,0,0,0,0,1541,1455,1500,1403,1427,1427
1747554112.5147488,0.3,-0.28,-0.44,0.022907446432425576,-0.028361600344907856,0.0818123086872342,1.9715570888492608,-0.18910325122664792,-0.6491189059152087,-3,0,0,0,0,0,1541,1455,1500,1403,1427,1427
1747554112.617887,0.3,-0.28,-0.44,0.022907446432425576,-0.028361600344907856,0.0818123086872342,1.9715570888492608,-0.18910325122664792,-0.6491189059152087,-3,0,0,0,0,0,1541,1455,1500,1403,1427,1427
1747554112.7151866,0.0,-0.62,-0.21,-0.008726646259971648,-0.04690572364734761,0.19634954084936207,1.9811535137380356,-0.20827560581835214,-0.6657978289875195,-3,0,0,0,0,0,1541,1455,1500,1403,1427,1427
1747554112.8154721,0.12,-0.24,-0.28,0.018544123302439753,-0.061086523819801536,0.2617993877991494,1.9934029503087867,-0.23689552076450865,-0.6888086310689089,-3,0,0,0,0,0,1541,1455,1500,1403,1427,1427
1747554112.9152143,0.12,-0.24,-0.28,0.018544123302439753,-0.061086523819801536,0.2617993877991494,1.9934029503087867,-0.23689552076450865,-0.6888086310689089,-3,0,0,0,0,0,1541,1455,1500,1403,1427,1427
1747554113.0150669,0.0,-0.23,-0.28,-0.038179077387375956,-0.06435901616729091,0.28907015736156083,2.005138409112489,-0.2722508461151858,-0.7176605280186226,-3,0,0,0,0,0,1541,1455,1500,1403,1427,1427
1747554113.1144285,0.04,-0.29,-0.31,-0.08944812416470939,-0.07417649320975901,0.3108867730114899,2.0114187506871803,-0.3072436092704172,-0.7487590528649918,-3,0,0,0,0,0,1541,1455,1500,1403,1427,1427
1747554113.198175,0.04,-0.29,-0.31,-0.08944812416470939,-0.07417649320975901,0.3108867730114899,2.0114187506871803,-0.3072436092704172,-0.7487590528649918,-3,0,0,0,0,0,1541,1455,1500,1403,1427,1427
1747554113.2982605,-0.04,-0.27,-0.29,-0.13308135546456762,-0.09708393964218458,0.34033920413889424,2.013653854598291,-0.3466381678825062,-0.7875908276491805,-3,0,0,0,0,0,1541,1455,1500,1403,1427,1427
1747554113.3979537,-0.04,-0.27,-0.29,-0.13308135546456762,-0.09708393964218458,0.34033920413889424,2.013653854598291,-0.3466381678825062,-0.7875908276491805,-3,0,0,0,0,0,1541,1455,1500,1403,1427,1427
1747554113.499233,0.0,-0.18,-0.23,-0.16907877128695067,-0.1189005552921137,0.37306412761378793,2.012071110054284,-0.38926056915475915,-0.8326062105511871,-3,0,0,0,0,0,1541,1455,1500,1403,1427,1427
1747554113.5999007,0.01,-0.21,-0.29,-0.1908953869368798,-0.13526301702956053,0.3916082509162277,2.0097318914527382,-0.43478757173769633,-0.8830946843982329,-3,0,0,0,0,0,1541,1455,1500,1403,1427,1427
1747554113.683426,0.01,-0.21,-0.29,-0.1908953869368798,-0.13526301702956053,0.3916082509162277,2.0097318914527382,-0.43478757173769633,-0.8830946843982329,-3,0,0,0,0,0,1541,1455,1500,1403,1427,1427
1747554113.7814412,0.01,-0.2,-0.3,-0.2007128639793479,-0.14835298641951802,0.40251655874119224,2.008594061379824,-0.47872294234250945,-0.9341829935904543,-3,0,0,0,0,0,1541,1455,1500,1403,1427,1427
1747554113.8814385,0.01,-0.2,-0.3,-0.2007128639793479,-0.14835298641951802,0.40251655874119224,2.008594061379824,-0.47872294234250945,-0.9341829935904543,-3,0,0,0,0,0,1541,1455,1500,1403,1427,1427
1747554113.9671035,-0.01,-0.24,-0.17,-0.22143864884678055,-0.17235126363444003,0.4112432050011639,2.0093042069979092,-0.5255090499756678,-0.993774415812466,-3,0,0,0,0,0,1541,1455,1500,1403,1427,1427
1747554114.065334,0.08,-0.14,-0.15,-0.24870941840919197,-0.17998707911191522,0.41996985126113556,2.0097997339113824,-0.5694958112937504,-1.0535065385981524,-3,0,0,0,0,0,1541,1455,1500,1403,1427,1427
1747554114.1645787,0.08,-0.14,-0.15,-0.24870941840919197,-0.17998707911191522,0.41996985126113556,2.0097997339113824,-0.5694958112937504,-1.0535065385981524,-3,0,0,0,0,0,1541,1455,1500,1403,1427,1427
1747554114.2649028,-0.02,-0.16,-0.28,-0.2792526803190927,-0.1832595714594046,0.4232423436086249,2.0106910638701043,-0.6168197806510528,-1.121200816168838,-3,0,0,0,0,0,1541,1455,1500,1403,1427,1427
1747554114.353799,-0.02,-0.26,-0.25,-0.3108867730114899,-0.1930770485018727,0.4112432050011639,2.011492193580934,-0.6604656663721282,-1.1874751341878844,-3,0,0,0,0,0,1541,1455,1500,1403,1427,1427
1747554114.4477673,-0.02,-0.26,-0.25,-0.3108867730114899,-0.1930770485018727,0.4112432050011639,2.011492193580934,-0.6604656663721282,-1.1874751341878844,-3,0,0,0,0,0,1541,1455,1500,1403,1427,1427
1747554114.5479648,-0.02,-0.27,-0.21,-0.33488505022641196,-0.19853120241435498,0.40578905108868163,2.012135608315412,-0.705328574114895,-1.261577627426717,0,0,0,0,0,0,1501,1495,1500,1443,1467,1467
1747554114.647993,-0.02,-0.27,-0.21,-0.33488505022641196,-0.19853120241435498,0.40578905108868163,2.012135608315412,-0.705328574114895,-1.261577627426717,0,0,0,0,0,0,1500,1500,1500,1483,1500,1500
1747554114.7480426,0.07,-0.24,-0.35000000000000003,-0.34470252726888007,-0.19853120241435498,0.3719732968312915,2.013490804131251,-0.7474715854147259,-1.3389182615633053,0,-12.5,0,0,0,0,1460,1460,1460,1500,1500,1500
1747554114.8481717,-0.01,-0.24,-0.22,-0.28688849579656794,-0.1930770485018727,0.20507618710933373,2.0153374527871457,-0.7732684462512891,-1.4063116761031287,0,-12.5,0,0,0,0,1420,1420,1420,1500,1500,1500
1747554114.9314508,-0.01,-0.24,-0.22,-0.28688849579656794,-0.1930770485018727,0.20507618710933373,2.0153374527871457,-0.7732684462512891,-1.4063116761031287,0,-12.5,0,0,0,0,1380,1380,1396,1500,1500,1500
1747554115.0316842,-0.36,0.02,-0.79,-0.2814343418840856,-0.20398535632683726,0.2552544031041707,2.0143060040807446,-0.7817233733649839,-1.4598945754580166,0,-12.5,0,0,0,0,1377,1379,1396,1500,1500,1500
1747554115.1315658,-0.36,0.02,-0.79,-0.2814343418840856,-0.20398535632683726,0.2552544031041707,2.0143060040807446,-0.7817233733649839,-1.4598945754580166,0,-12.5,0,0,0,0,1377,1379,1396,1500,1500,1500
1747554115.2152128,-0.53,-0.49,0.07,-0.3141592653589793,-0.18762289458939044,0.07308566242726255,2.0047880972383294,-0.7799893751974262,-1.5089571579327448,0,-12.5,0,0,0,0,1377,1379,1396,1500,1500,1500
1747554115.3149416,-0.16,-0.43,-0.23,-0.3643374813538163,-0.12980886311707826,-0.01090830782496456,1.980998738343181,-0.7705793658789052,-1.543597568385238,0,-12.5,0,0,0,0,1377,1379,1396,1500,1500,1500
1747554115.414753,-0.16,-0.43,-0.23,-0.3643374813538163,-0.12980886311707826,-0.01090830782496456,1.980998738343181,-0.7705793658789052,-1.543597568385238,0,-12.5,0,0,0,0,1377,1379,1396,1500,1500,1500
1747554115.5139906,-0.06,-0.3,-0.26,-0.3959715740462135,-0.08944812416470939,-0.07090400086226964,1.9422481739845145,-0.7566355493263229,-1.5678243005241481,0,-12.5,0,0,0,0,1377,1379,1396,1500,1500,1500
1747554115.6048965,-0.04,-0.31,-0.27,-0.40251655874119224,-0.04690572364734761,-0.09599310885968812,1.8960309874534498,-0.7428374975349669,-1.5796183874342777,0,-12.5,0,0,0,0,1377,1379,1396,1500,1500,1500
1747554115.6980872,-0.04,-0.31,-0.27,-0.40251655874119224,-0.04690572364734761,-0.09599310885968812,1.8960309874534498,-0.7428374975349669,-1.5796183874342777,0,-12.5,0,0,0,0,1377,1379,1396,1500,1500,1500
1747554115.7980425,0.04,-0.23,-0.17,-0.35561083509384467,0.013089969389957472,-0.08399397025222712,1.8427212156614583,-0.7315166703708897,-1.5822532807971492,0,-12.5,0,0,0,0,1377,1379,1396,1500,1500,1500
1747554115.897241,0.04,-0.23,-0.17,-0.35561083509384467,0.013089969389957472,-0.08399397025222712,1.8427212156614583,-0.7315166703708897,-1.5822532807971492,0,-12.5,0,0,0,0,1377,1379,1396,1500,1500,1500
1747554115.9984,0.1,-0.34,-0.19,-0.32179508083645453,0.06326818538479445,-0.04036073895236887,1.7911018253560151,-0.7273716661584809,-1.5757421510109386,0,-12.5,0,0,0,0,1377,1379,1396,1500,1500,1500
1747554116.0978222,0.02,-0.17,-0.18,-0.28907015736156083,0.09926560120717749,-0.02181661564992912,1.7378070203908207,-0.7286166791240682,-1.5610942721749326,0,-12.5,0,0,0,0,1377,1379,1396,1500,1500,1500
1747554116.1800475,0.02,-0.17,-0.18,-0.28907015736156083,0.09926560120717749,-0.02181661564992912,1.7378070203908207,-0.7286166791240682,-1.5610942721749326,0,-12.5,0,0,0,0,1377,1379,1396,1500,1500,1500
1747554116.2802362,0.0,-0.16,-0.23,-0.2748893571891069,0.11344640137963143,-0.02399827721492203,1.687401576394251,-0.729977230963595,-1.5423275504312242,0,-12.5,0,0,0,-0.000465,1377,1379,1396,1500,1500,1500
1747554116.3801954,0.0,-0.16,-0.23,-0.2748893571891069,0.11344640137963143,-0.02399827721492203,1.687401576394251,-0.729977230963595,-1.5423275504312242,0,-12.5,0,0,0,-0.001789,1377,1379,1396,1500,1500,1500
1747554116.4643502,0.1,-0.31,-0.19,-0.28034351110158917,0.12217304763960307,-0.006544984694978736,1.6363372432944434,-0.7316559365340302,-1.522100137254972,0,-12.5,0,0,0,-0.001789,1377,1379,1396,1500,1500,1500
1747554116.5647259,0.0,-0.38,-0.17,-0.28034351110158917,0.10144726277217041,0.009817477042468103,1.581885758959381,-0.7349309886554678,-1.5015849371613883,0,-12.5,0,0,0,-0.001789,1377,1379,1396,1500,1500,1500
1747554116.6638734,0.0,-0.38,-0.17,-0.28034351110158917,0.10144726277217041,0.009817477042468103,1.581885758959381,-0.7349309886554678,-1.5015849371613883,0,-12.5,0,0,0,-0.001789,1377,1379,1396,1500,1500,1500
1747554116.7643857,-0.07,-0.11,-0.22,-0.24107360293171676,0.0818123086872342,0.018544123302439753,1.5363829423238937,-0.7390635593695369,-1.4865560743912731,0,-12.5,0,0,0,-0.001789,1377,1379,1396,1500,1500,1500
1747554116.855123,-0.13,-0.29,-0.15,-0.2181661564992912,0.06544984694978735,0.0272707695624114,1.4951872018735328,-0.7432806154163882,-1.4739756195557734,0,-12.5,0,0,0,-0.001789,1377,1379,1396,1500,1500,1500
1747554116.949193,-0.13,-0.29,-0.15,-0.2181661564992912,0.06544984694978735,0.0272707695624114,1.4951872018735328,-0.7432806154163882,-1.4739756195557734,0,-12.5,0,0,0,-0.001789,1377,1379,1396,1500,1500,1500
1747554117.0478163,-0.12,-0.13,-0.12,-0.1930770485018727,0.03490658503988659,0.038179077387375956,1.4605783600977489,-0.7496619291202603,-1.4659443397734149,0,-12.5,0,0,0,-0.001789,1377,1379,1396,1500,1500,1500
1747554117.1477678,-0.12,-0.13,-0.12,-0.1930770485018727,0.03490658503988659,0.038179077387375956,1.4605783600977489,-0.7496619291202603,-1.4659443397734149,0,-12.5,0,0,0,-0.001789,1377,1379,1396,1500,1500,1500
1747554117.2485676,-0.11,-0.36,-0.32,-0.17889624832941878,0.017453292519943295,0.04036073895236887,1.4308004137643284,-0.7567836286834911,-1.4617261549298612,0,-12.5,0,0,0,-0.001789,1377,1379,1396,1500,1500,1500
1747554117.3483453,0.01,-0.13,-0.2,-0.16907877128695067,0.003272492347489368,0.04799655442984406,1.4068381888788353,-0.7639196055673032,-1.4615606915518216,0,-12.5,0,0,0,-0.001789,1377,1379,1396,1500,1500,1500
1747554117.4315321,0.01,-0.13,-0.2,-0.16907877128695067,0.003272492347489368,0.04799655442984406,1.4068381888788353,-0.7639196055673032,-1.4615606915518216,0,-12.5,0,0,0,-0.001789,1377,1379,1396,1500,1500,1500
1747554117.5314343,-0.03,-0.26,-0.27,-0.1636246173744684,-0.018544123302439753,0.04581489286485115,1.3848420738282277,-0.772309045470475,-1.4636507876629472,0,-12.5,0,0,0,-0.001789,1377,1379,1396,1500,1500,1500
1747554117.630124,-0.03,-0.26,-0.27,-0.1636246173744684,-0.018544123302439753,0.04581489286485115,1.3848420738282277,-0.772309045470475,-1.4636507876629472,0,-10.145875,0,0,0,-0.001789,1390,1392,1407,1500,1500,1500
1747554117.714169,-0.12,-0.24,-0.21,-0.15707963267948966,-0.03599741582238305,0.05345070834232634,1.3684348109923317,-0.7811182810810443,-1.4698451969357473,0,0,0,0,0,0,1430,1432,1447,1500,1500,1500
1747554117.814485,0.01,-0.22,-0.32,-0.14180800172453928,-0.06435901616729091,0.07417649320975901,1.3538005712064136,-0.7936606191275603,-1.4801724776993084,0,0,0,0,0,0,1470,1472,1487,1500,1500,1500
1747554117.9138272,0.01,-0.22,-0.32,-0.14180800172453928,-0.06435901616729091,0.07417649320975901,1.3538005712064136,-0.7936606191275603,-1.4801724776993084,0,0,0,0,0,0,1500,1500,1500,1500,1500,1500
1747554118.0140643,0.45,-0.23,-0.44,-0.05890486225480862,-0.09599310885968812,0.07417649320975901,1.3543059896744658,-0.8129940940358982,-1.4974109931611068,3,0,0,0,0,0,1460,1540,1500,1540,1540,1540
1747554118.1051352,0.07,-0.11,-0.34,-0.004363323129985824,-0.14944381720201447,0.06544984694978735,1.3735343589425908,-0.8321217311779677,-1.526126201562425,3,0,0,0,0,0,1455,1541,1500,1580,1565,1565
1747554118.1979768,0.07,-0.11,-0.34,-0.004363323129985824,-0.14944381720201447,0.06544984694978735,1.3735343589425908,-0.8321217311779677,-1.526126201562425,3,0,0,0,0,0,1455,1541,1500,1586,1565,1565
1747554118.2975168,0.28,0.62,-0.24,0.0719948316447661,-0.18871372537188688,0.02945243112740431,1.40834033300074,-0.845590284554597,-1.5665570100772377,3,0,0,0,0,0,1455,1541,1500,1586,1565,1565
1747554118.3977163,0.28,0.62,-0.24,0.0719948316447661,-0.18871372537188688,0.02945243112740431,1.40834033300074,-0.845590284554597,-1.5665570100772377,3,0,0,0,0,0,1455,1541,1500,1586,1565,1565
1747554118.4990542,0.02,0.33,-0.24,0.12326387842209953,-0.21489366415180183,-0.11344640137963143,1.4631338166010697,-0.8456928119835468,-1.6145886260652307,3,0,0,0,0,0,1455,1541,1500,1586,1565,1565
1747554118.5979464,-0.02,0.05,-0.18,0.08835729338221293,-0.19962203319685143,-0.23343778745424157,1.5207334409795084,-0.8190790104492337,-1.6688753528864317,3,0,0,0,0,0,1455,1541,1500,1586,1565,1565
1747554118.6815624,-0.02,0.05,-0.18,0.08835729338221293,-0.19962203319685143,-0.23343778745424157,1.5207334409795084,-0.8190790104492337,-1.6688753528864317,3,0,0,0,0,0,1455,1541,1500,1586,1565,1565
1747554118.7805884,-0.06,0.02,-0.23,0.04908738521234052,-0.16580627893946132,-0.3327033886614191,1.5645708395322293,-0.7749973106348625,-1.7126421600039068,3,0,0,0,0,0,1455,1541,1500,1586,1565,1565
1747554118.8802001,-0.06,0.02,-0.23,0.04908738521234052,-0.16580627893946132,-0.3327033886614191,1.5645708395322293,-0.7749973106348625,-1.7126421600039068,3,0,0,0,0,0,1455,1541,1500,1586,1565,1565
1747554118.9639685,-0.04,0.07,-0.27,0.018544123302439753,-0.13962634015954636,-0.4265148359561143,1.5915125207208367,-0.7191747100918338,-1.7433977828461744,3,0,0,0,0,0,1455,1541,1500,1586,1565,1565
1747554119.0645547,-0.03,0.05,-0.25,-0.016362461737446838,-0.11453723216212788,-0.4985096676008804,1.6093214528236977,-0.6467508102604195,-1.767916187785071,3,0,0,0,0,0,1455,1541,1500,1586,1565,1565
1747554119.1643727,-0.03,0.05,-0.25,-0.016362461737446838,-0.11453723216212788,-0.4985096676008804,1.6093214528236977,-0.6467508102604195,-1.767916187785071,3,0,0,0,0,0,1455,1541,1500,1586,1565,1565
1747554119.2643661,-0.01,0.02,-0.23,-0.05126904677733343,-0.08726646259971647,-0.5617778529856748,1.6148528057969447,-0.5693406628836258,-1.7831128447072864,3,0,0,0,0,0,1455,1541,1500,1586,1565,1565
1747554119.3642125,-0.01,0.02,-0.23,-0.05126904677733343,-0.08726646259971647,-0.5617778529856748,1.6148528057969447,-0.5693406628836258,-1.7831128447072864,3,0,0,0,0,0,1455,1541,1500,1586,1565,1565
1747554119.4485958,0.0,-0.04,-0.27,-0.06654067773228381,-0.06435901616729091,-0.607592745850526,1.613719011923447,-0.47888257357003244,-1.7940411832903314,3,0,0,0,0,0,1455,1541,1500,1586,1565,1565
1747554119.5475287,0.0,-0.05,-0.26,-0.06435901616729091,-0.030543261909900768,-0.631591023065448,1.6094434388625343,-0.3894566119038724,-1.7991847109517638,3,0,0,0,0,0,1455,1541,1500,1586,1565,1565
1747554119.648223,0.0,-0.05,-0.26,-0.06435901616729091,-0.030543261909900768,-0.631591023065448,1.6094434388625343,-0.3894566119038724,-1.7991847109517638,3,0,0,0,0,0,1455,1541,1500,1586,1565,1565
1747554119.7482197,-0.02,-0.19,-0.21,-0.050178215994836975,-0.004363323129985824,-0.6457718232379019,1.6028102575216059,-0.2909735169007313,-1.8000484146095534,3,0,0,0,0,0,1455,1541,1500,1586,1565,1565
1747554119.8483887,-0.03,-0.11,-0.25,-0.03599741582238305,0.014180800172453928,-0.6446809924554054,1.5978330092230215,-0.19172847551939065,-1.7973044821389605,3,0,0,0,0,0,1455,1541,1500,1586,1565,1565
1747554119.93135,-0.03,-0.11,-0.25,-0.03599741582238305,0.014180800172453928,-0.6446809924554054,1.5978330092230215,-0.19172847551939065,-1.7973044821389605,3,0,0,0,0,0,1455,1541,1500,1586,1565,1565
1747554120.031478,-0.01,-0.19,-0.35000000000000003,-0.032724923474893676,0.038179077387375956,-0.6457718232379019,1.5930715430667213,-0.09215351093578115,-1.7908037954938596,3,0,0,0,0,0,1455,1541,1500,1586,1565,1565
1747554120.1307487,-0.01,-0.19,-0.35000000000000003,-0.032724923474893676,0.038179077387375956,-0.6457718232379019,1.5930715430667213,-0.09215351093578115,-1.7908037954938596,3,0,0,0,0,0,1455,1541,1500,1586,1565,1565
1747554120.2150688,0.0,-0.13,-0.36,-0.0272707695624114,0.05999569303730508,-0.6359543461954338,1.591237660813472,0.0003113523175952792,-1.7817292236600117,3,0,0,0,0,0,1455,1541,1500,1586,1565,1565
1747554120.3139532,0.01,-0.25,-0.34,-0.031634092692397225,0.07635815477475191,-0.6348635154129374,1.5875632943101385,0.09892793192394454,-1.7692433652545267,0,0,0,0,0,0,1495,1501,1500,1546,1525,1525
1747554120.4162426,0.01,-0.25,-0.34,-0.031634092692397225,0.07635815477475191,-0.6348635154129374,1.5875632943101385,0.09892793192394454,-1.7692433652545267,-3,0,0,0,0,0,1535,1461,1500,1506,1485,1485
1747554120.5133247,-0.23,-0.49,-0.5,-0.037088246604879506,0.08617563181722002,-0.5770494839406252,1.585388991831601,0.18876875040494992,-1.7555621148922784,-3,0,0,0,0,0,1541,1455,1500,1466,1445,1445
1747554120.6042974,0.0,-0.41000000000000003,-0.39,-0.02945243112740431,0.08399397025222712,-0.4265148359561143,1.5890887322125673,0.2660737332562727,-1.7389459167304933,-3,0,0,0,0,0,1541,1455,1500,1426,1427,1427
1747554120.698974,0.0,-0.41000000000000003,-0.39,-0.02945243112740431,0.08399397025222712,-0.4265148359561143,1.5890887322125673,0.2660737332562727,-1.7389459167304933,-3,0,0,0,0,0,1541,1455,1500,1403,1427,1427
1747554120.7970612,-0.24,-0.28,-0.34,-0.01090830782496456,0.07090400086226964,-0.24652775684419906,1.5985301021840395,0.3182578825721369,-1.7246719264218604,-3,0,0,0,0,0,1541,1455,1500,1403,1427,1427
1747554120.8976912,-0.24,-0.28,-0.34,-0.01090830782496456,0.07090400086226964,-0.24652775684419906,1.5985301021840395,0.3182578825721369,-1.7246719264218604,-3,0,0,0,0,0,1541,1455,1500,1403,1427,1427
1747554120.9983268,0.22,-0.39,-0.35000000000000003,-0.23561944901923448,0.06763150851478027,-0.08944812416470939,1.588872962978721,0.34647203759185485,-1.7098590533229123,-3,0,0,0,0,0,1541,1455,1500,1403,1427,1427
1747554121.0978303,0.04,-0.78,-0.44,-0.210530341021816,0.04690572364734761,0.08399397025222712,1.5589657026293644,0.35026504472684056,-1.6971916008789756,-3,0,0,0,0,0,1541,1455,1500,1403,1427,1427
1747554121.1814756,0.04,-0.78,-0.44,-0.210530341021816,0.04690572364734761,0.08399397025222712,1.5589657026293644,0.35026504472684056,-1.6971916008789756,-3,0,0,0,0,0,1541,1455,1500,1403,1427,1427
1747554121.2802832,0.04,-0.5,-0.31,-0.16689710972195776,0.05126904677733343,0.2301652951067522,1.5405912292271846,0.32628634931734835,-1.6864457075365131,-3,0,0,0,0,0,1541,1455,1500,1403,1427,1427
1747554121.3819697,0.04,-0.5,-0.31,-0.16689710972195776,0.05126904677733343,0.2301652951067522,1.5405912292271846,0.32628634931734835,-1.6864457075365131,-3,0,0,0,0,0,1541,1455,1500,1403,1427,1427
1747554121.4638171,0.07,-0.4,-0.42,-0.13526301702956053,0.04254240051736178,0.3392483733563978,1.5282826307274333,0.28640903039772514,-1.67540463463086,-3,0,0,0,0,0,1541,1455,1500,1403,1427,1427
1747554121.5647976,0.21,-0.4,-0.4,-0.09599310885968812,0.025089107997418487,0.421060682043632,1.5207920185903312,0.22778428162223952,-1.6647910167471762,-3,0,0,0,0,0,1541,1455,1500,1403,1427,1427
1747554121.66441,0.21,-0.4,-0.4,-0.09599310885968812,0.025089107997418487,0.421060682043632,1.5207920185903312,0.22778428162223952,-1.6647910167471762,-3,0,0,0,0,0,1541,1455,1500,1403,1427,1427
1747554121.7645485,0.06,-0.39,-0.44,-0.05781403147231216,0.0,0.4723297288209654,1.5190317289479771,0.16360248156502163,-1.658300679752938,-3,0,0,0,0,0,1541,1455,1500,1403,1427,1427
1747554121.8537319,0.04,-0.3,-0.47000000000000003,-0.02181661564992912,-0.025089107997418487,0.507236313860852,1.5214203313078853,0.09249530165128338,-1.6546505260740505,-3,0,0,0,0,0,1541,1455,1500,1403,1427,1427
1747554121.948115,0.04,-0.3,-0.47000000000000003,-0.02181661564992912,-0.025089107997418487,0.507236313860852,1.5214203313078853,0.09249530165128338,-1.6546505260740505,-3,0,0,0,0,0,1541,1455,1500,1403,1427,1427
1747554122.0481546,0.1,-0.35000000000000003,-0.5,0.006544984694978736,-0.03381575425739013,0.5235987755982988,1.5279266329250236,0.012674469839060246,-1.6550402273252303,-3,0,0,0,0,0,1541,1455,1500,1403,1427,1427
1747554122.1488798,0.1,-0.35000000000000003,-0.5,0.006544984694978736,-0.03381575425739013,0.5235987755982988,1.5279266329250236,0.012674469839060246,-1.6550402273252303,-3,0,0,0,0,0,1541,1455,1500,1403,1427,1427
1747554122.2479498,0.0,-0.23,-0.5700000000000001,0.031634092692397225,-0.04690572364734761,0.5301437602932776,1.5376745820836943,-0.06929198295549208,-1.658513573736213,-3,0,0,0,0,0,1541,1455,1500,1403,1427,1427
1747554122.34893,-0.04,-0.29,-0.45,0.04145156973486533,-0.07090400086226964,0.5301437602932776,1.5510861113957748,-0.15170584461236356,-1.6660657939116819,-3,0,0,0,0,0,1541,1455,1500,1403,1427,1427
1747554122.4305649,-0.04,-0.29,-0.45,0.04145156973486533,-0.07090400086226964,0.5301437602932776,1.5510861113957748,-0.15170584461236356,-1.6660657939116819,-3,0,0,0,0,0,1541,1455,1500,1403,1427,1427
1747554122.5301788,-0.04,-0.28,-0.45,0.04145156973486533,-0.08617563181722002,0.5345070834232635,1.568178781080866,-0.23417572977863413,-1.6790902647151136,-3,0,0,0,0,0,1541,1455,1500,1403,1427,1427
1747554122.632936,-0.04,-0.28,-0.45,0.04145156973486533,-0.08617563181722002,0.5345070834232635,1.568178781080866,-0.23417572977863413,-1.6790902647151136,-3,0,0,0,0,0,1541,1455,1500,1403,1427,1427
1747554122.732893,0.08,-0.2,-0.51,0.04581489286485115,-0.10362892433716332,0.5388704065532492,1.5813607071621456,-0.3122481185316522,-1.6945967172562224,-3,0,0,0,0,0,1541,1455,1500,1403,1427,1427
1747554122.8316307,0.05,-0.23,-0.5,0.05672320068981571,-0.12544553998709243,0.5399612373357457,1.6064739042923082,-0.3953454262215419,-1.7190703769992273,-3,0,0,0,0,0,1541,1455,1500,1403,1427,1427
1747554122.9147682,0.05,-0.23,-0.5,0.05672320068981571,-0.12544553998709243,0.5399612373357457,1.6064739042923082,-0.3953454262215419,-1.7190703769992273,-3,0,0,0,0,0,1541,1455,1500,1403,1427,1427
1747554123.013795,-0.02,-0.22,-0.42,0.05345070834232634,-0.14726215563702155,0.533416252640767,1.63545558406068,-0.47132687300697884,-1.7491976940753966,-3,0,0,0,0,0,1541,1455,1500,1403,1427,1427
1747554123.1077116,-0.08,-0.16,-0.45,0.019634954084936207,-0.15926129424448257,0.5214171140333059,1.6672040088576152,-0.5501169349887578,-1.7882591967889365,-3,0,0,0,0,0,1541,1455,1500,1403,1427,1427
1747554123.197929,-0.08,-0.16,-0.45,0.019634954084936207,-0.15926129424448257,0.5214171140333059,1.6672040088576152,-0.5501169349887578,-1.7882591967889365,-3,0,0,0,0,0,1541,1455,1500,1403,1427,1427
1747554123.2979746,-0.14,-0.18,-0.35000000000000003,-0.017453292519943295,-0.17453292519943295,0.5105088062083414,1.6981492905742912,-0.6208099867574585,-1.8326792601740856,-3,0,0,0,0,0,1541,1455,1500,1403,1427,1427
1747554123.3981128,-0.14,-0.18,-0.35000000000000003,-0.017453292519943295,-0.17453292519943295,0.5105088062083414,1.6981492905742912,-0.6208099867574585,-1.8326792601740856,-3,0,0,0,0,0,1541,1455,1500,1403,1427,1427
1747554123.4973137,-0.06,-0.1,-0.3,-0.07417649320975901,-0.19525871006686563,0.4919646829059016,1.7299450603935103,-0.6925198029515832,-1.88783844285927,-3,0,0,0,0,0,1541,1455,1500,1403,1427,1427
1747554123.5973556,-0.1,-0.07,-0.36,-0.11453723216212788,-0.20180369476184434,0.4734205596034619,1.761850638903518,-0.7595166168980358,-1.9512308790718609,-3,0,0,0,0,0,1541,1455,1500,1403,1427,1427
1747554123.6802142,-0.1,-0.07,-0.36,-0.11453723216212788,-0.20180369476184434,0.4734205596034619,1.761850638903518,-0.7595166168980358,-1.9512308790718609,-3,0,0,0,0,0,1541,1455,1500,1403,1427,1427
1747554123.780176,-0.14,-0.11,-0.31,-0.16144295580947549,-0.20943951023931956,0.45814892864851153,1.793362007847614,-0.8223492833037365,-2.021331783078212,-3,0,0,0,0,0,1541,1455,1500,1403,1427,1427
1747554123.88146,-0.14,-0.11,-0.31,-0.16144295580947549,-0.20943951023931956,0.45814892864851153,1.793362007847614,-0.8223492833037365,-2.021331783078212,-3,0,0,0,0,0,1541,1455,1500,1403,1427,1427
1747554123.964532,-0.02,-0.05,-0.28,-0.18544123302439752,-0.21598449493429828,0.4428772976935611,1.8274132547981277,-0.8771678297006638,-2.096238121720939,-3,0,0,0,0,0,1541,1455,1500,1403,1427,1427
1747554124.0637176,0.01,-0.1,-0.25,-0.21925698728178766,-0.2279836335417593,0.42215151282612845,1.8693153517305208,-0.9314147887204083,-2.186230794233637,-3,0,0,0,0,0,1541,1455,1500,1403,1427,1427
1747554124.1635985,0.01,-0.1,-0.25,-0.21925698728178766,-0.2279836335417593,0.42215151282612845,1.8693153517305208,-0.9314147887204083,-2.186230794233637,-3,0,0,0,0,0,1541,1455,1500,1403,1427,1427
1747554124.2640562,-0.01,-0.07,-0.19,-0.2617993877991494,-0.25089107997418486,0.3883357585687383,1.9127015318227738,-0.9749500157028177,-2.2802605654364223,-3,0,0,0,0,0,1541,1455,1500,1403,1427,1427
1747554124.3602238,-0.05,-0.04,-0.24,-0.32179508083645453,-0.2552544031041707,0.34579335805137656,1.9590718092540498,-1.0133346183295942,-2.388375180518298,-3,0,0,0,0,0,1541,1455,1500,1403,1427,1427
1747554124.4477217,-0.05,-0.04,-0.24,-0.32179508083645453,-0.2552544031041707,0.34579335805137656,1.9590718092540498,-1.0133346183295942,-2.388375180518298,-3,0,0,0,0,0,1541,1455,1500,1403,1427,1427
1747554124.547558,-0.04,-0.12,-0.19,-0.358883327441334,-0.25089107997418486,0.3108867730114899,2.0016110042210835,-1.0416436011435537,-2.4943839589388306,-3,0,0,0,0,0,1541,1455,1500,1403,1427,1427
1747554124.6482909,-0.04,-0.12,-0.19,-0.358883327441334,-0.25089107997418486,0.3108867730114899,2.0016110042210835,-1.0416436011435537,-2.4943839589388306,-3,0,0,0,0,0,1541,1455,1500,1403,1427,1427
1747554124.7475417,0.01,-0.16,-0.21,-0.385063266221249,-0.2476185876266955,0.2748893571891069,2.0440065063458372,-1.064559458102217,-2.608105321611723,-3,0,0,0,0,0,1541,1455,1500,1403,1427,1427
1747554124.8481581,0.07,-0.03,-0.18,-0.3861540970037454,-0.24325526449670967,0.24216443371421323,2.0845467183543263,-1.0810217852931268,-2.7214035713926155,-3,0,0,0,0,0,1541,1455,1500,1403,1427,1427
1747554124.9316998,0.07,-0.03,-0.18,-0.3861540970037454,-0.24325526449670967,0.24216443371421323,2.0845467183543263,-1.0810217852931268,-2.7214035713926155,-3,0,0,0,0,0,1541,1455,1500,1403,1427,1427
1747554125.0316927,-0.06,-0.17,-0.1,-0.3948807432637171,-0.24870941840919197,0.21380283336930536,2.122876744035843,-1.091647161042805,-2.827811676785503,-3,0,0,0,0,0,1541,1455,1500,1403,1427,1427
1747554125.1300254,-0.06,-0.17,-0.1,-0.3948807432637171,-0.24870941840919197,0.21380283336930536,2.122876744035843,-1.091647161042805,-2.827811676785503,-3,0,0,0,0,0,1541,1455,1500,1403,1427,1427
1747554125.214189,0.02,-0.22,-0.16,-0.3981532356112064,-0.24980024919168842,0.19525871006686563,2.1621133470555334,-1.09709804908976,-2.9403121224242033,-3,0,0,0,0,0,1541,1455,1500,1403,1427,1427
1747554125.313832,0.08,-0.3,-0.09,-0.39269908169872414,-0.26398104936414235,0.22143864884678055,2.20444432792169,-1.1019044963019546,-3.050273718012503,-3,0,0,0,0,0,1541,1455,1500,1403,1427,1427
1747554125.4140296,0.08,-0.3,-0.09,-0.39269908169872414,-0.26398104936414235,0.22143864884678055,2.20444432792169,-1.1019044963019546,-3.050273718012503,-3,0,0,0,0,0,1541,1455,1500,1403,1427,1427
1747554125.513937,0.03,-0.22,-0.06,-0.40906154343617096,-0.26616271092913524,0.24980024919168842,2.25678154661329,-1.1062443901370655,3.1059196493283263,-3,0,0,0,0,0,1541,1455,1500,1403,1427,1427
1747554125.6103983,0.04,-0.14,-0.01,-0.4363323129985824,-0.26070855701665296,0.25089107997418486,2.305867652384139,-1.109034264337901,2.983359570561549,-3,0,0,0,0,0,1541,1455,1500,1403,1427,1427
1747554125.697639,0.04,-0.14,-0.01,-0.4363323129985824,-0.26070855701665296,0.25089107997418486,2.305867652384139,-1.109034264337901,2.983359570561549,-3,0,0,0,0,0,1541,1455,1500,1403,1427,1427
1747554125.7972467,0.1,-0.29,-0.15,-0.4734205596034619,-0.2683443724941282,0.25416357232167425,2.3540150535876685,-1.1096931558675731,2.851299871473484,-3,0,0,0,0,0,1541,1455,1500,1403,1427,1427
1747554125.8980901,0.1,-0.29,-0.15,-0.4734205596034619,-0.2683443724941282,0.25416357232167425,2.3540150535876685,-1.1096931558675731,2.851299871473484,-3,0,0,0,0,0,1541,1455,1500,1403,1427,1427
1747554125.998124,0.08,-0.2,-0.06,-0.5159629601208237,-0.26616271092913524,0.2585268954516601,2.398736120447639,-1.1084733532247768,2.71631215437124,-3,0,0,0,0,0,1541,1455,1500,1403,1427,1427
1747554126.0984886,-0.05,-0.26,-0.05,-0.5421428989007386,-0.2519819107566813,0.27379852640661045,2.4371942636861945,-1.1071869466787048,2.5891605219448057,-3,0,0,0,0,0,1541,1455,1500,1403,1427,1427
1747554126.1802332,-0.05,-0.26,-0.05,-0.5421428989007386,-0.2519819107566813,0.27379852640661045,2.4371942636861945,-1.1071869466787048,2.5891605219448057,-3,0,0,0,0,0,1541,1455,1500,1403,1427,1427
1747554126.280853,0.07,-0.27,-0.03,-0.5759586531581288,-0.2399827721492203,0.27598018797160334,2.4717209643650278,-1.106024042068016,2.454850500349493,-3,0,0,0,0,0,1541,1455,1500,1403,1427,1427
1747554126.3804934,0.07,-0.27,-0.03,-0.5759586531581288,-0.2399827721492203,0.27598018797160334,2.4717209643650278,-1.106024042068016,2.454850500349493,-3,0,0,0,0,0,1541,1455,1500,1403,1427,1427
1747554126.464236,0.02,-0.29,-0.18,-0.5923211148955756,-0.23125612588924865,0.2781618495365963,2.5017385023704826,-1.1045934780319107,2.3225183479132285,-3,0,0,0,0,0,1541,1455,1500,1403,1427,1427
1747554126.563671,0.04,-0.29,-0.04,-0.5912302841130791,-0.22907446432425577,0.27379852640661045,2.528650288983884,-1.101841930839197,2.191935489837128,0,0,0,0,0,0,1501,1495,1500,1443,1467,1467
1747554126.6645598,0.04,-0.29,-0.04,-0.5912302841130791,-0.22907446432425577,0.27379852640661045,2.528650288983884,-1.101841930839197,2.191935489837128,0,0,0,0,0,0,1500,1500,1500,1483,1500,1500
1747554126.7640374,-0.14,-0.17,-0.01,-0.5705044992456465,-0.20943951023931956,0.21707532571679475,2.5478677042372686,-1.0975800036229504,2.076219567090632,3,0,0,0,0,0,1460,1540,1500,1523,1540,1540
1747554126.8602057,-0.21,-0.33,-0.07,-0.4919646829059016,-0.1930770485018727,0.07308566242726255,2.541074962626782,-1.085439591769738,1.9997445287111055,3,0,0,0,0,0,1455,1541,1500,1563,1565,1565
1747554126.9480672,-0.21,-0.33,-0.07,-0.4919646829059016,-0.1930770485018727,0.07308566242726255,2.541074962626782,-1.085439591769738,1.9997445287111055,3,0,0,0,0,0,1455,1541,1500,1586,1565,1565
1747554127.0480528,-0.01,-0.17,-0.03,-0.36760997370130566,-0.18544123302439752,-0.030543261909900768,2.514970935763618,-1.0650873768285074,1.9527782869744508,3,0,0,0,0,0,1455,1541,1500,1586,1565,1565
1747554127.148084,-0.01,-0.17,-0.03,-0.36760997370130566,-0.18544123302439752,-0.030543261909900768,2.514970935763618,-1.0650873768285074,1.9527782869744508,3,0,0,0,0,0,1455,1541,1500,1586,1565,1565
1747554127.2477212,0.2,-0.21,-0.1,-0.16471544815696484,-0.16471544815696484,-0.19853120241435498,2.4874041503724427,-1.0321371346595192,1.9469470437004448,3,0,0,0,0,0,1455,1541,1500,1586,1565,1565
1747554127.3473868,0.13,0.2,-0.01,-0.20507618710933373,-0.13199052468207118,-0.3687008044838021,2.4407798057175474,-0.9895318946830209,1.9779341642349466,3,0,0,0,0,0,1455,1541,1500,1586,1565,1565
1747554127.430777,0.13,0.2,-0.01,-0.20507618710933373,-0.13199052468207118,-0.3687008044838021,2.4407798057175474,-0.9895318946830209,1.9779341642349466,3,0,0,0,0,0,1455,1541,1500,1586,1565,1565
1747554127.5312953,0.15,-0.05,0.01,-0.18544123302439752,-0.09708393964218458,-0.4854196982109229,2.357491275666332,-0.9325831032326605,2.042048853213304,3,0,0,0,0,0,1455,1541,1500,1586,1565,1565
1747554127.6301112,0.15,-0.05,0.01,-0.18544123302439752,-0.09708393964218458,-0.4854196982109229,2.357491275666332,-0.9325831032326605,2.042048853213304,3,0,0,0,0,0,1455,1541,1500,1586,1565,1565
1747554127.714976,0.11,-0.24,-0.02,-0.1832595714594046,-0.08726646259971647,-0.5868669609830933,2.2713813691531346,-0.8625113777322964,2.115387322672329,3,0,0,0,0,0,1455,1541,1500,1586,1565,1565
1747554127.8097873,0.23,-0.15,-0.06,-0.15489797111449674,-0.11017390903214205,-0.6686792696703275,2.201374141387152,-0.7842261073493398,2.179300528254587,3,0,0,0,0,0,1455,1541,1500,1586,1565,1565
1747554127.9145792,0.23,-0.15,-0.06,-0.15489797111449674,-0.11017390903214205,-0.6686792696703275,2.201374141387152,-0.7842261073493398,2.179300528254587,3,0,0,0,0,0,1455,1541,1500,1586,1565,1565
1747554128.0145361,0.21,-0.21,-0.08,-0.12217304763960307,-0.14180800172453928,-0.7155849933176751,2.142655245888753,-0.6880750959200602,2.236647880211986,3,0,0,0,0,0,1455,1541,1500,1586,1565,1565
1747554128.1138492,0.21,-0.21,-0.08,-0.12217304763960307,-0.14180800172453928,-0.7155849933176751,2.142655245888753,-0.6880750959200602,2.236647880211986,0,0,0,0,0,0,1495,1501,1500,1546,1525,1525
1747554128.1980839,0.29,-1.43,-0.08,-0.07308566242726255,-0.1505346479845109,-0.7504915783575618,2.104625200054882,-0.5899976468211867,2.2809875325613254,0,0,0,0,0,0,1500,1500,1500,1506,1500,1500
1747554128.2973595,0.13,-0.35000000000000003,-0.03,-0.008726646259971648,-0.15489797111449674,-0.693768377667746,2.081395509089162,-0.48422573050927986,2.3215691753058585,0,0,0,0,0,0,1500,1500,1500,1500,1500,1500
1747554128.3978717,0.13,-0.35000000000000003,-0.03,-0.008726646259971648,-0.15489797111449674,-0.693768377667746,2.081395509089162,-0.48422573050927986,2.3215691753058585,-3,0,0,0,0,0,1540,1460,1500,1460,1460,1460
1747554128.497095,0.14,-0.2,-0.12,0.02945243112740431,-0.14726215563702155,-0.5825036378531074,2.072398512898845,-0.3893534626049888,2.349773012314599,-3,0,0,0,0,0,1541,1455,1500,1420,1427,1427
1747554128.5985298,0.18,-0.19,-0.1,0.039269908169872414,-0.13308135546456762,-0.5159629601208237,2.0737095141149613,-0.3092766206312744,2.371045677982044,-3,0,0,0,0,0,1541,1455,1500,1403,1427,1427
1747554128.6803198,0.18,-0.19,-0.1,0.039269908169872414,-0.13308135546456762,-0.5159629601208237,2.0737095141149613,-0.3092766206312744,2.371045677982044,-3,0,0,0,0,0,1541,1455,1500,1403,1427,1427
1747554128.7799232,0.45,-0.2,-0.15,-0.04363323129985824,-0.13199052468207118,-0.36979163526629855,2.0747901172181513,-0.24547853531183314,2.3862716349017923,-3,0,0,0,0,0,1541,1455,1500,1403,1427,1427
1747554128.8800883,0.45,-0.2,-0.15,-0.04363323129985824,-0.13199052468207118,-0.36979163526629855,2.0747901172181513,-0.24547853531183314,2.3862716349017923,-3,0,0,0,0,0,1541,1455,1500,1403,1427,1427
1747554128.9642482,0.12,-0.43,-0.08,-0.0719948316447661,-0.12544553998709243,-0.19525871006686563,2.0658526620376487,-0.19917504001646996,2.3894769535392992,-3,0,0,0,0,0,1541,1455,1500,1403,1427,1427
1747554129.064338,0.11,-0.38,-0.19,-0.08944812416470939,-0.11453723216212788,-0.0545415391248228,2.0602463622973013,-0.17800516152599247,2.3815072277919405,-3,0,0,0,0,0,1541,1455,1500,1403,1427,1427
1747554129.1645434,0.11,-0.38,-0.19,-0.08944812416470939,-0.11453723216212788,-0.0545415391248228,2.0602463622973013,-0.17800516152599247,2.3815072277919405,-3,0,0,0,0,0,1541,1455,1500,1403,1427,1427
1747554129.2642367,0.03,-0.24,-0.15,-0.1090830782496456,-0.09926560120717749,0.05672320068981571,2.0511429642369357,-0.17283624859290253,2.3657959440175276,-3,0,0,0,0,0,1541,1455,1500,1403,1427,1427
1747554129.3626418,0.07,-0.23,-0.19,-0.11453723216212788,-0.08835729338221293,0.15817046346198613,2.04256344796703,-0.18300881474433586,2.3449737513248343,-3,0,0,0,0,0,1541,1455,1500,1403,1427,1427
1747554129.4474888,0.07,-0.23,-0.19,-0.11453723216212788,-0.08835729338221293,0.15817046346198613,2.04256344796703,-0.18300881474433586,2.3449737513248343,0,0,0,0,0,0,1501,1495,1500,1443,1467,1467
1747554129.5475132,0.03,-0.22,-0.27,-0.11126473981463851,-0.09381144729469522,0.23671027980173096,2.0361453526262525,-0.20594203598491767,2.3163954383252703,0,-1.734821,0,0,0,0,1461,1455,1460,1483,1500,1500
1747554129.6474771,0.03,-0.22,-0.27,-0.11126473981463851,-0.09381144729469522,0.23671027980173096,2.0361453526262525,-0.20594203598491767,2.3163954383252703,0,-12.5,0,0,0,0,1421,1415,1420,1500,1500,1500
1747554129.7300205,0.11,-0.06,-0.28,-0.061086523819801536,-0.08835729338221293,0.15707963267948966,2.0328167262423396,-0.22880224678181413,2.287688188918373,0,-12.5,0,0,0,0,1381,1379,1396,1500,1500,1500
1747554129.830191,0.11,-0.06,-0.28,-0.061086523819801536,-0.08835729338221293,0.15707963267948966,2.0328167262423396,-0.22880224678181413,2.287688188918373,0,-12.5,0,0,0,0,1377,1379,1396,1500,1500,1500
1747554129.9160798,-0.2,0.0,-0.21,-0.026179938779914945,-0.10799224746714914,0.08617563181722002,2.0346641612509564,-0.23815032151512047,2.266184414129914,0,-12.5,0,0,0,0,1377,1379,1396,1500,1500,1500
1747554130.034838,-0.73,-0.25,-0.14,-0.04363323129985824,-0.18216874067690814,0.07635815477475191,2.037846745850964,-0.23665513382296838,2.240485076561236,0,-12.5,0,0,0,0,1377,1379,1396,1500,1500,1500
1747554130.1321518,-0.73,-0.25,-0.14,-0.04363323129985824,-0.18216874067690814,0.07635815477475191,2.037846745850964,-0.23665513382296838,2.240485076561236,0,-12.5,0,0,0,0,1377,1379,1396,1500,1500,1500
1747554130.2321856,-0.36,-0.22,-0.11,-0.11344640137963143,-0.08399397025222712,0.03381575425739013,2.035534191281435,-0.22422136864785794,2.2174104186270718,0,-12.5,0,0,0,0,1377,1379,1396,1500,1500,1500
1747554130.3339005,-0.12,0.0,-0.26,-0.17016960206944712,-0.04145156973486533,0.019634954084936207,2.022715187397223,-0.22035485326889326,2.2059522717116224,0,-12.5,0,0,0,0,1377,1379,1396,1500,1500,1500
1747554130.4313622,-0.12,0.0,-0.26,-0.17016960206944712,-0.04145156973486533,0.019634954084936207,2.022715187397223,-0.22035485326889326,2.2059522717116224,0,-12.5,0,0,0,0,1377,1379,1396,1500,1500,1500
1747554130.5300138,0.11,-0.21,-0.19,-0.18762289458939044,0.013089969389957472,0.001090830782496456,2.0018584477755583,-0.2206933574357974,2.202043574392434,0,-12.5,0,0,0,0,1377,1379,1396,1500,1500,1500
1747554130.6310916,0.13,-0.12,-0.22,-0.210530341021816,0.06872233929727672,-0.007635815477475192,1.9758088620613696,-0.22433900925958014,2.2065414867477946,0,-12.5,0,0,0,0,1377,1379,1396,1500,1500,1500
1747554130.7140982,0.13,-0.12,-0.22,-0.210530341021816,0.06872233929727672,-0.007635815477475192,1.9758088620613696,-0.22433900925958014,2.2065414867477946,0,-12.5,0,0,0,0,1377,1379,1396,1500,1500,1500
1747554130.8148124,0.3,-0.22,-0.22,-0.22143864884678055,0.13962634015954636,0.006544984694978736,1.9437885675624036,-0.23265620879294424,2.221045301419844,0,-12.5,0,0,0,0,1377,1379,1396,1500,1500,1500
1747554130.913982,0.3,-0.22,-0.22,-0.22143864884678055,0.13962634015954636,0.006544984694978736,1.9437885675624036,-0.23265620879294424,2.221045301419844,0,-12.5,0,0,0,0,1377,1379,1396,1500,1500,1500
1747554131.0151236,0.0,0.01,-0.25,-0.23452861823673804,0.18435040224190105,0.038179077387375956,1.9103576884914422,-0.24650820088537256,2.2418134354709918,0,-12.5,0,0,0,0,1377,1379,1396,1500,1500,1500
1747554131.1143785,0.11,-0.38,-0.24,-0.2519819107566813,0.19962203319685143,0.06763150851478027,1.8720409052720501,-0.2661345625033139,2.26746061397098,0,-12.5,0,0,0,0,1377,1379,1396,1500,1500,1500
1747554131.1979113,0.11,-0.38,-0.24,-0.2519819107566813,0.19962203319685143,0.06763150851478027,1.8720409052720501,-0.2661345625033139,2.26746061397098,0,-12.5,0,0,0,0,1377,1379,1396,1500,1500,1500
1747554131.2973623,0.15,-0.17,-0.26,-0.27379852640661045,0.2007128639793479,0.10362892433716332,1.8298731914831508,-0.28955576773185393,2.293566646816078,0,-12.5,0,0,0,0,1377,1379,1396,1500,1500,1500
1747554131.3979828,0.19,-0.26,-0.32,-0.2912518189265537,0.2007128639793479,0.1090830782496456,1.7850173406403642,-0.3151981130956969,2.3188748738501057,0,-12.5,0,0,0,0,1377,1379,1396,1500,1500,1500
1747554131.4985363,0.19,-0.26,-0.32,-0.2912518189265537,0.2007128639793479,0.1090830782496456,1.7850173406403642,-0.3151981130956969,2.3188748738501057,0,-12.5,0,0,0,0,1377,1379,1396,1500,1500,1500
1747554131.5977216,-0.1,-0.09,-0.19,-0.2901609881440573,0.1734420944169365,0.12108221685710661,1.7414153077794559,-0.3388416838220195,2.3410613912832883,0,-12.5,0,0,0,0,1377,1379,1396,1500,1500,1500
1747554131.68079,-0.1,-0.09,-0.19,-0.2901609881440573,0.1734420944169365,0.12108221685710661,1.7414153077794559,-0.3388416838220195,2.3410613912832883,0,-12.5,0,0,0,0,1377,1379,1396,1500,1500,1500
